[{"frame_index":298,"name":"ports_0","capacity":10000,"empty":3120,"full":1477,"shortage":0,"booking":178,"fulfillment":178,"port_name":"Bremerhaven","position":{"lat":53.549999,"lng":8.583333},"status":"surplus"},{"frame_index":298,"name":"ports_1","capacity":10000,"empty":934,"full":16,"shortage":0,"booking":15,"fulfillment":15,"port_name":"Durban","position":{"lat":-29.8579,"lng":31.0292},"status":"surplus"},{"frame_index":298,"name":"ports_2","capacity":10000,"empty":0,"full":186,"shortage":13,"booking":13,"fulfillment":0,"port_name":"Itagual","position":{"lat":-22.85222,"lng":-43.77528},"status":"demand"},{"frame_index":298,"name":"ports_3","capacity":10000,"empty":855,"full":636,"shortage":0,"booking":76,"fulfillment":76,"port_name":"LeHavre","position":{"lat":49.490002,"lng":0.1},"status":"surplus"},{"frame_index":298,"name":"ports_4","capacity":10000,"empty":1267,"full":942,"shortage":0,"booking":64,"fulfillment":64,"port_name":"Los Angeles","position":{"lat":34.052235,"lng":-118.243683},"status":"surplus"},{"frame_index":298,"name":"ports_5","capacity":10000,"empty":0,"full":1148,"shortage":14,"booking":72,"fulfillment":58,"port_name":"Manzanillo","position":{"lat":19.11695,"lng":-104.34214},"status":"demand"},{"frame_index":298,"name":"ports_6","capacity":10000,"empty":0,"full":284,"shortage":8,"booking":20,"fulfillment":12,"port_name":"Melbourne","position":{"lat":-37.840935,"lng":144.946457},"status":"demand"},{"frame_index":298,"name":"ports_7","capacity":10000,"empty":698,"full":21,"shortage":0,"booking":20,"fulfillment":20,"port_name":"Montreal","position":{"lat":45.516136,"lng":-73.65683},"status":"surplus"},{"frame_index":298,"name":"ports_8","capacity":10000,"empty":6222,"full":267,"shortage":0,"booking":37,"fulfillment":37,"port_name":"New York","position":{"lat":40.73061,"lng":-73.935242},"status":"surplus"},{"frame_index":298,"name":"ports_9","capacity":10000,"empty":2131,"full":168,"shortage":0,"booking":45,"fulfillment":45,"port_name":"Oakland","position":{"lat":37.804363,"lng":-122.271111},"status":"surplus"},{"frame_index":298,"name":"ports_10","capacity":10000,"empty":1800,"full":805,"shortage":0,"booking":19,"fulfillment":19,"port_name":"Prince Rupert","position":{"lat":54.312519,"lng":-130.305405},"status":"surplus"},{"frame_index":298,"name":"ports_11","capacity":10000,"empty":924,"full":579,"shortage":0,"booking":75,"fulfillment":75,"port_name":"Pusan","position":{"lat":35.166668,"lng":129.066666},"status":"surplus"},{"frame_index":298,"name":"ports_12","capacity":10000,"empty":530,"full":829,"shortage":0,"booking":114,"fulfillment":114,"port_name":"Qingdao","position":{"lat":36.066898,"lng":120.382698},"status":"balance"},{"frame_index":298,"name":"ports_13","capacity":10000,"empty":0,"full":261,"shortage":13,"booking":13,"fulfillment":0,"port_name":"San Antonio","position":{"lat":29.424349,"lng":-98.491142},"status":"demand"},{"frame_index":298,"name":"ports_14","capacity":10000,"empty":542,"full":511,"shortage":0,"booking":15,"fulfillment":15,"port_name":"Santos","position":{"lat":-23.96083,"lng":-46.33361},"status":"surplus"},{"frame_index":298,"name":"ports_15","capacity":10000,"empty":0,"full":913,"shortage":34,"booking":91,"fulfillment":57,"port_name":"Seattle","position":{"lat":47.608013,"lng":-122.335167},"status":"demand"},{"frame_index":298,"name":"ports_16","capacity":10000,"empty":0,"full":1206,"shortage":126,"booking":126,"fulfillment":0,"port_name":"Shanghai","position":{"lat":31.224361,"lng":121.46917},"status":"demand"},{"frame_index":298,"name":"ports_17","capacity":10000,"empty":1066,"full":663,"shortage":0,"booking":51,"fulfillment":51,"port_name":"Singapore","position":{"lat":1.29027,"lng":103.851959},"status":"surplus"},{"frame_index":298,"name":"ports_18","capacity":10000,"empty":0,"full":118,"shortage":19,"booking":19,"fulfillment":0,"port_name":"Sydney","position":{"lat":-33.865143,"lng":151.2099},"status":"demand"},{"frame_index":298,"name":"ports_19","capacity":10000,"empty":0,"full":470,"shortage":0,"booking":26,"fulfillment":26,"port_name":"Vancouver","position":{"lat":49.246292,"lng":-123.116226},"status":"demand"},{"frame_index":298,"name":"ports_20","capacity":10000,"empty":0,"full":523,"shortage":67,"booking":84,"fulfillment":17,"port_name":"Yantian","position":{"lat":26.8533,"lng":119.8575},"status":"demand"},{"frame_index":298,"name":"ports_21","capacity":10000,"empty":0,"full":644,"shortage":93,"booking":93,"fulfillment":0,"port_name":"Yokohama","position":{"lat":35.443707,"lng":139.638031},"status":"demand"}]