[{"frame_index":694,"name":"ports_0","capacity":10000,"empty":1915,"full":752,"shortage":0,"booking":55,"fulfillment":55,"port_name":"Bremerhaven","position":{"lat":53.549999,"lng":8.583333},"status":"surplus"},{"frame_index":694,"name":"ports_1","capacity":10000,"empty":281,"full":58,"shortage":0,"booking":3,"fulfillment":3,"port_name":"Durban","position":{"lat":-29.8579,"lng":31.0292},"status":"surplus"},{"frame_index":694,"name":"ports_2","capacity":10000,"empty":560,"full":202,"shortage":0,"booking":3,"fulfillment":3,"port_name":"Itagual","position":{"lat":-22.85222,"lng":-43.77528},"status":"surplus"},{"frame_index":694,"name":"ports_3","capacity":10000,"empty":0,"full":601,"shortage":18,"booking":18,"fulfillment":0,"port_name":"LeHavre","position":{"lat":49.490002,"lng":0.1},"status":"demand"},{"frame_index":694,"name":"ports_4","capacity":10000,"empty":990,"full":426,"shortage":0,"booking":15,"fulfillment":15,"port_name":"Los Angeles","position":{"lat":34.052235,"lng":-118.243683},"status":"surplus"},{"frame_index":694,"name":"ports_5","capacity":10000,"empty":999,"full":229,"shortage":0,"booking":13,"fulfillment":13,"port_name":"Manzanillo","position":{"lat":19.11695,"lng":-104.34214},"status":"surplus"},{"frame_index":694,"name":"ports_6","capacity":10000,"empty":0,"full":114,"shortage":5,"booking":5,"fulfillment":0,"port_name":"Melbourne","position":{"lat":-37.840935,"lng":144.946457},"status":"balance"},{"frame_index":694,"name":"ports_7","capacity":10000,"empty":2078,"full":136,"shortage":0,"booking":5,"fulfillment":5,"port_name":"Montreal","position":{"lat":45.516136,"lng":-73.65683},"status":"surplus"},{"frame_index":694,"name":"ports_8","capacity":10000,"empty":12372,"full":353,"shortage":0,"booking":9,"fulfillment":9,"port_name":"New York","position":{"lat":40.73061,"lng":-73.935242},"status":"surplus"},{"frame_index":694,"name":"ports_9","capacity":10000,"empty":829,"full":575,"shortage":0,"booking":9,"fulfillment":9,"port_name":"Oakland","position":{"lat":37.804363,"lng":-122.271111},"status":"surplus"},{"frame_index":694,"name":"ports_10","capacity":10000,"empty":2372,"full":126,"shortage":0,"booking":5,"fulfillment":5,"port_name":"Prince Rupert","position":{"lat":54.312519,"lng":-130.305405},"status":"surplus"},{"frame_index":694,"name":"ports_11","capacity":10000,"empty":38,"full":1151,"shortage":0,"booking":17,"fulfillment":17,"port_name":"Pusan","position":{"lat":35.166668,"lng":129.066666},"status":"balance"},{"frame_index":694,"name":"ports_12","capacity":10000,"empty":1429,"full":1453,"shortage":0,"booking":26,"fulfillment":26,"port_name":"Qingdao","position":{"lat":36.066898,"lng":120.382698},"status":"surplus"},{"frame_index":694,"name":"ports_13","capacity":10000,"empty":6616,"full":81,"shortage":0,"booking":3,"fulfillment":3,"port_name":"San Antonio","position":{"lat":29.424349,"lng":-98.491142},"status":"surplus"},{"frame_index":694,"name":"ports_14","capacity":10000,"empty":474,"full":94,"shortage":0,"booking":3,"fulfillment":3,"port_name":"Santos","position":{"lat":-23.96083,"lng":-46.33361},"status":"surplus"},{"frame_index":694,"name":"ports_15","capacity":10000,"empty":1132,"full":291,"shortage":0,"booking":21,"fulfillment":21,"port_name":"Seattle","position":{"lat":47.608013,"lng":-122.335167},"status":"surplus"},{"frame_index":694,"name":"ports_16","capacity":10000,"empty":1987,"full":962,"shortage":0,"booking":32,"fulfillment":32,"port_name":"Shanghai","position":{"lat":31.224361,"lng":121.46917},"status":"surplus"},{"frame_index":694,"name":"ports_17","capacity":10000,"empty":2114,"full":175,"shortage":0,"booking":12,"fulfillment":12,"port_name":"Singapore","position":{"lat":1.29027,"lng":103.851959},"status":"surplus"},{"frame_index":694,"name":"ports_18","capacity":10000,"empty":90,"full":152,"shortage":0,"booking":4,"fulfillment":4,"port_name":"Sydney","position":{"lat":-33.865143,"lng":151.2099},"status":"surplus"},{"frame_index":694,"name":"ports_19","capacity":10000,"empty":60,"full":114,"shortage":0,"booking":6,"fulfillment":6,"port_name":"Vancouver","position":{"lat":49.246292,"lng":-123.116226},"status":"balance"},{"frame_index":694,"name":"ports_20","capacity":10000,"empty":0,"full":613,"shortage":20,"booking":20,"fulfillment":0,"port_name":"Yantian","position":{"lat":26.8533,"lng":119.8575},"status":"demand"},{"frame_index":694,"name":"ports_21","capacity":10000,"empty":0,"full":285,"shortage":10,"booking":14,"fulfillment":4,"port_name":"Yokohama","position":{"lat":35.443707,"lng":139.638031},"status":"demand"}]