[{"frame_index":1092,"name":"ports_0","capacity":10000,"empty":0,"full":3387,"shortage":142,"booking":142,"fulfillment":0,"port_name":"Bremerhaven","position":{"lat":53.549999,"lng":8.583333},"status":"demand"},{"frame_index":1092,"name":"ports_1","capacity":10000,"empty":0,"full":371,"shortage":10,"booking":10,"fulfillment":0,"port_name":"Durban","position":{"lat":-29.8579,"lng":31.0292},"status":"balance"},{"frame_index":1092,"name":"ports_2","capacity":10000,"empty":416,"full":321,"shortage":0,"booking":10,"fulfillment":10,"port_name":"Itagual","position":{"lat":-22.85222,"lng":-43.77528},"status":"surplus"},{"frame_index":1092,"name":"ports_3","capacity":10000,"empty":0,"full":1431,"shortage":44,"booking":53,"fulfillment":9,"port_name":"LeHavre","position":{"lat":49.490002,"lng":0.1},"status":"demand"},{"frame_index":1092,"name":"ports_4","capacity":10000,"empty":877,"full":158,"shortage":0,"booking":46,"fulfillment":46,"port_name":"Los Angeles","position":{"lat":34.052235,"lng":-118.243683},"status":"surplus"},{"frame_index":1092,"name":"ports_5","capacity":10000,"empty":120,"full":576,"shortage":0,"booking":48,"fulfillment":48,"port_name":"Manzanillo","position":{"lat":19.11695,"lng":-104.34214},"status":"demand"},{"frame_index":1092,"name":"ports_6","capacity":10000,"empty":0,"full":286,"shortage":14,"booking":14,"fulfillment":0,"port_name":"Melbourne","position":{"lat":-37.840935,"lng":144.946457},"status":"demand"},{"frame_index":1092,"name":"ports_7","capacity":10000,"empty":1738,"full":56,"shortage":0,"booking":14,"fulfillment":14,"port_name":"Montreal","position":{"lat":45.516136,"lng":-73.65683},"status":"surplus"},{"frame_index":1092,"name":"ports_8","capacity":10000,"empty":17710,"full":95,"shortage":0,"booking":27,"fulfillment":27,"port_name":"New York","position":{"lat":40.73061,"lng":-73.935242},"status":"surplus"},{"frame_index":1092,"name":"ports_9","capacity":10000,"empty":85,"full":1224,"shortage":0,"booking":31,"fulfillment":31,"port_name":"Oakland","position":{"lat":37.804363,"lng":-122.271111},"status":"demand"},{"frame_index":1092,"name":"ports_10","capacity":10000,"empty":771,"full":368,"shortage":0,"booking":14,"fulfillment":14,"port_name":"Prince Rupert","position":{"lat":54.312519,"lng":-130.305405},"status":"surplus"},{"frame_index":1092,"name":"ports_11","capacity":10000,"empty":12,"full":1803,"shortage":0,"booking":53,"fulfillment":53,"port_name":"Pusan","position":{"lat":35.166668,"lng":129.066666},"status":"demand"},{"frame_index":1092,"name":"ports_12","capacity":10000,"empty":0,"full":1139,"shortage":72,"booking":72,"fulfillment":0,"port_name":"Qingdao","position":{"lat":36.066898,"lng":120.382698},"status":"demand"},{"frame_index":1092,"name":"ports_13","capacity":10000,"empty":71,"full":295,"shortage":0,"booking":8,"fulfillment":8,"port_name":"San Antonio","position":{"lat":29.424349,"lng":-98.491142},"status":"balance"},{"frame_index":1092,"name":"ports_14","capacity":10000,"empty":0,"full":426,"shortage":11,"booking":11,"fulfillment":0,"port_name":"Santos","position":{"lat":-23.96083,"lng":-46.33361},"status":"demand"},{"frame_index":1092,"name":"ports_15","capacity":10000,"empty":0,"full":1459,"shortage":60,"booking":60,"fulfillment":0,"port_name":"Seattle","position":{"lat":47.608013,"lng":-122.335167},"status":"demand"},{"frame_index":1092,"name":"ports_16","capacity":10000,"empty":0,"full":1371,"shortage":59,"booking":103,"fulfillment":44,"port_name":"Shanghai","position":{"lat":31.224361,"lng":121.46917},"status":"demand"},{"frame_index":1092,"name":"ports_17","capacity":10000,"empty":44,"full":360,"shortage":0,"booking":37,"fulfillment":37,"port_name":"Singapore","position":{"lat":1.29027,"lng":103.851959},"status":"demand"},{"frame_index":1092,"name":"ports_18","capacity":10000,"empty":0,"full":120,"shortage":0,"booking":15,"fulfillment":15,"port_name":"Sydney","position":{"lat":-33.865143,"lng":151.2099},"status":"demand"},{"frame_index":1092,"name":"ports_19","capacity":10000,"empty":0,"full":477,"shortage":18,"booking":18,"fulfillment":0,"port_name":"Vancouver","position":{"lat":49.246292,"lng":-123.116226},"status":"demand"},{"frame_index":1092,"name":"ports_20","capacity":10000,"empty":0,"full":344,"shortage":64,"booking":64,"fulfillment":0,"port_name":"Yantian","position":{"lat":26.8533,"lng":119.8575},"status":"demand"},{"frame_index":1092,"name":"ports_21","capacity":10000,"empty":605,"full":590,"shortage":0,"booking":63,"fulfillment":63,"port_name":"Yokohama","position":{"lat":35.443707,"lng":139.638031},"status":"surplus"}]