[{"frame_index":199,"name":"ports_0","capacity":10000,"empty":0,"full":1814,"shortage":143,"booking":143,"fulfillment":0,"port_name":"Bremerhaven","position":{"lat":53.549999,"lng":8.583333},"status":"demand"},{"frame_index":199,"name":"ports_1","capacity":10000,"empty":800,"full":94,"shortage":0,"booking":10,"fulfillment":10,"port_name":"Durban","position":{"lat":-29.8579,"lng":31.0292},"status":"surplus"},{"frame_index":199,"name":"ports_2","capacity":10000,"empty":0,"full":83,"shortage":0,"booking":12,"fulfillment":12,"port_name":"Itagual","position":{"lat":-22.85222,"lng":-43.77528},"status":"demand"},{"frame_index":199,"name":"ports_3","capacity":10000,"empty":1316,"full":1558,"shortage":0,"booking":64,"fulfillment":64,"port_name":"LeHavre","position":{"lat":49.490002,"lng":0.1},"status":"surplus"},{"frame_index":199,"name":"ports_4","capacity":10000,"empty":141,"full":50,"shortage":0,"booking":54,"fulfillment":54,"port_name":"Los Angeles","position":{"lat":34.052235,"lng":-118.243683},"status":"demand"},{"frame_index":199,"name":"ports_5","capacity":10000,"empty":474,"full":284,"shortage":0,"booking":58,"fulfillment":58,"port_name":"Manzanillo","position":{"lat":19.11695,"lng":-104.34214},"status":"surplus"},{"frame_index":199,"name":"ports_6","capacity":10000,"empty":0,"full":200,"shortage":17,"booking":17,"fulfillment":0,"port_name":"Melbourne","position":{"lat":-37.840935,"lng":144.946457},"status":"demand"},{"frame_index":199,"name":"ports_7","capacity":10000,"empty":32,"full":359,"shortage":0,"booking":17,"fulfillment":17,"port_name":"Montreal","position":{"lat":45.516136,"lng":-73.65683},"status":"demand"},{"frame_index":199,"name":"ports_8","capacity":10000,"empty":6735,"full":1203,"shortage":0,"booking":35,"fulfillment":35,"port_name":"New York","position":{"lat":40.73061,"lng":-73.935242},"status":"surplus"},{"frame_index":199,"name":"ports_9","capacity":10000,"empty":2097,"full":97,"shortage":0,"booking":37,"fulfillment":37,"port_name":"Oakland","position":{"lat":37.804363,"lng":-122.271111},"status":"surplus"},{"frame_index":199,"name":"ports_10","capacity":10000,"empty":417,"full":525,"shortage":0,"booking":16,"fulfillment":16,"port_name":"Prince Rupert","position":{"lat":54.312519,"lng":-130.305405},"status":"surplus"},{"frame_index":199,"name":"ports_11","capacity":10000,"empty":2379,"full":1264,"shortage":0,"booking":62,"fulfillment":62,"port_name":"Pusan","position":{"lat":35.166668,"lng":129.066666},"status":"surplus"},{"frame_index":199,"name":"ports_12","capacity":10000,"empty":388,"full":1531,"shortage":0,"booking":94,"fulfillment":94,"port_name":"Qingdao","position":{"lat":36.066898,"lng":120.382698},"status":"demand"},{"frame_index":199,"name":"ports_13","capacity":10000,"empty":1118,"full":72,"shortage":0,"booking":12,"fulfillment":12,"port_name":"San Antonio","position":{"lat":29.424349,"lng":-98.491142},"status":"surplus"},{"frame_index":199,"name":"ports_14","capacity":10000,"empty":0,"full":74,"shortage":12,"booking":12,"fulfillment":0,"port_name":"Santos","position":{"lat":-23.96083,"lng":-46.33361},"status":"demand"},{"frame_index":199,"name":"ports_15","capacity":10000,"empty":0,"full":650,"shortage":74,"booking":74,"fulfillment":0,"port_name":"Seattle","position":{"lat":47.608013,"lng":-122.335167},"status":"demand"},{"frame_index":199,"name":"ports_16","capacity":10000,"empty":1265,"full":1204,"shortage":0,"booking":96,"fulfillment":96,"port_name":"Shanghai","position":{"lat":31.224361,"lng":121.46917},"status":"surplus"},{"frame_index":199,"name":"ports_17","capacity":10000,"empty":560,"full":339,"shortage":0,"booking":42,"fulfillment":42,"port_name":"Singapore","position":{"lat":1.29027,"lng":103.851959},"status":"surplus"},{"frame_index":199,"name":"ports_18","capacity":10000,"empty":336,"full":309,"shortage":0,"booking":18,"fulfillment":18,"port_name":"Sydney","position":{"lat":-33.865143,"lng":151.2099},"status":"surplus"},{"frame_index":199,"name":"ports_19","capacity":10000,"empty":1050,"full":107,"shortage":0,"booking":22,"fulfillment":22,"port_name":"Vancouver","position":{"lat":49.246292,"lng":-123.116226},"status":"surplus"},{"frame_index":199,"name":"ports_20","capacity":10000,"empty":324,"full":409,"shortage":0,"booking":73,"fulfillment":73,"port_name":"Yantian","position":{"lat":26.8533,"lng":119.8575},"status":"balance"},{"frame_index":199,"name":"ports_21","capacity":10000,"empty":0,"full":659,"shortage":76,"booking":76,"fulfillment":0,"port_name":"Yokohama","position":{"lat":35.443707,"lng":139.638031},"status":"demand"}]