[{"frame_index":100,"name":"ports_0","capacity":10000,"empty":500,"full":2023,"shortage":0,"booking":97,"fulfillment":97,"port_name":"Bremerhaven","position":{"lat":53.549999,"lng":8.583333},"status":"balance"},{"frame_index":100,"name":"ports_1","capacity":10000,"empty":807,"full":85,"shortage":0,"booking":7,"fulfillment":7,"port_name":"Durban","position":{"lat":-29.8579,"lng":31.0292},"status":"surplus"},{"frame_index":100,"name":"ports_2","capacity":10000,"empty":13,"full":528,"shortage":0,"booking":7,"fulfillment":7,"port_name":"Itagual","position":{"lat":-22.85222,"lng":-43.77528},"status":"balance"},{"frame_index":100,"name":"ports_3","capacity":10000,"empty":502,"full":890,"shortage":0,"booking":41,"fulfillment":41,"port_name":"LeHavre","position":{"lat":49.490002,"lng":0.1},"status":"surplus"},{"frame_index":100,"name":"ports_4","capacity":10000,"empty":0,"full":722,"shortage":35,"booking":35,"fulfillment":0,"port_name":"Los Angeles","position":{"lat":34.052235,"lng":-118.243683},"status":"demand"},{"frame_index":100,"name":"ports_5","capacity":10000,"empty":1780,"full":173,"shortage":0,"booking":39,"fulfillment":39,"port_name":"Manzanillo","position":{"lat":19.11695,"lng":-104.34214},"status":"surplus"},{"frame_index":100,"name":"ports_6","capacity":10000,"empty":0,"full":277,"shortage":11,"booking":11,"fulfillment":0,"port_name":"Melbourne","position":{"lat":-37.840935,"lng":144.946457},"status":"demand"},{"frame_index":100,"name":"ports_7","capacity":10000,"empty":838,"full":183,"shortage":0,"booking":11,"fulfillment":11,"port_name":"Montreal","position":{"lat":45.516136,"lng":-73.65683},"status":"surplus"},{"frame_index":100,"name":"ports_8","capacity":10000,"empty":997,"full":0,"shortage":0,"booking":21,"fulfillment":21,"port_name":"New York","position":{"lat":40.73061,"lng":-73.935242},"status":"surplus"},{"frame_index":100,"name":"ports_9","capacity":10000,"empty":1375,"full":62,"shortage":0,"booking":24,"fulfillment":24,"port_name":"Oakland","position":{"lat":37.804363,"lng":-122.271111},"status":"surplus"},{"frame_index":100,"name":"ports_10","capacity":10000,"empty":319,"full":162,"shortage":0,"booking":10,"fulfillment":10,"port_name":"Prince Rupert","position":{"lat":54.312519,"lng":-130.305405},"status":"surplus"},{"frame_index":100,"name":"ports_11","capacity":10000,"empty":1568,"full":1142,"shortage":0,"booking":40,"fulfillment":40,"port_name":"Pusan","position":{"lat":35.166668,"lng":129.066666},"status":"surplus"},{"frame_index":100,"name":"ports_12","capacity":10000,"empty":0,"full":1257,"shortage":56,"booking":56,"fulfillment":0,"port_name":"Qingdao","position":{"lat":36.066898,"lng":120.382698},"status":"demand"},{"frame_index":100,"name":"ports_13","capacity":10000,"empty":0,"full":126,"shortage":7,"booking":7,"fulfillment":0,"port_name":"San Antonio","position":{"lat":29.424349,"lng":-98.491142},"status":"balance"},{"frame_index":100,"name":"ports_14","capacity":10000,"empty":12,"full":12,"shortage":0,"booking":6,"fulfillment":6,"port_name":"Santos","position":{"lat":-23.96083,"lng":-46.33361},"status":"balance"},{"frame_index":100,"name":"ports_15","capacity":10000,"empty":3074,"full":2730,"shortage":0,"booking":50,"fulfillment":50,"port_name":"Seattle","position":{"lat":47.608013,"lng":-122.335167},"status":"surplus"},{"frame_index":100,"name":"ports_16","capacity":10000,"empty":445,"full":310,"shortage":0,"booking":67,"fulfillment":67,"port_name":"Shanghai","position":{"lat":31.224361,"lng":121.46917},"status":"surplus"},{"frame_index":100,"name":"ports_17","capacity":10000,"empty":2431,"full":252,"shortage":0,"booking":29,"fulfillment":29,"port_name":"Singapore","position":{"lat":1.29027,"lng":103.851959},"status":"surplus"},{"frame_index":100,"name":"ports_18","capacity":10000,"empty":153,"full":448,"shortage":0,"booking":11,"fulfillment":11,"port_name":"Sydney","position":{"lat":-33.865143,"lng":151.2099},"status":"surplus"},{"frame_index":100,"name":"ports_19","capacity":10000,"empty":253,"full":99,"shortage":0,"booking":14,"fulfillment":14,"port_name":"Vancouver","position":{"lat":49.246292,"lng":-123.116226},"status":"surplus"},{"frame_index":100,"name":"ports_20","capacity":10000,"empty":0,"full":565,"shortage":18,"booking":44,"fulfillment":26,"port_name":"Yantian","position":{"lat":26.8533,"lng":119.8575},"status":"demand"},{"frame_index":100,"name":"ports_21","capacity":10000,"empty":0,"full":437,"shortage":44,"booking":44,"fulfillment":0,"port_name":"Yokohama","position":{"lat":35.443707,"lng":139.638031},"status":"demand"}]