[{"frame_index":507,"name":"ports_0","capacity":10000,"empty":1137,"full":2322,"shortage":0,"booking":322,"fulfillment":322,"port_name":"Bremerhaven","position":{"lat":53.549999,"lng":8.583333},"status":"demand"},{"frame_index":507,"name":"ports_1","capacity":10000,"empty":448,"full":193,"shortage":0,"booking":18,"fulfillment":18,"port_name":"Durban","position":{"lat":-29.8579,"lng":31.0292},"status":"surplus"},{"frame_index":507,"name":"ports_2","capacity":10000,"empty":431,"full":136,"shortage":0,"booking":19,"fulfillment":19,"port_name":"Itagual","position":{"lat":-22.85222,"lng":-43.77528},"status":"surplus"},{"frame_index":507,"name":"ports_3","capacity":10000,"empty":684,"full":550,"shortage":0,"booking":103,"fulfillment":103,"port_name":"LeHavre","position":{"lat":49.490002,"lng":0.1},"status":"surplus"},{"frame_index":507,"name":"ports_4","capacity":10000,"empty":0,"full":1257,"shortage":89,"booking":89,"fulfillment":0,"port_name":"Los Angeles","position":{"lat":34.052235,"lng":-118.243683},"status":"demand"},{"frame_index":507,"name":"ports_5","capacity":10000,"empty":0,"full":357,"shortage":96,"booking":96,"fulfillment":0,"port_name":"Manzanillo","position":{"lat":19.11695,"lng":-104.34214},"status":"demand"},{"frame_index":507,"name":"ports_6","capacity":10000,"empty":145,"full":218,"shortage":0,"booking":27,"fulfillment":27,"port_name":"Melbourne","position":{"lat":-37.840935,"lng":144.946457},"status":"balance"},{"frame_index":507,"name":"ports_7","capacity":10000,"empty":2464,"full":416,"shortage":0,"booking":27,"fulfillment":27,"port_name":"Montreal","position":{"lat":45.516136,"lng":-73.65683},"status":"surplus"},{"frame_index":507,"name":"ports_8","capacity":10000,"empty":7649,"full":275,"shortage":0,"booking":57,"fulfillment":57,"port_name":"New York","position":{"lat":40.73061,"lng":-73.935242},"status":"surplus"},{"frame_index":507,"name":"ports_9","capacity":10000,"empty":4653,"full":630,"shortage":0,"booking":52,"fulfillment":52,"port_name":"Oakland","position":{"lat":37.804363,"lng":-122.271111},"status":"surplus"},{"frame_index":507,"name":"ports_10","capacity":10000,"empty":657,"full":0,"shortage":0,"booking":28,"fulfillment":28,"port_name":"Prince Rupert","position":{"lat":54.312519,"lng":-130.305405},"status":"surplus"},{"frame_index":507,"name":"ports_11","capacity":10000,"empty":0,"full":648,"shortage":106,"booking":106,"fulfillment":0,"port_name":"Pusan","position":{"lat":35.166668,"lng":129.066666},"status":"demand"},{"frame_index":507,"name":"ports_12","capacity":10000,"empty":120,"full":1661,"shortage":0,"booking":125,"fulfillment":125,"port_name":"Qingdao","position":{"lat":36.066898,"lng":120.382698},"status":"demand"},{"frame_index":507,"name":"ports_13","capacity":10000,"empty":443,"full":0,"shortage":0,"booking":19,"fulfillment":19,"port_name":"San Antonio","position":{"lat":29.424349,"lng":-98.491142},"status":"surplus"},{"frame_index":507,"name":"ports_14","capacity":10000,"empty":471,"full":0,"shortage":0,"booking":18,"fulfillment":18,"port_name":"Santos","position":{"lat":-23.96083,"lng":-46.33361},"status":"surplus"},{"frame_index":507,"name":"ports_15","capacity":10000,"empty":351,"full":607,"shortage":0,"booking":124,"fulfillment":124,"port_name":"Seattle","position":{"lat":47.608013,"lng":-122.335167},"status":"demand"},{"frame_index":507,"name":"ports_16","capacity":10000,"empty":273,"full":648,"shortage":0,"booking":162,"fulfillment":162,"port_name":"Shanghai","position":{"lat":31.224361,"lng":121.46917},"status":"demand"},{"frame_index":507,"name":"ports_17","capacity":10000,"empty":17,"full":470,"shortage":0,"booking":70,"fulfillment":70,"port_name":"Singapore","position":{"lat":1.29027,"lng":103.851959},"status":"demand"},{"frame_index":507,"name":"ports_18","capacity":10000,"empty":0,"full":237,"shortage":28,"booking":28,"fulfillment":0,"port_name":"Sydney","position":{"lat":-33.865143,"lng":151.2099},"status":"demand"},{"frame_index":507,"name":"ports_19","capacity":10000,"empty":245,"full":79,"shortage":38,"booking":38,"fulfillment":0,"port_name":"Vancouver","position":{"lat":49.246292,"lng":-123.116226},"status":"surplus"},{"frame_index":507,"name":"ports_20","capacity":10000,"empty":0,"full":864,"shortage":132,"booking":132,"fulfillment":0,"port_name":"Yantian","position":{"lat":26.8533,"lng":119.8575},"status":"demand"},{"frame_index":507,"name":"ports_21","capacity":10000,"empty":0,"full":935,"shortage":128,"booking":128,"fulfillment":0,"port_name":"Yokohama","position":{"lat":35.443707,"lng":139.638031},"status":"demand"}]