[{"frame_index":865,"name":"ports_0","capacity":10000,"empty":2902,"full":1944,"shortage":0,"booking":156,"fulfillment":156,"port_name":"Bremerhaven","position":{"lat":53.549999,"lng":8.583333},"status":"surplus"},{"frame_index":865,"name":"ports_1","capacity":10000,"empty":86,"full":224,"shortage":0,"booking":9,"fulfillment":9,"port_name":"Durban","position":{"lat":-29.8579,"lng":31.0292},"status":"balance"},{"frame_index":865,"name":"ports_2","capacity":10000,"empty":238,"full":242,"shortage":0,"booking":10,"fulfillment":10,"port_name":"Itagual","position":{"lat":-22.85222,"lng":-43.77528},"status":"surplus"},{"frame_index":865,"name":"ports_3","capacity":10000,"empty":0,"full":1092,"shortage":61,"booking":61,"fulfillment":0,"port_name":"LeHavre","position":{"lat":49.490002,"lng":0.1},"status":"demand"},{"frame_index":865,"name":"ports_4","capacity":10000,"empty":301,"full":2062,"shortage":0,"booking":49,"fulfillment":49,"port_name":"Los Angeles","position":{"lat":34.052235,"lng":-118.243683},"status":"surplus"},{"frame_index":865,"name":"ports_5","capacity":10000,"empty":122,"full":0,"shortage":57,"booking":57,"fulfillment":0,"port_name":"Manzanillo","position":{"lat":19.11695,"lng":-104.34214},"status":"demand"},{"frame_index":865,"name":"ports_6","capacity":10000,"empty":0,"full":85,"shortage":16,"booking":16,"fulfillment":0,"port_name":"Melbourne","position":{"lat":-37.840935,"lng":144.946457},"status":"demand"},{"frame_index":865,"name":"ports_7","capacity":10000,"empty":1758,"full":298,"shortage":0,"booking":15,"fulfillment":15,"port_name":"Montreal","position":{"lat":45.516136,"lng":-73.65683},"status":"surplus"},{"frame_index":865,"name":"ports_8","capacity":10000,"empty":10506,"full":522,"shortage":0,"booking":32,"fulfillment":32,"port_name":"New York","position":{"lat":40.73061,"lng":-73.935242},"status":"surplus"},{"frame_index":865,"name":"ports_9","capacity":10000,"empty":303,"full":942,"shortage":0,"booking":26,"fulfillment":26,"port_name":"Oakland","position":{"lat":37.804363,"lng":-122.271111},"status":"surplus"},{"frame_index":865,"name":"ports_10","capacity":10000,"empty":3245,"full":226,"shortage":0,"booking":16,"fulfillment":16,"port_name":"Prince Rupert","position":{"lat":54.312519,"lng":-130.305405},"status":"surplus"},{"frame_index":865,"name":"ports_11","capacity":10000,"empty":0,"full":775,"shortage":61,"booking":61,"fulfillment":0,"port_name":"Pusan","position":{"lat":35.166668,"lng":129.066666},"status":"demand"},{"frame_index":865,"name":"ports_12","capacity":10000,"empty":155,"full":2549,"shortage":0,"booking":74,"fulfillment":74,"port_name":"Qingdao","position":{"lat":36.066898,"lng":120.382698},"status":"demand"},{"frame_index":865,"name":"ports_13","capacity":10000,"empty":1177,"full":216,"shortage":0,"booking":9,"fulfillment":9,"port_name":"San Antonio","position":{"lat":29.424349,"lng":-98.491142},"status":"surplus"},{"frame_index":865,"name":"ports_14","capacity":10000,"empty":34,"full":426,"shortage":0,"booking":10,"fulfillment":10,"port_name":"Santos","position":{"lat":-23.96083,"lng":-46.33361},"status":"balance"},{"frame_index":865,"name":"ports_15","capacity":10000,"empty":863,"full":317,"shortage":0,"booking":67,"fulfillment":67,"port_name":"Seattle","position":{"lat":47.608013,"lng":-122.335167},"status":"surplus"},{"frame_index":865,"name":"ports_16","capacity":10000,"empty":184,"full":2214,"shortage":0,"booking":99,"fulfillment":99,"port_name":"Shanghai","position":{"lat":31.224361,"lng":121.46917},"status":"demand"},{"frame_index":865,"name":"ports_17","capacity":10000,"empty":119,"full":861,"shortage":0,"booking":41,"fulfillment":41,"port_name":"Singapore","position":{"lat":1.29027,"lng":103.851959},"status":"demand"},{"frame_index":865,"name":"ports_18","capacity":10000,"empty":0,"full":287,"shortage":16,"booking":16,"fulfillment":0,"port_name":"Sydney","position":{"lat":-33.865143,"lng":151.2099},"status":"demand"},{"frame_index":865,"name":"ports_19","capacity":10000,"empty":0,"full":175,"shortage":21,"booking":21,"fulfillment":0,"port_name":"Vancouver","position":{"lat":49.246292,"lng":-123.116226},"status":"demand"},{"frame_index":865,"name":"ports_20","capacity":10000,"empty":54,"full":840,"shortage":0,"booking":65,"fulfillment":65,"port_name":"Yantian","position":{"lat":26.8533,"lng":119.8575},"status":"demand"},{"frame_index":865,"name":"ports_21","capacity":10000,"empty":230,"full":160,"shortage":0,"booking":71,"fulfillment":71,"port_name":"Yokohama","position":{"lat":35.443707,"lng":139.638031},"status":"demand"}]