[{"frame_index":499,"name":"ports_0","capacity":10000,"empty":2582,"full":3621,"shortage":0,"booking":85,"fulfillment":85,"port_name":"Bremerhaven","position":{"lat":53.549999,"lng":8.583333},"status":"surplus"},{"frame_index":499,"name":"ports_1","capacity":10000,"empty":577,"full":77,"shortage":0,"booking":6,"fulfillment":6,"port_name":"Durban","position":{"lat":-29.8579,"lng":31.0292},"status":"surplus"},{"frame_index":499,"name":"ports_2","capacity":10000,"empty":562,"full":27,"shortage":0,"booking":6,"fulfillment":6,"port_name":"Itagual","position":{"lat":-22.85222,"lng":-43.77528},"status":"surplus"},{"frame_index":499,"name":"ports_3","capacity":10000,"empty":470,"full":911,"shortage":0,"booking":29,"fulfillment":29,"port_name":"LeHavre","position":{"lat":49.490002,"lng":0.1},"status":"surplus"},{"frame_index":499,"name":"ports_4","capacity":10000,"empty":0,"full":1257,"shortage":25,"booking":25,"fulfillment":0,"port_name":"Los Angeles","position":{"lat":34.052235,"lng":-118.243683},"status":"demand"},{"frame_index":499,"name":"ports_5","capacity":10000,"empty":56,"full":0,"shortage":0,"booking":25,"fulfillment":25,"port_name":"Manzanillo","position":{"lat":19.11695,"lng":-104.34214},"status":"demand"},{"frame_index":499,"name":"ports_6","capacity":10000,"empty":337,"full":51,"shortage":0,"booking":8,"fulfillment":8,"port_name":"Melbourne","position":{"lat":-37.840935,"lng":144.946457},"status":"surplus"},{"frame_index":499,"name":"ports_7","capacity":10000,"empty":2653,"full":259,"shortage":0,"booking":8,"fulfillment":8,"port_name":"Montreal","position":{"lat":45.516136,"lng":-73.65683},"status":"surplus"},{"frame_index":499,"name":"ports_8","capacity":10000,"empty":6953,"full":726,"shortage":0,"booking":15,"fulfillment":15,"port_name":"New York","position":{"lat":40.73061,"lng":-73.935242},"status":"surplus"},{"frame_index":499,"name":"ports_9","capacity":10000,"empty":5014,"full":308,"shortage":0,"booking":13,"fulfillment":13,"port_name":"Oakland","position":{"lat":37.804363,"lng":-122.271111},"status":"surplus"},{"frame_index":499,"name":"ports_10","capacity":10000,"empty":2738,"full":593,"shortage":0,"booking":8,"fulfillment":8,"port_name":"Prince Rupert","position":{"lat":54.312519,"lng":-130.305405},"status":"surplus"},{"frame_index":499,"name":"ports_11","capacity":10000,"empty":0,"full":648,"shortage":29,"booking":29,"fulfillment":0,"port_name":"Pusan","position":{"lat":35.166668,"lng":129.066666},"status":"demand"},{"frame_index":499,"name":"ports_12","capacity":10000,"empty":780,"full":1668,"shortage":0,"booking":36,"fulfillment":36,"port_name":"Qingdao","position":{"lat":36.066898,"lng":120.382698},"status":"surplus"},{"frame_index":499,"name":"ports_13","capacity":10000,"empty":249,"full":193,"shortage":0,"booking":5,"fulfillment":5,"port_name":"San Antonio","position":{"lat":29.424349,"lng":-98.491142},"status":"surplus"},{"frame_index":499,"name":"ports_14","capacity":10000,"empty":0,"full":343,"shortage":5,"booking":5,"fulfillment":0,"port_name":"Santos","position":{"lat":-23.96083,"lng":-46.33361},"status":"balance"},{"frame_index":499,"name":"ports_15","capacity":10000,"empty":298,"full":296,"shortage":0,"booking":36,"fulfillment":36,"port_name":"Seattle","position":{"lat":47.608013,"lng":-122.335167},"status":"surplus"},{"frame_index":499,"name":"ports_16","capacity":10000,"empty":0,"full":1095,"shortage":42,"booking":42,"fulfillment":0,"port_name":"Shanghai","position":{"lat":31.224361,"lng":121.46917},"status":"demand"},{"frame_index":499,"name":"ports_17","capacity":10000,"empty":12,"full":284,"shortage":0,"booking":21,"fulfillment":21,"port_name":"Singapore","position":{"lat":1.29027,"lng":103.851959},"status":"demand"},{"frame_index":499,"name":"ports_18","capacity":10000,"empty":0,"full":237,"shortage":8,"booking":8,"fulfillment":0,"port_name":"Sydney","position":{"lat":-33.865143,"lng":151.2099},"status":"balance"},{"frame_index":499,"name":"ports_19","capacity":10000,"empty":66,"full":563,"shortage":0,"booking":10,"fulfillment":10,"port_name":"Vancouver","position":{"lat":49.246292,"lng":-123.116226},"status":"balance"},{"frame_index":499,"name":"ports_20","capacity":10000,"empty":0,"full":667,"shortage":33,"booking":33,"fulfillment":0,"port_name":"Yantian","position":{"lat":26.8533,"lng":119.8575},"status":"demand"},{"frame_index":499,"name":"ports_21","capacity":10000,"empty":20,"full":888,"shortage":0,"booking":27,"fulfillment":27,"port_name":"Yokohama","position":{"lat":35.443707,"lng":139.638031},"status":"demand"}]