[{"frame_index":533,"name":"ports_0","capacity":10000,"empty":5322,"full":2873,"shortage":0,"booking":163,"fulfillment":163,"port_name":"Bremerhaven","position":{"lat":53.549999,"lng":8.583333},"status":"surplus"},{"frame_index":533,"name":"ports_1","capacity":10000,"empty":273,"full":47,"shortage":0,"booking":12,"fulfillment":12,"port_name":"Durban","position":{"lat":-29.8579,"lng":31.0292},"status":"surplus"},{"frame_index":533,"name":"ports_2","capacity":10000,"empty":137,"full":442,"shortage":0,"booking":11,"fulfillment":11,"port_name":"Itagual","position":{"lat":-22.85222,"lng":-43.77528},"status":"surplus"},{"frame_index":533,"name":"ports_3","capacity":10000,"empty":340,"full":716,"shortage":0,"booking":65,"fulfillment":65,"port_name":"LeHavre","position":{"lat":49.490002,"lng":0.1},"status":"balance"},{"frame_index":533,"name":"ports_4","capacity":10000,"empty":3613,"full":74,"shortage":0,"booking":57,"fulfillment":57,"port_name":"Los Angeles","position":{"lat":34.052235,"lng":-118.243683},"status":"surplus"},{"frame_index":533,"name":"ports_5","capacity":10000,"empty":0,"full":0,"shortage":14,"booking":58,"fulfillment":44,"port_name":"Manzanillo","position":{"lat":19.11695,"lng":-104.34214},"status":"demand"},{"frame_index":533,"name":"ports_6","capacity":10000,"empty":0,"full":401,"shortage":17,"booking":17,"fulfillment":0,"port_name":"Melbourne","position":{"lat":-37.840935,"lng":144.946457},"status":"demand"},{"frame_index":533,"name":"ports_7","capacity":10000,"empty":2441,"full":114,"shortage":0,"booking":17,"fulfillment":17,"port_name":"Montreal","position":{"lat":45.516136,"lng":-73.65683},"status":"surplus"},{"frame_index":533,"name":"ports_8","capacity":10000,"empty":6785,"full":1174,"shortage":0,"booking":35,"fulfillment":35,"port_name":"New York","position":{"lat":40.73061,"lng":-73.935242},"status":"surplus"},{"frame_index":533,"name":"ports_9","capacity":10000,"empty":3766,"full":1527,"shortage":0,"booking":37,"fulfillment":37,"port_name":"Oakland","position":{"lat":37.804363,"lng":-122.271111},"status":"surplus"},{"frame_index":533,"name":"ports_10","capacity":10000,"empty":1117,"full":351,"shortage":0,"booking":14,"fulfillment":14,"port_name":"Prince Rupert","position":{"lat":54.312519,"lng":-130.305405},"status":"surplus"},{"frame_index":533,"name":"ports_11","capacity":10000,"empty":0,"full":850,"shortage":64,"booking":64,"fulfillment":0,"port_name":"Pusan","position":{"lat":35.166668,"lng":129.066666},"status":"demand"},{"frame_index":533,"name":"ports_12","capacity":10000,"empty":2164,"full":189,"shortage":0,"booking":90,"fulfillment":90,"port_name":"Qingdao","position":{"lat":36.066898,"lng":120.382698},"status":"surplus"},{"frame_index":533,"name":"ports_13","capacity":10000,"empty":52,"full":88,"shortage":0,"booking":11,"fulfillment":11,"port_name":"San Antonio","position":{"lat":29.424349,"lng":-98.491142},"status":"balance"},{"frame_index":533,"name":"ports_14","capacity":10000,"empty":298,"full":282,"shortage":0,"booking":12,"fulfillment":12,"port_name":"Santos","position":{"lat":-23.96083,"lng":-46.33361},"status":"surplus"},{"frame_index":533,"name":"ports_15","capacity":10000,"empty":0,"full":984,"shortage":77,"booking":77,"fulfillment":0,"port_name":"Seattle","position":{"lat":47.608013,"lng":-122.335167},"status":"demand"},{"frame_index":533,"name":"ports_16","capacity":10000,"empty":0,"full":1204,"shortage":110,"booking":110,"fulfillment":0,"port_name":"Shanghai","position":{"lat":31.224361,"lng":121.46917},"status":"demand"},{"frame_index":533,"name":"ports_17","capacity":10000,"empty":184,"full":277,"shortage":0,"booking":44,"fulfillment":44,"port_name":"Singapore","position":{"lat":1.29027,"lng":103.851959},"status":"balance"},{"frame_index":533,"name":"ports_18","capacity":10000,"empty":70,"full":54,"shortage":0,"booking":19,"fulfillment":19,"port_name":"Sydney","position":{"lat":-33.865143,"lng":151.2099},"status":"balance"},{"frame_index":533,"name":"ports_19","capacity":10000,"empty":122,"full":123,"shortage":0,"booking":21,"fulfillment":21,"port_name":"Vancouver","position":{"lat":49.246292,"lng":-123.116226},"status":"balance"},{"frame_index":533,"name":"ports_20","capacity":10000,"empty":0,"full":1001,"shortage":74,"booking":74,"fulfillment":0,"port_name":"Yantian","position":{"lat":26.8533,"lng":119.8575},"status":"demand"},{"frame_index":533,"name":"ports_21","capacity":10000,"empty":721,"full":595,"shortage":0,"booking":75,"fulfillment":75,"port_name":"Yokohama","position":{"lat":35.443707,"lng":139.638031},"status":"surplus"}]