[{"frame_index":341,"name":"ports_0","capacity":10000,"empty":5250,"full":901,"shortage":0,"booking":42,"fulfillment":42,"port_name":"Bremerhaven","position":{"lat":53.549999,"lng":8.583333},"status":"surplus"},{"frame_index":341,"name":"ports_1","capacity":10000,"empty":915,"full":32,"shortage":0,"booking":4,"fulfillment":4,"port_name":"Durban","position":{"lat":-29.8579,"lng":31.0292},"status":"surplus"},{"frame_index":341,"name":"ports_2","capacity":10000,"empty":0,"full":186,"shortage":3,"booking":3,"fulfillment":0,"port_name":"Itagual","position":{"lat":-22.85222,"lng":-43.77528},"status":"balance"},{"frame_index":341,"name":"ports_3","capacity":10000,"empty":2106,"full":317,"shortage":0,"booking":18,"fulfillment":18,"port_name":"LeHavre","position":{"lat":49.490002,"lng":0.1},"status":"surplus"},{"frame_index":341,"name":"ports_4","capacity":10000,"empty":754,"full":1408,"shortage":0,"booking":15,"fulfillment":15,"port_name":"Los Angeles","position":{"lat":34.052235,"lng":-118.243683},"status":"surplus"},{"frame_index":341,"name":"ports_5","capacity":10000,"empty":1215,"full":271,"shortage":0,"booking":14,"fulfillment":14,"port_name":"Manzanillo","position":{"lat":19.11695,"lng":-104.34214},"status":"surplus"},{"frame_index":341,"name":"ports_6","capacity":10000,"empty":118,"full":62,"shortage":0,"booking":5,"fulfillment":5,"port_name":"Melbourne","position":{"lat":-37.840935,"lng":144.946457},"status":"surplus"},{"frame_index":341,"name":"ports_7","capacity":10000,"empty":672,"full":189,"shortage":0,"booking":5,"fulfillment":5,"port_name":"Montreal","position":{"lat":45.516136,"lng":-73.65683},"status":"surplus"},{"frame_index":341,"name":"ports_8","capacity":10000,"empty":9902,"full":43,"shortage":0,"booking":9,"fulfillment":9,"port_name":"New York","position":{"lat":40.73061,"lng":-73.935242},"status":"surplus"},{"frame_index":341,"name":"ports_9","capacity":10000,"empty":1406,"full":939,"shortage":0,"booking":8,"fulfillment":8,"port_name":"Oakland","position":{"lat":37.804363,"lng":-122.271111},"status":"surplus"},{"frame_index":341,"name":"ports_10","capacity":10000,"empty":3148,"full":32,"shortage":0,"booking":4,"fulfillment":4,"port_name":"Prince Rupert","position":{"lat":54.312519,"lng":-130.305405},"status":"surplus"},{"frame_index":341,"name":"ports_11","capacity":10000,"empty":961,"full":245,"shortage":0,"booking":19,"fulfillment":19,"port_name":"Pusan","position":{"lat":35.166668,"lng":129.066666},"status":"surplus"},{"frame_index":341,"name":"ports_12","capacity":10000,"empty":1211,"full":480,"shortage":0,"booking":21,"fulfillment":21,"port_name":"Qingdao","position":{"lat":36.066898,"lng":120.382698},"status":"surplus"},{"frame_index":341,"name":"ports_13","capacity":10000,"empty":488,"full":18,"shortage":0,"booking":3,"fulfillment":3,"port_name":"San Antonio","position":{"lat":29.424349,"lng":-98.491142},"status":"surplus"},{"frame_index":341,"name":"ports_14","capacity":10000,"empty":1254,"full":27,"shortage":0,"booking":4,"fulfillment":4,"port_name":"Santos","position":{"lat":-23.96083,"lng":-46.33361},"status":"surplus"},{"frame_index":341,"name":"ports_15","capacity":10000,"empty":664,"full":217,"shortage":0,"booking":20,"fulfillment":20,"port_name":"Seattle","position":{"lat":47.608013,"lng":-122.335167},"status":"surplus"},{"frame_index":341,"name":"ports_16","capacity":10000,"empty":2545,"full":244,"shortage":0,"booking":33,"fulfillment":33,"port_name":"Shanghai","position":{"lat":31.224361,"lng":121.46917},"status":"surplus"},{"frame_index":341,"name":"ports_17","capacity":10000,"empty":731,"full":536,"shortage":0,"booking":12,"fulfillment":12,"port_name":"Singapore","position":{"lat":1.29027,"lng":103.851959},"status":"surplus"},{"frame_index":341,"name":"ports_18","capacity":10000,"empty":173,"full":117,"shortage":0,"booking":4,"fulfillment":4,"port_name":"Sydney","position":{"lat":-33.865143,"lng":151.2099},"status":"surplus"},{"frame_index":341,"name":"ports_19","capacity":10000,"empty":602,"full":502,"shortage":0,"booking":7,"fulfillment":7,"port_name":"Vancouver","position":{"lat":49.246292,"lng":-123.116226},"status":"surplus"},{"frame_index":341,"name":"ports_20","capacity":10000,"empty":146,"full":287,"shortage":0,"booking":19,"fulfillment":19,"port_name":"Yantian","position":{"lat":26.8533,"lng":119.8575},"status":"surplus"},{"frame_index":341,"name":"ports_21","capacity":10000,"empty":856,"full":1147,"shortage":0,"booking":13,"fulfillment":13,"port_name":"Yokohama","position":{"lat":35.443707,"lng":139.638031},"status":"surplus"}]