[{"frame_index":473,"name":"ports_0","capacity":10000,"empty":6678,"full":375,"shortage":0,"booking":120,"fulfillment":120,"port_name":"Bremerhaven","position":{"lat":53.549999,"lng":8.583333},"status":"surplus"},{"frame_index":473,"name":"ports_1","capacity":10000,"empty":734,"full":186,"shortage":0,"booking":8,"fulfillment":8,"port_name":"Durban","position":{"lat":-29.8579,"lng":31.0292},"status":"surplus"},{"frame_index":473,"name":"ports_2","capacity":10000,"empty":581,"full":44,"shortage":0,"booking":8,"fulfillment":8,"port_name":"Itagual","position":{"lat":-22.85222,"lng":-43.77528},"status":"surplus"},{"frame_index":473,"name":"ports_3","capacity":10000,"empty":1352,"full":117,"shortage":0,"booking":48,"fulfillment":48,"port_name":"LeHavre","position":{"lat":49.490002,"lng":0.1},"status":"surplus"},{"frame_index":473,"name":"ports_4","capacity":10000,"empty":1038,"full":137,"shortage":0,"booking":40,"fulfillment":40,"port_name":"Los Angeles","position":{"lat":34.052235,"lng":-118.243683},"status":"surplus"},{"frame_index":473,"name":"ports_5","capacity":10000,"empty":906,"full":349,"shortage":0,"booking":45,"fulfillment":45,"port_name":"Manzanillo","position":{"lat":19.11695,"lng":-104.34214},"status":"surplus"},{"frame_index":473,"name":"ports_6","capacity":10000,"empty":0,"full":252,"shortage":12,"booking":12,"fulfillment":0,"port_name":"Melbourne","position":{"lat":-37.840935,"lng":144.946457},"status":"demand"},{"frame_index":473,"name":"ports_7","capacity":10000,"empty":1605,"full":363,"shortage":0,"booking":12,"fulfillment":12,"port_name":"Montreal","position":{"lat":45.516136,"lng":-73.65683},"status":"surplus"},{"frame_index":473,"name":"ports_8","capacity":10000,"empty":5889,"full":300,"shortage":0,"booking":25,"fulfillment":25,"port_name":"New York","position":{"lat":40.73061,"lng":-73.935242},"status":"surplus"},{"frame_index":473,"name":"ports_9","capacity":10000,"empty":3167,"full":109,"shortage":0,"booking":27,"fulfillment":27,"port_name":"Oakland","position":{"lat":37.804363,"lng":-122.271111},"status":"surplus"},{"frame_index":473,"name":"ports_10","capacity":10000,"empty":3147,"full":176,"shortage":0,"booking":14,"fulfillment":14,"port_name":"Prince Rupert","position":{"lat":54.312519,"lng":-130.305405},"status":"surplus"},{"frame_index":473,"name":"ports_11","capacity":10000,"empty":2229,"full":224,"shortage":0,"booking":46,"fulfillment":46,"port_name":"Pusan","position":{"lat":35.166668,"lng":129.066666},"status":"surplus"},{"frame_index":473,"name":"ports_12","capacity":10000,"empty":170,"full":1144,"shortage":0,"booking":70,"fulfillment":70,"port_name":"Qingdao","position":{"lat":36.066898,"lng":120.382698},"status":"demand"},{"frame_index":473,"name":"ports_13","capacity":10000,"empty":280,"full":126,"shortage":0,"booking":8,"fulfillment":8,"port_name":"San Antonio","position":{"lat":29.424349,"lng":-98.491142},"status":"surplus"},{"frame_index":473,"name":"ports_14","capacity":10000,"empty":226,"full":106,"shortage":0,"booking":9,"fulfillment":9,"port_name":"Santos","position":{"lat":-23.96083,"lng":-46.33361},"status":"surplus"},{"frame_index":473,"name":"ports_15","capacity":10000,"empty":249,"full":315,"shortage":0,"booking":57,"fulfillment":57,"port_name":"Seattle","position":{"lat":47.608013,"lng":-122.335167},"status":"balance"},{"frame_index":473,"name":"ports_16","capacity":10000,"empty":1113,"full":614,"shortage":0,"booking":75,"fulfillment":75,"port_name":"Shanghai","position":{"lat":31.224361,"lng":121.46917},"status":"surplus"},{"frame_index":473,"name":"ports_17","capacity":10000,"empty":0,"full":326,"shortage":32,"booking":32,"fulfillment":0,"port_name":"Singapore","position":{"lat":1.29027,"lng":103.851959},"status":"demand"},{"frame_index":473,"name":"ports_18","capacity":10000,"empty":161,"full":62,"shortage":0,"booking":11,"fulfillment":11,"port_name":"Sydney","position":{"lat":-33.865143,"lng":151.2099},"status":"surplus"},{"frame_index":473,"name":"ports_19","capacity":10000,"empty":489,"full":235,"shortage":0,"booking":15,"fulfillment":15,"port_name":"Vancouver","position":{"lat":49.246292,"lng":-123.116226},"status":"surplus"},{"frame_index":473,"name":"ports_20","capacity":10000,"empty":228,"full":389,"shortage":0,"booking":59,"fulfillment":59,"port_name":"Yantian","position":{"lat":26.8533,"lng":119.8575},"status":"demand"},{"frame_index":473,"name":"ports_21","capacity":10000,"empty":0,"full":495,"shortage":52,"booking":52,"fulfillment":0,"port_name":"Yokohama","position":{"lat":35.443707,"lng":139.638031},"status":"demand"}]