[{"frame_index":968,"name":"ports_0","capacity":10000,"empty":0,"full":1250,"shortage":244,"booking":244,"fulfillment":0,"port_name":"Bremerhaven","position":{"lat":53.549999,"lng":8.583333},"status":"demand"},{"frame_index":968,"name":"ports_1","capacity":10000,"empty":253,"full":181,"shortage":0,"booking":13,"fulfillment":13,"port_name":"Durban","position":{"lat":-29.8579,"lng":31.0292},"status":"surplus"},{"frame_index":968,"name":"ports_2","capacity":10000,"empty":155,"full":15,"shortage":0,"booking":13,"fulfillment":13,"port_name":"Itagual","position":{"lat":-22.85222,"lng":-43.77528},"status":"surplus"},{"frame_index":968,"name":"ports_3","capacity":10000,"empty":0,"full":1403,"shortage":85,"booking":85,"fulfillment":0,"port_name":"LeHavre","position":{"lat":49.490002,"lng":0.1},"status":"demand"},{"frame_index":968,"name":"ports_4","capacity":10000,"empty":770,"full":1125,"shortage":0,"booking":70,"fulfillment":70,"port_name":"Los Angeles","position":{"lat":34.052235,"lng":-118.243683},"status":"surplus"},{"frame_index":968,"name":"ports_5","capacity":10000,"empty":0,"full":282,"shortage":61,"booking":61,"fulfillment":0,"port_name":"Manzanillo","position":{"lat":19.11695,"lng":-104.34214},"status":"demand"},{"frame_index":968,"name":"ports_6","capacity":10000,"empty":0,"full":299,"shortage":21,"booking":21,"fulfillment":0,"port_name":"Melbourne","position":{"lat":-37.840935,"lng":144.946457},"status":"demand"},{"frame_index":968,"name":"ports_7","capacity":10000,"empty":2082,"full":164,"shortage":0,"booking":21,"fulfillment":21,"port_name":"Montreal","position":{"lat":45.516136,"lng":-73.65683},"status":"surplus"},{"frame_index":968,"name":"ports_8","capacity":10000,"empty":17386,"full":129,"shortage":0,"booking":42,"fulfillment":42,"port_name":"New York","position":{"lat":40.73061,"lng":-73.935242},"status":"surplus"},{"frame_index":968,"name":"ports_9","capacity":10000,"empty":1467,"full":1346,"shortage":0,"booking":44,"fulfillment":44,"port_name":"Oakland","position":{"lat":37.804363,"lng":-122.271111},"status":"surplus"},{"frame_index":968,"name":"ports_10","capacity":10000,"empty":870,"full":253,"shortage":0,"booking":22,"fulfillment":22,"port_name":"Prince Rupert","position":{"lat":54.312519,"lng":-130.305405},"status":"surplus"},{"frame_index":968,"name":"ports_11","capacity":10000,"empty":318,"full":236,"shortage":0,"booking":85,"fulfillment":85,"port_name":"Pusan","position":{"lat":35.166668,"lng":129.066666},"status":"demand"},{"frame_index":968,"name":"ports_12","capacity":10000,"empty":0,"full":1240,"shortage":52,"booking":109,"fulfillment":57,"port_name":"Qingdao","position":{"lat":36.066898,"lng":120.382698},"status":"demand"},{"frame_index":968,"name":"ports_13","capacity":10000,"empty":92,"full":41,"shortage":0,"booking":14,"fulfillment":14,"port_name":"San Antonio","position":{"lat":29.424349,"lng":-98.491142},"status":"balance"},{"frame_index":968,"name":"ports_14","capacity":10000,"empty":573,"full":194,"shortage":0,"booking":13,"fulfillment":13,"port_name":"Santos","position":{"lat":-23.96083,"lng":-46.33361},"status":"surplus"},{"frame_index":968,"name":"ports_15","capacity":10000,"empty":505,"full":681,"shortage":0,"booking":100,"fulfillment":100,"port_name":"Seattle","position":{"lat":47.608013,"lng":-122.335167},"status":"balance"},{"frame_index":968,"name":"ports_16","capacity":10000,"empty":0,"full":559,"shortage":142,"booking":142,"fulfillment":0,"port_name":"Shanghai","position":{"lat":31.224361,"lng":121.46917},"status":"demand"},{"frame_index":968,"name":"ports_17","capacity":10000,"empty":0,"full":471,"shortage":54,"booking":54,"fulfillment":0,"port_name":"Singapore","position":{"lat":1.29027,"lng":103.851959},"status":"demand"},{"frame_index":968,"name":"ports_18","capacity":10000,"empty":0,"full":220,"shortage":21,"booking":21,"fulfillment":0,"port_name":"Sydney","position":{"lat":-33.865143,"lng":151.2099},"status":"demand"},{"frame_index":968,"name":"ports_19","capacity":10000,"empty":219,"full":399,"shortage":0,"booking":28,"fulfillment":28,"port_name":"Vancouver","position":{"lat":49.246292,"lng":-123.116226},"status":"surplus"},{"frame_index":968,"name":"ports_20","capacity":10000,"empty":224,"full":1391,"shortage":0,"booking":95,"fulfillment":95,"port_name":"Yantian","position":{"lat":26.8533,"lng":119.8575},"status":"demand"},{"frame_index":968,"name":"ports_21","capacity":10000,"empty":0,"full":1017,"shortage":99,"booking":99,"fulfillment":0,"port_name":"Yokohama","position":{"lat":35.443707,"lng":139.638031},"status":"demand"}]