[{"frame_index":374,"name":"ports_0","capacity":10000,"empty":4979,"full":1823,"shortage":0,"booking":113,"fulfillment":113,"port_name":"Bremerhaven","position":{"lat":53.549999,"lng":8.583333},"status":"surplus"},{"frame_index":374,"name":"ports_1","capacity":10000,"empty":702,"full":243,"shortage":0,"booking":8,"fulfillment":8,"port_name":"Durban","position":{"lat":-29.8579,"lng":31.0292},"status":"surplus"},{"frame_index":374,"name":"ports_2","capacity":10000,"empty":602,"full":41,"shortage":0,"booking":9,"fulfillment":9,"port_name":"Itagual","position":{"lat":-22.85222,"lng":-43.77528},"status":"surplus"},{"frame_index":374,"name":"ports_3","capacity":10000,"empty":640,"full":764,"shortage":0,"booking":50,"fulfillment":50,"port_name":"LeHavre","position":{"lat":49.490002,"lng":0.1},"status":"surplus"},{"frame_index":374,"name":"ports_4","capacity":10000,"empty":13,"full":508,"shortage":0,"booking":42,"fulfillment":42,"port_name":"Los Angeles","position":{"lat":34.052235,"lng":-118.243683},"status":"demand"},{"frame_index":374,"name":"ports_5","capacity":10000,"empty":0,"full":64,"shortage":40,"booking":40,"fulfillment":0,"port_name":"Manzanillo","position":{"lat":19.11695,"lng":-104.34214},"status":"demand"},{"frame_index":374,"name":"ports_6","capacity":10000,"empty":0,"full":183,"shortage":13,"booking":13,"fulfillment":0,"port_name":"Melbourne","position":{"lat":-37.840935,"lng":144.946457},"status":"demand"},{"frame_index":374,"name":"ports_7","capacity":10000,"empty":1769,"full":133,"shortage":0,"booking":13,"fulfillment":13,"port_name":"Montreal","position":{"lat":45.516136,"lng":-73.65683},"status":"surplus"},{"frame_index":374,"name":"ports_8","capacity":10000,"empty":7071,"full":369,"shortage":0,"booking":26,"fulfillment":26,"port_name":"New York","position":{"lat":40.73061,"lng":-73.935242},"status":"surplus"},{"frame_index":374,"name":"ports_9","capacity":10000,"empty":2419,"full":4,"shortage":0,"booking":29,"fulfillment":29,"port_name":"Oakland","position":{"lat":37.804363,"lng":-122.271111},"status":"surplus"},{"frame_index":374,"name":"ports_10","capacity":10000,"empty":2902,"full":299,"shortage":0,"booking":12,"fulfillment":12,"port_name":"Prince Rupert","position":{"lat":54.312519,"lng":-130.305405},"status":"surplus"},{"frame_index":374,"name":"ports_11","capacity":10000,"empty":0,"full":673,"shortage":3,"booking":48,"fulfillment":45,"port_name":"Pusan","position":{"lat":35.166668,"lng":129.066666},"status":"demand"},{"frame_index":374,"name":"ports_12","capacity":10000,"empty":314,"full":1381,"shortage":0,"booking":68,"fulfillment":68,"port_name":"Qingdao","position":{"lat":36.066898,"lng":120.382698},"status":"balance"},{"frame_index":374,"name":"ports_13","capacity":10000,"empty":264,"full":83,"shortage":0,"booking":9,"fulfillment":9,"port_name":"San Antonio","position":{"lat":29.424349,"lng":-98.491142},"status":"surplus"},{"frame_index":374,"name":"ports_14","capacity":10000,"empty":1033,"full":243,"shortage":0,"booking":9,"fulfillment":9,"port_name":"Santos","position":{"lat":-23.96083,"lng":-46.33361},"status":"surplus"},{"frame_index":374,"name":"ports_15","capacity":10000,"empty":726,"full":516,"shortage":57,"booking":57,"fulfillment":0,"port_name":"Seattle","position":{"lat":47.608013,"lng":-122.335167},"status":"surplus"},{"frame_index":374,"name":"ports_16","capacity":10000,"empty":3004,"full":1177,"shortage":0,"booking":87,"fulfillment":87,"port_name":"Shanghai","position":{"lat":31.224361,"lng":121.46917},"status":"surplus"},{"frame_index":374,"name":"ports_17","capacity":10000,"empty":187,"full":50,"shortage":0,"booking":34,"fulfillment":34,"port_name":"Singapore","position":{"lat":1.29027,"lng":103.851959},"status":"balance"},{"frame_index":374,"name":"ports_18","capacity":10000,"empty":146,"full":72,"shortage":0,"booking":12,"fulfillment":12,"port_name":"Sydney","position":{"lat":-33.865143,"lng":151.2099},"status":"surplus"},{"frame_index":374,"name":"ports_19","capacity":10000,"empty":958,"full":72,"shortage":0,"booking":17,"fulfillment":17,"port_name":"Vancouver","position":{"lat":49.246292,"lng":-123.116226},"status":"surplus"},{"frame_index":374,"name":"ports_20","capacity":10000,"empty":70,"full":637,"shortage":0,"booking":56,"fulfillment":56,"port_name":"Yantian","position":{"lat":26.8533,"lng":119.8575},"status":"demand"},{"frame_index":374,"name":"ports_21","capacity":10000,"empty":418,"full":24,"shortage":0,"booking":54,"fulfillment":54,"port_name":"Yokohama","position":{"lat":35.443707,"lng":139.638031},"status":"surplus"}]