[{"frame_index":1006,"name":"ports_0","capacity":10000,"empty":5654,"full":1263,"shortage":0,"booking":38,"fulfillment":38,"port_name":"Bremerhaven","position":{"lat":53.549999,"lng":8.583333},"status":"surplus"},{"frame_index":1006,"name":"ports_1","capacity":10000,"empty":133,"full":93,"shortage":0,"booking":3,"fulfillment":3,"port_name":"Durban","position":{"lat":-29.8579,"lng":31.0292},"status":"surplus"},{"frame_index":1006,"name":"ports_2","capacity":10000,"empty":57,"full":302,"shortage":0,"booking":3,"fulfillment":3,"port_name":"Itagual","position":{"lat":-22.85222,"lng":-43.77528},"status":"balance"},{"frame_index":1006,"name":"ports_3","capacity":10000,"empty":594,"full":122,"shortage":0,"booking":16,"fulfillment":16,"port_name":"LeHavre","position":{"lat":49.490002,"lng":0.1},"status":"surplus"},{"frame_index":1006,"name":"ports_4","capacity":10000,"empty":301,"full":38,"shortage":0,"booking":13,"fulfillment":13,"port_name":"Los Angeles","position":{"lat":34.052235,"lng":-118.243683},"status":"surplus"},{"frame_index":1006,"name":"ports_5","capacity":10000,"empty":52,"full":246,"shortage":0,"booking":12,"fulfillment":12,"port_name":"Manzanillo","position":{"lat":19.11695,"lng":-104.34214},"status":"balance"},{"frame_index":1006,"name":"ports_6","capacity":10000,"empty":0,"full":261,"shortage":4,"booking":4,"fulfillment":0,"port_name":"Melbourne","position":{"lat":-37.840935,"lng":144.946457},"status":"balance"},{"frame_index":1006,"name":"ports_7","capacity":10000,"empty":2057,"full":41,"shortage":0,"booking":4,"fulfillment":4,"port_name":"Montreal","position":{"lat":45.516136,"lng":-73.65683},"status":"surplus"},{"frame_index":1006,"name":"ports_8","capacity":10000,"empty":18402,"full":34,"shortage":0,"booking":8,"fulfillment":8,"port_name":"New York","position":{"lat":40.73061,"lng":-73.935242},"status":"surplus"},{"frame_index":1006,"name":"ports_9","capacity":10000,"empty":2278,"full":28,"shortage":0,"booking":8,"fulfillment":8,"port_name":"Oakland","position":{"lat":37.804363,"lng":-122.271111},"status":"surplus"},{"frame_index":1006,"name":"ports_10","capacity":10000,"empty":922,"full":258,"shortage":0,"booking":4,"fulfillment":4,"port_name":"Prince Rupert","position":{"lat":54.312519,"lng":-130.305405},"status":"surplus"},{"frame_index":1006,"name":"ports_11","capacity":10000,"empty":41,"full":409,"shortage":0,"booking":16,"fulfillment":16,"port_name":"Pusan","position":{"lat":35.166668,"lng":129.066666},"status":"balance"},{"frame_index":1006,"name":"ports_12","capacity":10000,"empty":1404,"full":1195,"shortage":0,"booking":20,"fulfillment":20,"port_name":"Qingdao","position":{"lat":36.066898,"lng":120.382698},"status":"surplus"},{"frame_index":1006,"name":"ports_13","capacity":10000,"empty":136,"full":13,"shortage":0,"booking":3,"fulfillment":3,"port_name":"San Antonio","position":{"lat":29.424349,"lng":-98.491142},"status":"surplus"},{"frame_index":1006,"name":"ports_14","capacity":10000,"empty":236,"full":137,"shortage":0,"booking":3,"fulfillment":3,"port_name":"Santos","position":{"lat":-23.96083,"lng":-46.33361},"status":"surplus"},{"frame_index":1006,"name":"ports_15","capacity":10000,"empty":519,"full":639,"shortage":0,"booking":18,"fulfillment":18,"port_name":"Seattle","position":{"lat":47.608013,"lng":-122.335167},"status":"surplus"},{"frame_index":1006,"name":"ports_16","capacity":10000,"empty":298,"full":1122,"shortage":0,"booking":24,"fulfillment":24,"port_name":"Shanghai","position":{"lat":31.224361,"lng":121.46917},"status":"surplus"},{"frame_index":1006,"name":"ports_17","capacity":10000,"empty":246,"full":355,"shortage":0,"booking":11,"fulfillment":11,"port_name":"Singapore","position":{"lat":1.29027,"lng":103.851959},"status":"surplus"},{"frame_index":1006,"name":"ports_18","capacity":10000,"empty":0,"full":160,"shortage":4,"booking":4,"fulfillment":0,"port_name":"Sydney","position":{"lat":-33.865143,"lng":151.2099},"status":"balance"},{"frame_index":1006,"name":"ports_19","capacity":10000,"empty":747,"full":31,"shortage":0,"booking":6,"fulfillment":6,"port_name":"Vancouver","position":{"lat":49.246292,"lng":-123.116226},"status":"surplus"},{"frame_index":1006,"name":"ports_20","capacity":10000,"empty":0,"full":508,"shortage":17,"booking":17,"fulfillment":0,"port_name":"Yantian","position":{"lat":26.8533,"lng":119.8575},"status":"demand"},{"frame_index":1006,"name":"ports_21","capacity":10000,"empty":188,"full":58,"shortage":0,"booking":11,"fulfillment":11,"port_name":"Yokohama","position":{"lat":35.443707,"lng":139.638031},"status":"surplus"}]