[{"frame_index":714,"name":"ports_0","capacity":10000,"empty":1989,"full":2015,"shortage":0,"booking":226,"fulfillment":226,"port_name":"Bremerhaven","position":{"lat":53.549999,"lng":8.583333},"status":"surplus"},{"frame_index":714,"name":"ports_1","capacity":10000,"empty":134,"full":61,"shortage":0,"booking":16,"fulfillment":16,"port_name":"Durban","position":{"lat":-29.8579,"lng":31.0292},"status":"surplus"},{"frame_index":714,"name":"ports_2","capacity":10000,"empty":257,"full":8,"shortage":0,"booking":15,"fulfillment":15,"port_name":"Itagual","position":{"lat":-22.85222,"lng":-43.77528},"status":"surplus"},{"frame_index":714,"name":"ports_3","capacity":10000,"empty":1736,"full":586,"shortage":0,"booking":86,"fulfillment":86,"port_name":"LeHavre","position":{"lat":49.490002,"lng":0.1},"status":"surplus"},{"frame_index":714,"name":"ports_4","capacity":10000,"empty":1223,"full":823,"shortage":0,"booking":70,"fulfillment":70,"port_name":"Los Angeles","position":{"lat":34.052235,"lng":-118.243683},"status":"surplus"},{"frame_index":714,"name":"ports_5","capacity":10000,"empty":88,"full":825,"shortage":0,"booking":75,"fulfillment":75,"port_name":"Manzanillo","position":{"lat":19.11695,"lng":-104.34214},"status":"demand"},{"frame_index":714,"name":"ports_6","capacity":10000,"empty":0,"full":230,"shortage":22,"booking":22,"fulfillment":0,"port_name":"Melbourne","position":{"lat":-37.840935,"lng":144.946457},"status":"demand"},{"frame_index":714,"name":"ports_7","capacity":10000,"empty":2361,"full":93,"shortage":0,"booking":21,"fulfillment":21,"port_name":"Montreal","position":{"lat":45.516136,"lng":-73.65683},"status":"surplus"},{"frame_index":714,"name":"ports_8","capacity":10000,"empty":11787,"full":884,"shortage":0,"booking":45,"fulfillment":45,"port_name":"New York","position":{"lat":40.73061,"lng":-73.935242},"status":"surplus"},{"frame_index":714,"name":"ports_9","capacity":10000,"empty":756,"full":507,"shortage":0,"booking":42,"fulfillment":42,"port_name":"Oakland","position":{"lat":37.804363,"lng":-122.271111},"status":"surplus"},{"frame_index":714,"name":"ports_10","capacity":10000,"empty":2741,"full":250,"shortage":0,"booking":18,"fulfillment":18,"port_name":"Prince Rupert","position":{"lat":54.312519,"lng":-130.305405},"status":"surplus"},{"frame_index":714,"name":"ports_11","capacity":10000,"empty":0,"full":1222,"shortage":84,"booking":84,"fulfillment":0,"port_name":"Pusan","position":{"lat":35.166668,"lng":129.066666},"status":"demand"},{"frame_index":714,"name":"ports_12","capacity":10000,"empty":1720,"full":465,"shortage":0,"booking":113,"fulfillment":113,"port_name":"Qingdao","position":{"lat":36.066898,"lng":120.382698},"status":"surplus"},{"frame_index":714,"name":"ports_13","capacity":10000,"empty":6006,"full":67,"shortage":0,"booking":14,"fulfillment":14,"port_name":"San Antonio","position":{"lat":29.424349,"lng":-98.491142},"status":"surplus"},{"frame_index":714,"name":"ports_14","capacity":10000,"empty":534,"full":105,"shortage":0,"booking":15,"fulfillment":15,"port_name":"Santos","position":{"lat":-23.96083,"lng":-46.33361},"status":"surplus"},{"frame_index":714,"name":"ports_15","capacity":10000,"empty":0,"full":1444,"shortage":102,"booking":102,"fulfillment":0,"port_name":"Seattle","position":{"lat":47.608013,"lng":-122.335167},"status":"demand"},{"frame_index":714,"name":"ports_16","capacity":10000,"empty":0,"full":1796,"shortage":54,"booking":156,"fulfillment":102,"port_name":"Shanghai","position":{"lat":31.224361,"lng":121.46917},"status":"demand"},{"frame_index":714,"name":"ports_17","capacity":10000,"empty":83,"full":305,"shortage":0,"booking":55,"fulfillment":55,"port_name":"Singapore","position":{"lat":1.29027,"lng":103.851959},"status":"demand"},{"frame_index":714,"name":"ports_18","capacity":10000,"empty":53,"full":154,"shortage":0,"booking":20,"fulfillment":20,"port_name":"Sydney","position":{"lat":-33.865143,"lng":151.2099},"status":"balance"},{"frame_index":714,"name":"ports_19","capacity":10000,"empty":0,"full":202,"shortage":29,"booking":29,"fulfillment":0,"port_name":"Vancouver","position":{"lat":49.246292,"lng":-123.116226},"status":"demand"},{"frame_index":714,"name":"ports_20","capacity":10000,"empty":0,"full":668,"shortage":100,"booking":100,"fulfillment":0,"port_name":"Yantian","position":{"lat":26.8533,"lng":119.8575},"status":"demand"},{"frame_index":714,"name":"ports_21","capacity":10000,"empty":61,"full":336,"shortage":0,"booking":101,"fulfillment":101,"port_name":"Yokohama","position":{"lat":35.443707,"lng":139.638031},"status":"demand"}]