[{"frame_index":937,"name":"ports_0","capacity":10000,"empty":0,"full":811,"shortage":225,"booking":225,"fulfillment":0,"port_name":"Bremerhaven","position":{"lat":53.549999,"lng":8.583333},"status":"demand"},{"frame_index":937,"name":"ports_1","capacity":10000,"empty":481,"full":125,"shortage":0,"booking":17,"fulfillment":17,"port_name":"Durban","position":{"lat":-29.8579,"lng":31.0292},"status":"surplus"},{"frame_index":937,"name":"ports_2","capacity":10000,"empty":479,"full":77,"shortage":0,"booking":15,"fulfillment":15,"port_name":"Itagual","position":{"lat":-22.85222,"lng":-43.77528},"status":"surplus"},{"frame_index":937,"name":"ports_3","capacity":10000,"empty":1528,"full":1573,"shortage":0,"booking":92,"fulfillment":92,"port_name":"LeHavre","position":{"lat":49.490002,"lng":0.1},"status":"surplus"},{"frame_index":937,"name":"ports_4","capacity":10000,"empty":1507,"full":597,"shortage":0,"booking":74,"fulfillment":74,"port_name":"Los Angeles","position":{"lat":34.052235,"lng":-118.243683},"status":"surplus"},{"frame_index":937,"name":"ports_5","capacity":10000,"empty":110,"full":0,"shortage":0,"booking":79,"fulfillment":79,"port_name":"Manzanillo","position":{"lat":19.11695,"lng":-104.34214},"status":"demand"},{"frame_index":937,"name":"ports_6","capacity":10000,"empty":63,"full":200,"shortage":0,"booking":23,"fulfillment":23,"port_name":"Melbourne","position":{"lat":-37.840935,"lng":144.946457},"status":"demand"},{"frame_index":937,"name":"ports_7","capacity":10000,"empty":1960,"full":340,"shortage":0,"booking":23,"fulfillment":23,"port_name":"Montreal","position":{"lat":45.516136,"lng":-73.65683},"status":"surplus"},{"frame_index":937,"name":"ports_8","capacity":10000,"empty":13312,"full":628,"shortage":0,"booking":43,"fulfillment":43,"port_name":"New York","position":{"lat":40.73061,"lng":-73.935242},"status":"surplus"},{"frame_index":937,"name":"ports_9","capacity":10000,"empty":2677,"full":98,"shortage":0,"booking":47,"fulfillment":47,"port_name":"Oakland","position":{"lat":37.804363,"lng":-122.271111},"status":"surplus"},{"frame_index":937,"name":"ports_10","capacity":10000,"empty":2053,"full":97,"shortage":0,"booking":27,"fulfillment":27,"port_name":"Prince Rupert","position":{"lat":54.312519,"lng":-130.305405},"status":"surplus"},{"frame_index":937,"name":"ports_11","capacity":10000,"empty":730,"full":236,"shortage":0,"booking":87,"fulfillment":87,"port_name":"Pusan","position":{"lat":35.166668,"lng":129.066666},"status":"surplus"},{"frame_index":937,"name":"ports_12","capacity":10000,"empty":0,"full":976,"shortage":71,"booking":106,"fulfillment":35,"port_name":"Qingdao","position":{"lat":36.066898,"lng":120.382698},"status":"demand"},{"frame_index":937,"name":"ports_13","capacity":10000,"empty":1232,"full":26,"shortage":0,"booking":15,"fulfillment":15,"port_name":"San Antonio","position":{"lat":29.424349,"lng":-98.491142},"status":"surplus"},{"frame_index":937,"name":"ports_14","capacity":10000,"empty":382,"full":259,"shortage":0,"booking":16,"fulfillment":16,"port_name":"Santos","position":{"lat":-23.96083,"lng":-46.33361},"status":"surplus"},{"frame_index":937,"name":"ports_15","capacity":10000,"empty":369,"full":1374,"shortage":0,"booking":109,"fulfillment":109,"port_name":"Seattle","position":{"lat":47.608013,"lng":-122.335167},"status":"demand"},{"frame_index":937,"name":"ports_16","capacity":10000,"empty":0,"full":584,"shortage":136,"booking":136,"fulfillment":0,"port_name":"Shanghai","position":{"lat":31.224361,"lng":121.46917},"status":"demand"},{"frame_index":937,"name":"ports_17","capacity":10000,"empty":617,"full":684,"shortage":0,"booking":60,"fulfillment":60,"port_name":"Singapore","position":{"lat":1.29027,"lng":103.851959},"status":"surplus"},{"frame_index":937,"name":"ports_18","capacity":10000,"empty":0,"full":200,"shortage":24,"booking":24,"fulfillment":0,"port_name":"Sydney","position":{"lat":-33.865143,"lng":151.2099},"status":"demand"},{"frame_index":937,"name":"ports_19","capacity":10000,"empty":0,"full":411,"shortage":29,"booking":29,"fulfillment":0,"port_name":"Vancouver","position":{"lat":49.246292,"lng":-123.116226},"status":"demand"},{"frame_index":937,"name":"ports_20","capacity":10000,"empty":2,"full":307,"shortage":114,"booking":114,"fulfillment":0,"port_name":"Yantian","position":{"lat":26.8533,"lng":119.8575},"status":"demand"},{"frame_index":937,"name":"ports_21","capacity":10000,"empty":0,"full":455,"shortage":109,"booking":111,"fulfillment":2,"port_name":"Yokohama","position":{"lat":35.443707,"lng":139.638031},"status":"demand"}]