[{"frame_index":331,"name":"ports_0","capacity":10000,"empty":2155,"full":2823,"shortage":0,"booking":68,"fulfillment":68,"port_name":"Bremerhaven","position":{"lat":53.549999,"lng":8.583333},"status":"surplus"},{"frame_index":331,"name":"ports_1","capacity":10000,"empty":727,"full":0,"shortage":0,"booking":4,"fulfillment":4,"port_name":"Durban","position":{"lat":-29.8579,"lng":31.0292},"status":"surplus"},{"frame_index":331,"name":"ports_2","capacity":10000,"empty":0,"full":186,"shortage":4,"booking":4,"fulfillment":0,"port_name":"Itagual","position":{"lat":-22.85222,"lng":-43.77528},"status":"balance"},{"frame_index":331,"name":"ports_3","capacity":10000,"empty":2265,"full":125,"shortage":0,"booking":25,"fulfillment":25,"port_name":"LeHavre","position":{"lat":49.490002,"lng":0.1},"status":"surplus"},{"frame_index":331,"name":"ports_4","capacity":10000,"empty":908,"full":1231,"shortage":0,"booking":21,"fulfillment":21,"port_name":"Los Angeles","position":{"lat":34.052235,"lng":-118.243683},"status":"surplus"},{"frame_index":331,"name":"ports_5","capacity":10000,"empty":1371,"full":97,"shortage":0,"booking":22,"fulfillment":22,"port_name":"Manzanillo","position":{"lat":19.11695,"lng":-104.34214},"status":"surplus"},{"frame_index":331,"name":"ports_6","capacity":10000,"empty":79,"full":171,"shortage":0,"booking":7,"fulfillment":7,"port_name":"Melbourne","position":{"lat":-37.840935,"lng":144.946457},"status":"balance"},{"frame_index":331,"name":"ports_7","capacity":10000,"empty":722,"full":136,"shortage":0,"booking":7,"fulfillment":7,"port_name":"Montreal","position":{"lat":45.516136,"lng":-73.65683},"status":"surplus"},{"frame_index":331,"name":"ports_8","capacity":10000,"empty":5588,"full":939,"shortage":0,"booking":12,"fulfillment":12,"port_name":"New York","position":{"lat":40.73061,"lng":-73.935242},"status":"surplus"},{"frame_index":331,"name":"ports_9","capacity":10000,"empty":1499,"full":842,"shortage":0,"booking":11,"fulfillment":11,"port_name":"Oakland","position":{"lat":37.804363,"lng":-122.271111},"status":"surplus"},{"frame_index":331,"name":"ports_10","capacity":10000,"empty":2268,"full":10,"shortage":0,"booking":8,"fulfillment":8,"port_name":"Prince Rupert","position":{"lat":54.312519,"lng":-130.305405},"status":"surplus"},{"frame_index":331,"name":"ports_11","capacity":10000,"empty":2176,"full":180,"shortage":0,"booking":24,"fulfillment":24,"port_name":"Pusan","position":{"lat":35.166668,"lng":129.066666},"status":"surplus"},{"frame_index":331,"name":"ports_12","capacity":10000,"empty":1937,"full":854,"shortage":0,"booking":35,"fulfillment":35,"port_name":"Qingdao","position":{"lat":36.066898,"lng":120.382698},"status":"surplus"},{"frame_index":331,"name":"ports_13","capacity":10000,"empty":259,"full":116,"shortage":0,"booking":5,"fulfillment":5,"port_name":"San Antonio","position":{"lat":29.424349,"lng":-98.491142},"status":"surplus"},{"frame_index":331,"name":"ports_14","capacity":10000,"empty":1072,"full":93,"shortage":0,"booking":4,"fulfillment":4,"port_name":"Santos","position":{"lat":-23.96083,"lng":-46.33361},"status":"surplus"},{"frame_index":331,"name":"ports_15","capacity":10000,"empty":211,"full":218,"shortage":0,"booking":30,"fulfillment":30,"port_name":"Seattle","position":{"lat":47.608013,"lng":-122.335167},"status":"surplus"},{"frame_index":331,"name":"ports_16","capacity":10000,"empty":2572,"full":182,"shortage":0,"booking":44,"fulfillment":44,"port_name":"Shanghai","position":{"lat":31.224361,"lng":121.46917},"status":"surplus"},{"frame_index":331,"name":"ports_17","capacity":10000,"empty":419,"full":478,"shortage":0,"booking":17,"fulfillment":17,"port_name":"Singapore","position":{"lat":1.29027,"lng":103.851959},"status":"surplus"},{"frame_index":331,"name":"ports_18","capacity":10000,"empty":219,"full":70,"shortage":0,"booking":7,"fulfillment":7,"port_name":"Sydney","position":{"lat":-33.865143,"lng":151.2099},"status":"surplus"},{"frame_index":331,"name":"ports_19","capacity":10000,"empty":0,"full":493,"shortage":9,"booking":9,"fulfillment":0,"port_name":"Vancouver","position":{"lat":49.246292,"lng":-123.116226},"status":"balance"},{"frame_index":331,"name":"ports_20","capacity":10000,"empty":29,"full":569,"shortage":0,"booking":29,"fulfillment":29,"port_name":"Yantian","position":{"lat":26.8533,"lng":119.8575},"status":"demand"},{"frame_index":331,"name":"ports_21","capacity":10000,"empty":996,"full":991,"shortage":0,"booking":24,"fulfillment":24,"port_name":"Yokohama","position":{"lat":35.443707,"lng":139.638031},"status":"surplus"}]