[{"frame_index":835,"name":"ports_0","capacity":10000,"empty":5757,"full":655,"shortage":0,"booking":128,"fulfillment":128,"port_name":"Bremerhaven","position":{"lat":53.549999,"lng":8.583333},"status":"surplus"},{"frame_index":835,"name":"ports_1","capacity":10000,"empty":179,"full":155,"shortage":0,"booking":10,"fulfillment":10,"port_name":"Durban","position":{"lat":-29.8579,"lng":31.0292},"status":"surplus"},{"frame_index":835,"name":"ports_2","capacity":10000,"empty":163,"full":0,"shortage":0,"booking":10,"fulfillment":10,"port_name":"Itagual","position":{"lat":-22.85222,"lng":-43.77528},"status":"surplus"},{"frame_index":835,"name":"ports_3","capacity":10000,"empty":0,"full":575,"shortage":51,"booking":51,"fulfillment":0,"port_name":"LeHavre","position":{"lat":49.490002,"lng":0.1},"status":"demand"},{"frame_index":835,"name":"ports_4","capacity":10000,"empty":1057,"full":281,"shortage":0,"booking":42,"fulfillment":42,"port_name":"Los Angeles","position":{"lat":34.052235,"lng":-118.243683},"status":"surplus"},{"frame_index":835,"name":"ports_5","capacity":10000,"empty":0,"full":0,"shortage":38,"booking":38,"fulfillment":0,"port_name":"Manzanillo","position":{"lat":19.11695,"lng":-104.34214},"status":"demand"},{"frame_index":835,"name":"ports_6","capacity":10000,"empty":18,"full":163,"shortage":0,"booking":13,"fulfillment":13,"port_name":"Melbourne","position":{"lat":-37.840935,"lng":144.946457},"status":"balance"},{"frame_index":835,"name":"ports_7","capacity":10000,"empty":2226,"full":128,"shortage":0,"booking":13,"fulfillment":13,"port_name":"Montreal","position":{"lat":45.516136,"lng":-73.65683},"status":"surplus"},{"frame_index":835,"name":"ports_8","capacity":10000,"empty":10576,"full":453,"shortage":0,"booking":27,"fulfillment":27,"port_name":"New York","position":{"lat":40.73061,"lng":-73.935242},"status":"surplus"},{"frame_index":835,"name":"ports_9","capacity":10000,"empty":23,"full":963,"shortage":0,"booking":21,"fulfillment":21,"port_name":"Oakland","position":{"lat":37.804363,"lng":-122.271111},"status":"demand"},{"frame_index":835,"name":"ports_10","capacity":10000,"empty":2268,"full":529,"shortage":0,"booking":13,"fulfillment":13,"port_name":"Prince Rupert","position":{"lat":54.312519,"lng":-130.305405},"status":"surplus"},{"frame_index":835,"name":"ports_11","capacity":10000,"empty":0,"full":732,"shortage":34,"booking":49,"fulfillment":15,"port_name":"Pusan","position":{"lat":35.166668,"lng":129.066666},"status":"demand"},{"frame_index":835,"name":"ports_12","capacity":10000,"empty":1031,"full":2021,"shortage":0,"booking":73,"fulfillment":73,"port_name":"Qingdao","position":{"lat":36.066898,"lng":120.382698},"status":"surplus"},{"frame_index":835,"name":"ports_13","capacity":10000,"empty":1016,"full":159,"shortage":0,"booking":8,"fulfillment":8,"port_name":"San Antonio","position":{"lat":29.424349,"lng":-98.491142},"status":"surplus"},{"frame_index":835,"name":"ports_14","capacity":10000,"empty":406,"full":62,"shortage":0,"booking":10,"fulfillment":10,"port_name":"Santos","position":{"lat":-23.96083,"lng":-46.33361},"status":"surplus"},{"frame_index":835,"name":"ports_15","capacity":10000,"empty":0,"full":835,"shortage":59,"booking":59,"fulfillment":0,"port_name":"Seattle","position":{"lat":47.608013,"lng":-122.335167},"status":"demand"},{"frame_index":835,"name":"ports_16","capacity":10000,"empty":0,"full":1856,"shortage":75,"booking":75,"fulfillment":0,"port_name":"Shanghai","position":{"lat":31.224361,"lng":121.46917},"status":"demand"},{"frame_index":835,"name":"ports_17","capacity":10000,"empty":1151,"full":577,"shortage":0,"booking":34,"fulfillment":34,"port_name":"Singapore","position":{"lat":1.29027,"lng":103.851959},"status":"surplus"},{"frame_index":835,"name":"ports_18","capacity":10000,"empty":0,"full":287,"shortage":14,"booking":14,"fulfillment":0,"port_name":"Sydney","position":{"lat":-33.865143,"lng":151.2099},"status":"demand"},{"frame_index":835,"name":"ports_19","capacity":10000,"empty":124,"full":32,"shortage":0,"booking":19,"fulfillment":19,"port_name":"Vancouver","position":{"lat":49.246292,"lng":-123.116226},"status":"balance"},{"frame_index":835,"name":"ports_20","capacity":10000,"empty":0,"full":682,"shortage":56,"booking":56,"fulfillment":0,"port_name":"Yantian","position":{"lat":26.8533,"lng":119.8575},"status":"demand"},{"frame_index":835,"name":"ports_21","capacity":10000,"empty":26,"full":521,"shortage":0,"booking":59,"fulfillment":59,"port_name":"Yokohama","position":{"lat":35.443707,"lng":139.638031},"status":"demand"}]