[{"frame_index":1018,"name":"ports_0","capacity":10000,"empty":9998,"full":1028,"shortage":0,"booking":24,"fulfillment":24,"port_name":"Bremerhaven","position":{"lat":53.549999,"lng":8.583333},"status":"surplus"},{"frame_index":1018,"name":"ports_1","capacity":10000,"empty":94,"full":134,"shortage":0,"booking":2,"fulfillment":2,"port_name":"Durban","position":{"lat":-29.8579,"lng":31.0292},"status":"surplus"},{"frame_index":1018,"name":"ports_2","capacity":10000,"empty":16,"full":346,"shortage":0,"booking":2,"fulfillment":2,"port_name":"Itagual","position":{"lat":-22.85222,"lng":-43.77528},"status":"balance"},{"frame_index":1018,"name":"ports_3","capacity":10000,"empty":386,"full":200,"shortage":0,"booking":11,"fulfillment":11,"port_name":"LeHavre","position":{"lat":49.490002,"lng":0.1},"status":"surplus"},{"frame_index":1018,"name":"ports_4","capacity":10000,"empty":640,"full":218,"shortage":0,"booking":9,"fulfillment":9,"port_name":"Los Angeles","position":{"lat":34.052235,"lng":-118.243683},"status":"surplus"},{"frame_index":1018,"name":"ports_5","capacity":10000,"empty":654,"full":81,"shortage":0,"booking":9,"fulfillment":9,"port_name":"Manzanillo","position":{"lat":19.11695,"lng":-104.34214},"status":"surplus"},{"frame_index":1018,"name":"ports_6","capacity":10000,"empty":99,"full":67,"shortage":0,"booking":3,"fulfillment":3,"port_name":"Melbourne","position":{"lat":-37.840935,"lng":144.946457},"status":"surplus"},{"frame_index":1018,"name":"ports_7","capacity":10000,"empty":2000,"full":100,"shortage":0,"booking":3,"fulfillment":3,"port_name":"Montreal","position":{"lat":45.516136,"lng":-73.65683},"status":"surplus"},{"frame_index":1018,"name":"ports_8","capacity":10000,"empty":18295,"full":150,"shortage":0,"booking":6,"fulfillment":6,"port_name":"New York","position":{"lat":40.73061,"lng":-73.935242},"status":"surplus"},{"frame_index":1018,"name":"ports_9","capacity":10000,"empty":2170,"full":146,"shortage":0,"booking":6,"fulfillment":6,"port_name":"Oakland","position":{"lat":37.804363,"lng":-122.271111},"status":"surplus"},{"frame_index":1018,"name":"ports_10","capacity":10000,"empty":1228,"full":3,"shortage":0,"booking":3,"fulfillment":3,"port_name":"Prince Rupert","position":{"lat":54.312519,"lng":-130.305405},"status":"surplus"},{"frame_index":1018,"name":"ports_11","capacity":10000,"empty":810,"full":528,"shortage":0,"booking":11,"fulfillment":11,"port_name":"Pusan","position":{"lat":35.166668,"lng":129.066666},"status":"surplus"},{"frame_index":1018,"name":"ports_12","capacity":10000,"empty":1267,"full":950,"shortage":0,"booking":15,"fulfillment":15,"port_name":"Qingdao","position":{"lat":36.066898,"lng":120.382698},"status":"surplus"},{"frame_index":1018,"name":"ports_13","capacity":10000,"empty":98,"full":51,"shortage":0,"booking":2,"fulfillment":2,"port_name":"San Antonio","position":{"lat":29.424349,"lng":-98.491142},"status":"surplus"},{"frame_index":1018,"name":"ports_14","capacity":10000,"empty":194,"full":180,"shortage":0,"booking":2,"fulfillment":2,"port_name":"Santos","position":{"lat":-23.96083,"lng":-46.33361},"status":"surplus"},{"frame_index":1018,"name":"ports_15","capacity":10000,"empty":863,"full":721,"shortage":0,"booking":13,"fulfillment":13,"port_name":"Seattle","position":{"lat":47.608013,"lng":-122.335167},"status":"surplus"},{"frame_index":1018,"name":"ports_16","capacity":10000,"empty":165,"full":797,"shortage":0,"booking":18,"fulfillment":18,"port_name":"Shanghai","position":{"lat":31.224361,"lng":121.46917},"status":"surplus"},{"frame_index":1018,"name":"ports_17","capacity":10000,"empty":177,"full":494,"shortage":0,"booking":7,"fulfillment":7,"port_name":"Singapore","position":{"lat":1.29027,"lng":103.851959},"status":"surplus"},{"frame_index":1018,"name":"ports_18","capacity":10000,"empty":253,"full":30,"shortage":0,"booking":3,"fulfillment":3,"port_name":"Sydney","position":{"lat":-33.865143,"lng":151.2099},"status":"surplus"},{"frame_index":1018,"name":"ports_19","capacity":10000,"empty":530,"full":54,"shortage":0,"booking":4,"fulfillment":4,"port_name":"Vancouver","position":{"lat":49.246292,"lng":-123.116226},"status":"surplus"},{"frame_index":1018,"name":"ports_20","capacity":10000,"empty":416,"full":408,"shortage":0,"booking":13,"fulfillment":13,"port_name":"Yantian","position":{"lat":26.8533,"lng":119.8575},"status":"surplus"},{"frame_index":1018,"name":"ports_21","capacity":10000,"empty":325,"full":49,"shortage":0,"booking":1,"fulfillment":1,"port_name":"Yokohama","position":{"lat":35.443707,"lng":139.638031},"status":"surplus"}]