[{"frame_index":1037,"name":"ports_0","capacity":10000,"empty":5047,"full":891,"shortage":0,"booking":157,"fulfillment":157,"port_name":"Bremerhaven","position":{"lat":53.549999,"lng":8.583333},"status":"surplus"},{"frame_index":1037,"name":"ports_1","capacity":10000,"empty":172,"full":91,"shortage":0,"booking":11,"fulfillment":11,"port_name":"Durban","position":{"lat":-29.8579,"lng":31.0292},"status":"surplus"},{"frame_index":1037,"name":"ports_2","capacity":10000,"empty":0,"full":364,"shortage":10,"booking":10,"fulfillment":0,"port_name":"Itagual","position":{"lat":-22.85222,"lng":-43.77528},"status":"balance"},{"frame_index":1037,"name":"ports_3","capacity":10000,"empty":219,"full":672,"shortage":0,"booking":66,"fulfillment":66,"port_name":"LeHavre","position":{"lat":49.490002,"lng":0.1},"status":"demand"},{"frame_index":1037,"name":"ports_4","capacity":10000,"empty":57,"full":529,"shortage":0,"booking":54,"fulfillment":54,"port_name":"Los Angeles","position":{"lat":34.052235,"lng":-118.243683},"status":"demand"},{"frame_index":1037,"name":"ports_5","capacity":10000,"empty":2480,"full":374,"shortage":0,"booking":59,"fulfillment":59,"port_name":"Manzanillo","position":{"lat":19.11695,"lng":-104.34214},"status":"surplus"},{"frame_index":1037,"name":"ports_6","capacity":10000,"empty":0,"full":172,"shortage":17,"booking":17,"fulfillment":0,"port_name":"Melbourne","position":{"lat":-37.840935,"lng":144.946457},"status":"demand"},{"frame_index":1037,"name":"ports_7","capacity":10000,"empty":1935,"full":107,"shortage":0,"booking":17,"fulfillment":17,"port_name":"Montreal","position":{"lat":45.516136,"lng":-73.65683},"status":"surplus"},{"frame_index":1037,"name":"ports_8","capacity":10000,"empty":16204,"full":200,"shortage":0,"booking":32,"fulfillment":32,"port_name":"New York","position":{"lat":40.73061,"lng":-73.935242},"status":"surplus"},{"frame_index":1037,"name":"ports_9","capacity":10000,"empty":1930,"full":262,"shortage":0,"booking":39,"fulfillment":39,"port_name":"Oakland","position":{"lat":37.804363,"lng":-122.271111},"status":"surplus"},{"frame_index":1037,"name":"ports_10","capacity":10000,"empty":1399,"full":157,"shortage":0,"booking":17,"fulfillment":17,"port_name":"Prince Rupert","position":{"lat":54.312519,"lng":-130.305405},"status":"surplus"},{"frame_index":1037,"name":"ports_11","capacity":10000,"empty":509,"full":887,"shortage":0,"booking":63,"fulfillment":63,"port_name":"Pusan","position":{"lat":35.166668,"lng":129.066666},"status":"surplus"},{"frame_index":1037,"name":"ports_12","capacity":10000,"empty":129,"full":1329,"shortage":0,"booking":95,"fulfillment":95,"port_name":"Qingdao","position":{"lat":36.066898,"lng":120.382698},"status":"demand"},{"frame_index":1037,"name":"ports_13","capacity":10000,"empty":0,"full":154,"shortage":11,"booking":11,"fulfillment":0,"port_name":"San Antonio","position":{"lat":29.424349,"lng":-98.491142},"status":"demand"},{"frame_index":1037,"name":"ports_14","capacity":10000,"empty":299,"full":110,"shortage":0,"booking":9,"fulfillment":9,"port_name":"Santos","position":{"lat":-23.96083,"lng":-46.33361},"status":"surplus"},{"frame_index":1037,"name":"ports_15","capacity":10000,"empty":1270,"full":495,"shortage":0,"booking":73,"fulfillment":73,"port_name":"Seattle","position":{"lat":47.608013,"lng":-122.335167},"status":"surplus"},{"frame_index":1037,"name":"ports_16","capacity":10000,"empty":0,"full":1298,"shortage":68,"booking":109,"fulfillment":41,"port_name":"Shanghai","position":{"lat":31.224361,"lng":121.46917},"status":"demand"},{"frame_index":1037,"name":"ports_17","capacity":10000,"empty":500,"full":406,"shortage":0,"booking":44,"fulfillment":44,"port_name":"Singapore","position":{"lat":1.29027,"lng":103.851959},"status":"surplus"},{"frame_index":1037,"name":"ports_18","capacity":10000,"empty":250,"full":136,"shortage":0,"booking":18,"fulfillment":18,"port_name":"Sydney","position":{"lat":-33.865143,"lng":151.2099},"status":"surplus"},{"frame_index":1037,"name":"ports_19","capacity":10000,"empty":379,"full":164,"shortage":0,"booking":23,"fulfillment":23,"port_name":"Vancouver","position":{"lat":49.246292,"lng":-123.116226},"status":"surplus"},{"frame_index":1037,"name":"ports_20","capacity":10000,"empty":0,"full":720,"shortage":75,"booking":75,"fulfillment":0,"port_name":"Yantian","position":{"lat":26.8533,"lng":119.8575},"status":"demand"},{"frame_index":1037,"name":"ports_21","capacity":10000,"empty":0,"full":386,"shortage":74,"booking":74,"fulfillment":0,"port_name":"Yokohama","position":{"lat":35.443707,"lng":139.638031},"status":"demand"}]