[{"frame_index":735,"name":"ports_0","capacity":10000,"empty":1523,"full":1138,"shortage":88,"booking":88,"fulfillment":0,"port_name":"Bremerhaven","position":{"lat":53.549999,"lng":8.583333},"status":"surplus"},{"frame_index":735,"name":"ports_1","capacity":10000,"empty":0,"full":211,"shortage":6,"booking":6,"fulfillment":0,"port_name":"Durban","position":{"lat":-29.8579,"lng":31.0292},"status":"balance"},{"frame_index":735,"name":"ports_2","capacity":10000,"empty":125,"full":56,"shortage":0,"booking":6,"fulfillment":6,"port_name":"Itagual","position":{"lat":-22.85222,"lng":-43.77528},"status":"surplus"},{"frame_index":735,"name":"ports_3","capacity":10000,"empty":141,"full":1733,"shortage":0,"booking":33,"fulfillment":33,"port_name":"LeHavre","position":{"lat":49.490002,"lng":0.1},"status":"balance"},{"frame_index":735,"name":"ports_4","capacity":10000,"empty":122,"full":1166,"shortage":0,"booking":28,"fulfillment":28,"port_name":"Los Angeles","position":{"lat":34.052235,"lng":-118.243683},"status":"balance"},{"frame_index":735,"name":"ports_5","capacity":10000,"empty":0,"full":143,"shortage":30,"booking":30,"fulfillment":0,"port_name":"Manzanillo","position":{"lat":19.11695,"lng":-104.34214},"status":"demand"},{"frame_index":735,"name":"ports_6","capacity":10000,"empty":0,"full":238,"shortage":8,"booking":8,"fulfillment":0,"port_name":"Melbourne","position":{"lat":-37.840935,"lng":144.946457},"status":"balance"},{"frame_index":735,"name":"ports_7","capacity":10000,"empty":2417,"full":234,"shortage":0,"booking":9,"fulfillment":9,"port_name":"Montreal","position":{"lat":45.516136,"lng":-73.65683},"status":"surplus"},{"frame_index":735,"name":"ports_8","capacity":10000,"empty":12287,"full":220,"shortage":0,"booking":18,"fulfillment":18,"port_name":"New York","position":{"lat":40.73061,"lng":-73.935242},"status":"surplus"},{"frame_index":735,"name":"ports_9","capacity":10000,"empty":389,"full":732,"shortage":0,"booking":15,"fulfillment":15,"port_name":"Oakland","position":{"lat":37.804363,"lng":-122.271111},"status":"surplus"},{"frame_index":735,"name":"ports_10","capacity":10000,"empty":2323,"full":675,"shortage":0,"booking":9,"fulfillment":9,"port_name":"Prince Rupert","position":{"lat":54.312519,"lng":-130.305405},"status":"surplus"},{"frame_index":735,"name":"ports_11","capacity":10000,"empty":23,"full":1150,"shortage":0,"booking":33,"fulfillment":33,"port_name":"Pusan","position":{"lat":35.166668,"lng":129.066666},"status":"demand"},{"frame_index":735,"name":"ports_12","capacity":10000,"empty":872,"full":1310,"shortage":0,"booking":41,"fulfillment":41,"port_name":"Qingdao","position":{"lat":36.066898,"lng":120.382698},"status":"surplus"},{"frame_index":735,"name":"ports_13","capacity":10000,"empty":5736,"full":345,"shortage":0,"booking":5,"fulfillment":5,"port_name":"San Antonio","position":{"lat":29.424349,"lng":-98.491142},"status":"surplus"},{"frame_index":735,"name":"ports_14","capacity":10000,"empty":250,"full":396,"shortage":0,"booking":6,"fulfillment":6,"port_name":"Santos","position":{"lat":-23.96083,"lng":-46.33361},"status":"surplus"},{"frame_index":735,"name":"ports_15","capacity":10000,"empty":0,"full":1267,"shortage":38,"booking":38,"fulfillment":0,"port_name":"Seattle","position":{"lat":47.608013,"lng":-122.335167},"status":"demand"},{"frame_index":735,"name":"ports_16","capacity":10000,"empty":0,"full":1949,"shortage":33,"booking":49,"fulfillment":16,"port_name":"Shanghai","position":{"lat":31.224361,"lng":121.46917},"status":"demand"},{"frame_index":735,"name":"ports_17","capacity":10000,"empty":3,"full":220,"shortage":22,"booking":22,"fulfillment":0,"port_name":"Singapore","position":{"lat":1.29027,"lng":103.851959},"status":"demand"},{"frame_index":735,"name":"ports_18","capacity":10000,"empty":0,"full":116,"shortage":9,"booking":9,"fulfillment":0,"port_name":"Sydney","position":{"lat":-33.865143,"lng":151.2099},"status":"balance"},{"frame_index":735,"name":"ports_19","capacity":10000,"empty":56,"full":257,"shortage":0,"booking":12,"fulfillment":12,"port_name":"Vancouver","position":{"lat":49.246292,"lng":-123.116226},"status":"balance"},{"frame_index":735,"name":"ports_20","capacity":10000,"empty":332,"full":1253,"shortage":0,"booking":43,"fulfillment":43,"port_name":"Yantian","position":{"lat":26.8533,"lng":119.8575},"status":"surplus"},{"frame_index":735,"name":"ports_21","capacity":10000,"empty":0,"full":208,"shortage":32,"booking":32,"fulfillment":0,"port_name":"Yokohama","position":{"lat":35.443707,"lng":139.638031},"status":"demand"}]