[{"frame_index":990,"name":"ports_0","capacity":10000,"empty":6074,"full":41,"shortage":0,"booking":100,"fulfillment":100,"port_name":"Bremerhaven","position":{"lat":53.549999,"lng":8.583333},"status":"surplus"},{"frame_index":990,"name":"ports_1","capacity":10000,"empty":213,"full":13,"shortage":0,"booking":6,"fulfillment":6,"port_name":"Durban","position":{"lat":-29.8579,"lng":31.0292},"status":"surplus"},{"frame_index":990,"name":"ports_2","capacity":10000,"empty":136,"full":217,"shortage":0,"booking":7,"fulfillment":7,"port_name":"Itagual","position":{"lat":-22.85222,"lng":-43.77528},"status":"surplus"},{"frame_index":990,"name":"ports_3","capacity":10000,"empty":129,"full":530,"shortage":0,"booking":38,"fulfillment":38,"port_name":"LeHavre","position":{"lat":49.490002,"lng":0.1},"status":"demand"},{"frame_index":990,"name":"ports_4","capacity":10000,"empty":1108,"full":147,"shortage":0,"booking":32,"fulfillment":32,"port_name":"Los Angeles","position":{"lat":34.052235,"lng":-118.243683},"status":"surplus"},{"frame_index":990,"name":"ports_5","capacity":10000,"empty":40,"full":291,"shortage":0,"booking":30,"fulfillment":30,"port_name":"Manzanillo","position":{"lat":19.11695,"lng":-104.34214},"status":"demand"},{"frame_index":990,"name":"ports_6","capacity":10000,"empty":101,"full":146,"shortage":0,"booking":9,"fulfillment":9,"port_name":"Melbourne","position":{"lat":-37.840935,"lng":144.946457},"status":"surplus"},{"frame_index":990,"name":"ports_7","capacity":10000,"empty":1807,"full":468,"shortage":0,"booking":10,"fulfillment":10,"port_name":"Montreal","position":{"lat":45.516136,"lng":-73.65683},"status":"surplus"},{"frame_index":990,"name":"ports_8","capacity":10000,"empty":16852,"full":678,"shortage":0,"booking":18,"fulfillment":18,"port_name":"New York","position":{"lat":40.73061,"lng":-73.935242},"status":"surplus"},{"frame_index":990,"name":"ports_9","capacity":10000,"empty":4436,"full":476,"shortage":0,"booking":16,"fulfillment":16,"port_name":"Oakland","position":{"lat":37.804363,"lng":-122.271111},"status":"surplus"},{"frame_index":990,"name":"ports_10","capacity":10000,"empty":1033,"full":145,"shortage":0,"booking":10,"fulfillment":10,"port_name":"Prince Rupert","position":{"lat":54.312519,"lng":-130.305405},"status":"surplus"},{"frame_index":990,"name":"ports_11","capacity":10000,"empty":0,"full":764,"shortage":37,"booking":37,"fulfillment":0,"port_name":"Pusan","position":{"lat":35.166668,"lng":129.066666},"status":"demand"},{"frame_index":990,"name":"ports_12","capacity":10000,"empty":772,"full":1070,"shortage":0,"booking":51,"fulfillment":51,"port_name":"Qingdao","position":{"lat":36.066898,"lng":120.382698},"status":"surplus"},{"frame_index":990,"name":"ports_13","capacity":10000,"empty":88,"full":111,"shortage":0,"booking":7,"fulfillment":7,"port_name":"San Antonio","position":{"lat":29.424349,"lng":-98.491142},"status":"surplus"},{"frame_index":990,"name":"ports_14","capacity":10000,"empty":319,"full":50,"shortage":0,"booking":6,"fulfillment":6,"port_name":"Santos","position":{"lat":-23.96083,"lng":-46.33361},"status":"surplus"},{"frame_index":990,"name":"ports_15","capacity":10000,"empty":0,"full":1203,"shortage":45,"booking":45,"fulfillment":0,"port_name":"Seattle","position":{"lat":47.608013,"lng":-122.335167},"status":"demand"},{"frame_index":990,"name":"ports_16","capacity":10000,"empty":837,"full":720,"shortage":0,"booking":53,"fulfillment":53,"port_name":"Shanghai","position":{"lat":31.224361,"lng":121.46917},"status":"surplus"},{"frame_index":990,"name":"ports_17","capacity":10000,"empty":376,"full":214,"shortage":0,"booking":25,"fulfillment":25,"port_name":"Singapore","position":{"lat":1.29027,"lng":103.851959},"status":"surplus"},{"frame_index":990,"name":"ports_18","capacity":10000,"empty":0,"full":160,"shortage":9,"booking":9,"fulfillment":0,"port_name":"Sydney","position":{"lat":-33.865143,"lng":151.2099},"status":"balance"},{"frame_index":990,"name":"ports_19","capacity":10000,"empty":653,"full":100,"shortage":0,"booking":13,"fulfillment":13,"port_name":"Vancouver","position":{"lat":49.246292,"lng":-123.116226},"status":"surplus"},{"frame_index":990,"name":"ports_20","capacity":10000,"empty":365,"full":457,"shortage":0,"booking":46,"fulfillment":46,"port_name":"Yantian","position":{"lat":26.8533,"lng":119.8575},"status":"surplus"},{"frame_index":990,"name":"ports_21","capacity":10000,"empty":0,"full":478,"shortage":37,"booking":37,"fulfillment":0,"port_name":"Yokohama","position":{"lat":35.443707,"lng":139.638031},"status":"demand"}]