[{"frame_index":502,"name":"ports_0","capacity":10000,"empty":2298,"full":1510,"shortage":0,"booking":239,"fulfillment":239,"port_name":"Bremerhaven","position":{"lat":53.549999,"lng":8.583333},"status":"surplus"},{"frame_index":502,"name":"ports_1","capacity":10000,"empty":537,"full":102,"shortage":0,"booking":16,"fulfillment":16,"port_name":"Durban","position":{"lat":-29.8579,"lng":31.0292},"status":"surplus"},{"frame_index":502,"name":"ports_2","capacity":10000,"empty":523,"full":46,"shortage":0,"booking":14,"fulfillment":14,"port_name":"Itagual","position":{"lat":-22.85222,"lng":-43.77528},"status":"surplus"},{"frame_index":502,"name":"ports_3","capacity":10000,"empty":251,"full":1026,"shortage":0,"booking":85,"fulfillment":85,"port_name":"LeHavre","position":{"lat":49.490002,"lng":0.1},"status":"demand"},{"frame_index":502,"name":"ports_4","capacity":10000,"empty":0,"full":1257,"shortage":70,"booking":70,"fulfillment":0,"port_name":"Los Angeles","position":{"lat":34.052235,"lng":-118.243683},"status":"demand"},{"frame_index":502,"name":"ports_5","capacity":10000,"empty":145,"full":120,"shortage":0,"booking":62,"fulfillment":62,"port_name":"Manzanillo","position":{"lat":19.11695,"lng":-104.34214},"status":"demand"},{"frame_index":502,"name":"ports_6","capacity":10000,"empty":280,"full":87,"shortage":0,"booking":22,"fulfillment":22,"port_name":"Melbourne","position":{"lat":-37.840935,"lng":144.946457},"status":"surplus"},{"frame_index":502,"name":"ports_7","capacity":10000,"empty":2597,"full":298,"shortage":0,"booking":21,"fulfillment":21,"port_name":"Montreal","position":{"lat":45.516136,"lng":-73.65683},"status":"surplus"},{"frame_index":502,"name":"ports_8","capacity":10000,"empty":7589,"full":17,"shortage":0,"booking":44,"fulfillment":44,"port_name":"New York","position":{"lat":40.73061,"lng":-73.935242},"status":"surplus"},{"frame_index":502,"name":"ports_9","capacity":10000,"empty":4912,"full":392,"shortage":0,"booking":42,"fulfillment":42,"port_name":"Oakland","position":{"lat":37.804363,"lng":-122.271111},"status":"surplus"},{"frame_index":502,"name":"ports_10","capacity":10000,"empty":2679,"full":634,"shortage":0,"booking":22,"fulfillment":22,"port_name":"Prince Rupert","position":{"lat":54.312519,"lng":-130.305405},"status":"surplus"},{"frame_index":502,"name":"ports_11","capacity":10000,"empty":0,"full":648,"shortage":87,"booking":87,"fulfillment":0,"port_name":"Pusan","position":{"lat":35.166668,"lng":129.066666},"status":"demand"},{"frame_index":502,"name":"ports_12","capacity":10000,"empty":587,"full":1842,"shortage":0,"booking":106,"fulfillment":106,"port_name":"Qingdao","position":{"lat":36.066898,"lng":120.382698},"status":"surplus"},{"frame_index":502,"name":"ports_13","capacity":10000,"empty":211,"full":218,"shortage":0,"booking":14,"fulfillment":14,"port_name":"San Antonio","position":{"lat":29.424349,"lng":-98.491142},"status":"surplus"},{"frame_index":502,"name":"ports_14","capacity":10000,"empty":0,"full":343,"shortage":17,"booking":17,"fulfillment":0,"port_name":"Santos","position":{"lat":-23.96083,"lng":-46.33361},"status":"demand"},{"frame_index":502,"name":"ports_15","capacity":10000,"empty":667,"full":434,"shortage":0,"booking":94,"fulfillment":94,"port_name":"Seattle","position":{"lat":47.608013,"lng":-122.335167},"status":"surplus"},{"frame_index":502,"name":"ports_16","capacity":10000,"empty":255,"full":474,"shortage":0,"booking":153,"fulfillment":153,"port_name":"Shanghai","position":{"lat":31.224361,"lng":121.46917},"status":"demand"},{"frame_index":502,"name":"ports_17","capacity":10000,"empty":0,"full":349,"shortage":42,"booking":56,"fulfillment":14,"port_name":"Singapore","position":{"lat":1.29027,"lng":103.851959},"status":"demand"},{"frame_index":502,"name":"ports_18","capacity":10000,"empty":0,"full":237,"shortage":19,"booking":19,"fulfillment":0,"port_name":"Sydney","position":{"lat":-33.865143,"lng":151.2099},"status":"demand"},{"frame_index":502,"name":"ports_19","capacity":10000,"empty":0,"full":420,"shortage":9,"booking":29,"fulfillment":20,"port_name":"Vancouver","position":{"lat":49.246292,"lng":-123.116226},"status":"demand"},{"frame_index":502,"name":"ports_20","capacity":10000,"empty":336,"full":580,"shortage":89,"booking":89,"fulfillment":0,"port_name":"Yantian","position":{"lat":26.8533,"lng":119.8575},"status":"demand"},{"frame_index":502,"name":"ports_21","capacity":10000,"empty":0,"full":935,"shortage":100,"booking":100,"fulfillment":0,"port_name":"Yokohama","position":{"lat":35.443707,"lng":139.638031},"status":"demand"}]