[{"frame_index":686,"name":"ports_0","capacity":10000,"empty":2513,"full":105,"shortage":0,"booking":102,"fulfillment":102,"port_name":"Bremerhaven","position":{"lat":53.549999,"lng":8.583333},"status":"surplus"},{"frame_index":686,"name":"ports_1","capacity":10000,"empty":324,"full":10,"shortage":0,"booking":7,"fulfillment":7,"port_name":"Durban","position":{"lat":-29.8579,"lng":31.0292},"status":"surplus"},{"frame_index":686,"name":"ports_2","capacity":10000,"empty":601,"full":157,"shortage":0,"booking":8,"fulfillment":8,"port_name":"Itagual","position":{"lat":-22.85222,"lng":-43.77528},"status":"surplus"},{"frame_index":686,"name":"ports_3","capacity":10000,"empty":188,"full":354,"shortage":0,"booking":42,"fulfillment":42,"port_name":"LeHavre","position":{"lat":49.490002,"lng":0.1},"status":"balance"},{"frame_index":686,"name":"ports_4","capacity":10000,"empty":1187,"full":208,"shortage":0,"booking":35,"fulfillment":35,"port_name":"Los Angeles","position":{"lat":34.052235,"lng":-118.243683},"status":"surplus"},{"frame_index":686,"name":"ports_5","capacity":10000,"empty":1035,"full":0,"shortage":0,"booking":38,"fulfillment":38,"port_name":"Manzanillo","position":{"lat":19.11695,"lng":-104.34214},"status":"surplus"},{"frame_index":686,"name":"ports_6","capacity":10000,"empty":0,"full":100,"shortage":1,"booking":11,"fulfillment":10,"port_name":"Melbourne","position":{"lat":-37.840935,"lng":144.946457},"status":"demand"},{"frame_index":686,"name":"ports_7","capacity":10000,"empty":2140,"full":64,"shortage":0,"booking":11,"fulfillment":11,"port_name":"Montreal","position":{"lat":45.516136,"lng":-73.65683},"status":"surplus"},{"frame_index":686,"name":"ports_8","capacity":10000,"empty":12492,"full":226,"shortage":0,"booking":21,"fulfillment":21,"port_name":"New York","position":{"lat":40.73061,"lng":-73.935242},"status":"surplus"},{"frame_index":686,"name":"ports_9","capacity":10000,"empty":955,"full":434,"shortage":0,"booking":18,"fulfillment":18,"port_name":"Oakland","position":{"lat":37.804363,"lng":-122.271111},"status":"surplus"},{"frame_index":686,"name":"ports_10","capacity":10000,"empty":2430,"full":63,"shortage":0,"booking":12,"fulfillment":12,"port_name":"Prince Rupert","position":{"lat":54.312519,"lng":-130.305405},"status":"surplus"},{"frame_index":686,"name":"ports_11","capacity":10000,"empty":271,"full":896,"shortage":0,"booking":44,"fulfillment":44,"port_name":"Pusan","position":{"lat":35.166668,"lng":129.066666},"status":"surplus"},{"frame_index":686,"name":"ports_12","capacity":10000,"empty":2436,"full":1367,"shortage":0,"booking":60,"fulfillment":60,"port_name":"Qingdao","position":{"lat":36.066898,"lng":120.382698},"status":"surplus"},{"frame_index":686,"name":"ports_13","capacity":10000,"empty":6659,"full":34,"shortage":0,"booking":7,"fulfillment":7,"port_name":"San Antonio","position":{"lat":29.424349,"lng":-98.491142},"status":"surplus"},{"frame_index":686,"name":"ports_14","capacity":10000,"empty":518,"full":47,"shortage":0,"booking":8,"fulfillment":8,"port_name":"Santos","position":{"lat":-23.96083,"lng":-46.33361},"status":"surplus"},{"frame_index":686,"name":"ports_15","capacity":10000,"empty":1395,"full":286,"shortage":0,"booking":50,"fulfillment":50,"port_name":"Seattle","position":{"lat":47.608013,"lng":-122.335167},"status":"surplus"},{"frame_index":686,"name":"ports_16","capacity":10000,"empty":679,"full":1078,"shortage":0,"booking":61,"fulfillment":61,"port_name":"Shanghai","position":{"lat":31.224361,"lng":121.46917},"status":"surplus"},{"frame_index":686,"name":"ports_17","capacity":10000,"empty":1012,"full":97,"shortage":0,"booking":29,"fulfillment":29,"port_name":"Singapore","position":{"lat":1.29027,"lng":103.851959},"status":"surplus"},{"frame_index":686,"name":"ports_18","capacity":10000,"empty":151,"full":84,"shortage":0,"booking":11,"fulfillment":11,"port_name":"Sydney","position":{"lat":-33.865143,"lng":151.2099},"status":"surplus"},{"frame_index":686,"name":"ports_19","capacity":10000,"empty":234,"full":93,"shortage":0,"booking":14,"fulfillment":14,"port_name":"Vancouver","position":{"lat":49.246292,"lng":-123.116226},"status":"surplus"},{"frame_index":686,"name":"ports_20","capacity":10000,"empty":466,"full":429,"shortage":0,"booking":51,"fulfillment":51,"port_name":"Yantian","position":{"lat":26.8533,"lng":119.8575},"status":"surplus"},{"frame_index":686,"name":"ports_21","capacity":10000,"empty":320,"full":87,"shortage":0,"booking":47,"fulfillment":47,"port_name":"Yokohama","position":{"lat":35.443707,"lng":139.638031},"status":"surplus"}]