[{"frame_index":733,"name":"ports_0","capacity":10000,"empty":0,"full":4798,"shortage":222,"booking":222,"fulfillment":0,"port_name":"Bremerhaven","position":{"lat":53.549999,"lng":8.583333},"status":"demand"},{"frame_index":733,"name":"ports_1","capacity":10000,"empty":0,"full":211,"shortage":12,"booking":12,"fulfillment":0,"port_name":"Durban","position":{"lat":-29.8579,"lng":31.0292},"status":"demand"},{"frame_index":733,"name":"ports_2","capacity":10000,"empty":141,"full":26,"shortage":0,"booking":13,"fulfillment":13,"port_name":"Itagual","position":{"lat":-22.85222,"lng":-43.77528},"status":"surplus"},{"frame_index":733,"name":"ports_3","capacity":10000,"empty":239,"full":1551,"shortage":0,"booking":74,"fulfillment":74,"port_name":"LeHavre","position":{"lat":49.490002,"lng":0.1},"status":"demand"},{"frame_index":733,"name":"ports_4","capacity":10000,"empty":203,"full":1039,"shortage":0,"booking":60,"fulfillment":60,"port_name":"Los Angeles","position":{"lat":34.052235,"lng":-118.243683},"status":"demand"},{"frame_index":733,"name":"ports_5","capacity":10000,"empty":0,"full":143,"shortage":58,"booking":58,"fulfillment":0,"port_name":"Manzanillo","position":{"lat":19.11695,"lng":-104.34214},"status":"demand"},{"frame_index":733,"name":"ports_6","capacity":10000,"empty":0,"full":238,"shortage":18,"booking":18,"fulfillment":0,"port_name":"Melbourne","position":{"lat":-37.840935,"lng":144.946457},"status":"demand"},{"frame_index":733,"name":"ports_7","capacity":10000,"empty":2442,"full":200,"shortage":0,"booking":18,"fulfillment":18,"port_name":"Montreal","position":{"lat":45.516136,"lng":-73.65683},"status":"surplus"},{"frame_index":733,"name":"ports_8","capacity":10000,"empty":12339,"full":127,"shortage":0,"booking":35,"fulfillment":35,"port_name":"New York","position":{"lat":40.73061,"lng":-73.935242},"status":"surplus"},{"frame_index":733,"name":"ports_9","capacity":10000,"empty":437,"full":669,"shortage":0,"booking":33,"fulfillment":33,"port_name":"Oakland","position":{"lat":37.804363,"lng":-122.271111},"status":"surplus"},{"frame_index":733,"name":"ports_10","capacity":10000,"empty":2346,"full":638,"shortage":0,"booking":17,"fulfillment":17,"port_name":"Prince Rupert","position":{"lat":54.312519,"lng":-130.305405},"status":"surplus"},{"frame_index":733,"name":"ports_11","capacity":10000,"empty":0,"full":1222,"shortage":75,"booking":75,"fulfillment":0,"port_name":"Pusan","position":{"lat":35.166668,"lng":129.066666},"status":"demand"},{"frame_index":733,"name":"ports_12","capacity":10000,"empty":1064,"full":1289,"shortage":0,"booking":86,"fulfillment":86,"port_name":"Qingdao","position":{"lat":36.066898,"lng":120.382698},"status":"surplus"},{"frame_index":733,"name":"ports_13","capacity":10000,"empty":5751,"full":318,"shortage":0,"booking":12,"fulfillment":12,"port_name":"San Antonio","position":{"lat":29.424349,"lng":-98.491142},"status":"surplus"},{"frame_index":733,"name":"ports_14","capacity":10000,"empty":268,"full":377,"shortage":0,"booking":12,"fulfillment":12,"port_name":"Santos","position":{"lat":-23.96083,"lng":-46.33361},"status":"surplus"},{"frame_index":733,"name":"ports_15","capacity":10000,"empty":0,"full":1267,"shortage":82,"booking":82,"fulfillment":0,"port_name":"Seattle","position":{"lat":47.608013,"lng":-122.335167},"status":"demand"},{"frame_index":733,"name":"ports_16","capacity":10000,"empty":0,"full":1867,"shortage":92,"booking":130,"fulfillment":38,"port_name":"Shanghai","position":{"lat":31.224361,"lng":121.46917},"status":"demand"},{"frame_index":733,"name":"ports_17","capacity":10000,"empty":0,"full":288,"shortage":49,"booking":49,"fulfillment":0,"port_name":"Singapore","position":{"lat":1.29027,"lng":103.851959},"status":"demand"},{"frame_index":733,"name":"ports_18","capacity":10000,"empty":0,"full":116,"shortage":17,"booking":17,"fulfillment":0,"port_name":"Sydney","position":{"lat":-33.865143,"lng":151.2099},"status":"demand"},{"frame_index":733,"name":"ports_19","capacity":10000,"empty":88,"full":215,"shortage":0,"booking":25,"fulfillment":25,"port_name":"Vancouver","position":{"lat":49.246292,"lng":-123.116226},"status":"balance"},{"frame_index":733,"name":"ports_20","capacity":10000,"empty":453,"full":1109,"shortage":0,"booking":80,"fulfillment":80,"port_name":"Yantian","position":{"lat":26.8533,"lng":119.8575},"status":"surplus"},{"frame_index":733,"name":"ports_21","capacity":10000,"empty":0,"full":208,"shortage":83,"booking":83,"fulfillment":0,"port_name":"Yokohama","position":{"lat":35.443707,"lng":139.638031},"status":"demand"}]