[{"frame_index":540,"name":"ports_0","capacity":10000,"empty":4605,"full":3756,"shortage":0,"booking":45,"fulfillment":45,"port_name":"Bremerhaven","position":{"lat":53.549999,"lng":8.583333},"status":"surplus"},{"frame_index":540,"name":"ports_1","capacity":10000,"empty":225,"full":109,"shortage":0,"booking":3,"fulfillment":3,"port_name":"Durban","position":{"lat":-29.8579,"lng":31.0292},"status":"surplus"},{"frame_index":540,"name":"ports_2","capacity":10000,"empty":90,"full":500,"shortage":0,"booking":3,"fulfillment":3,"port_name":"Itagual","position":{"lat":-22.85222,"lng":-43.77528},"status":"surplus"},{"frame_index":540,"name":"ports_3","capacity":10000,"empty":349,"full":957,"shortage":0,"booking":17,"fulfillment":17,"port_name":"LeHavre","position":{"lat":49.490002,"lng":0.1},"status":"surplus"},{"frame_index":540,"name":"ports_4","capacity":10000,"empty":3383,"full":368,"shortage":0,"booking":14,"fulfillment":14,"port_name":"Los Angeles","position":{"lat":34.052235,"lng":-118.243683},"status":"surplus"},{"frame_index":540,"name":"ports_5","capacity":10000,"empty":0,"full":113,"shortage":14,"booking":14,"fulfillment":0,"port_name":"Manzanillo","position":{"lat":19.11695,"lng":-104.34214},"status":"demand"},{"frame_index":540,"name":"ports_6","capacity":10000,"empty":0,"full":401,"shortage":5,"booking":5,"fulfillment":0,"port_name":"Melbourne","position":{"lat":-37.840935,"lng":144.946457},"status":"balance"},{"frame_index":540,"name":"ports_7","capacity":10000,"empty":2370,"full":191,"shortage":0,"booking":4,"fulfillment":4,"port_name":"Montreal","position":{"lat":45.516136,"lng":-73.65683},"status":"surplus"},{"frame_index":540,"name":"ports_8","capacity":10000,"empty":9690,"full":36,"shortage":0,"booking":8,"fulfillment":8,"port_name":"New York","position":{"lat":40.73061,"lng":-73.935242},"status":"surplus"},{"frame_index":540,"name":"ports_9","capacity":10000,"empty":3628,"full":1702,"shortage":0,"booking":7,"fulfillment":7,"port_name":"Oakland","position":{"lat":37.804363,"lng":-122.271111},"status":"surplus"},{"frame_index":540,"name":"ports_10","capacity":10000,"empty":1043,"full":432,"shortage":0,"booking":5,"fulfillment":5,"port_name":"Prince Rupert","position":{"lat":54.312519,"lng":-130.305405},"status":"surplus"},{"frame_index":540,"name":"ports_11","capacity":10000,"empty":0,"full":850,"shortage":16,"booking":16,"fulfillment":0,"port_name":"Pusan","position":{"lat":35.166668,"lng":129.066666},"status":"demand"},{"frame_index":540,"name":"ports_12","capacity":10000,"empty":2261,"full":498,"shortage":0,"booking":22,"fulfillment":22,"port_name":"Qingdao","position":{"lat":36.066898,"lng":120.382698},"status":"surplus"},{"frame_index":540,"name":"ports_13","capacity":10000,"empty":2,"full":154,"shortage":0,"booking":3,"fulfillment":3,"port_name":"San Antonio","position":{"lat":29.424349,"lng":-98.491142},"status":"balance"},{"frame_index":540,"name":"ports_14","capacity":10000,"empty":247,"full":348,"shortage":0,"booking":3,"fulfillment":3,"port_name":"Santos","position":{"lat":-23.96083,"lng":-46.33361},"status":"surplus"},{"frame_index":540,"name":"ports_15","capacity":10000,"empty":5,"full":1042,"shortage":0,"booking":19,"fulfillment":19,"port_name":"Seattle","position":{"lat":47.608013,"lng":-122.335167},"status":"demand"},{"frame_index":540,"name":"ports_16","capacity":10000,"empty":0,"full":1128,"shortage":4,"booking":28,"fulfillment":24,"port_name":"Shanghai","position":{"lat":31.224361,"lng":121.46917},"status":"demand"},{"frame_index":540,"name":"ports_17","capacity":10000,"empty":145,"full":462,"shortage":0,"booking":11,"fulfillment":11,"port_name":"Singapore","position":{"lat":1.29027,"lng":103.851959},"status":"surplus"},{"frame_index":540,"name":"ports_18","capacity":10000,"empty":0,"full":146,"shortage":4,"booking":4,"fulfillment":0,"port_name":"Sydney","position":{"lat":-33.865143,"lng":151.2099},"status":"balance"},{"frame_index":540,"name":"ports_19","capacity":10000,"empty":153,"full":168,"shortage":0,"booking":6,"fulfillment":6,"port_name":"Vancouver","position":{"lat":49.246292,"lng":-123.116226},"status":"surplus"},{"frame_index":540,"name":"ports_20","capacity":10000,"empty":0,"full":972,"shortage":3,"booking":19,"fulfillment":16,"port_name":"Yantian","position":{"lat":26.8533,"lng":119.8575},"status":"demand"},{"frame_index":540,"name":"ports_21","capacity":10000,"empty":432,"full":958,"shortage":0,"booking":13,"fulfillment":13,"port_name":"Yokohama","position":{"lat":35.443707,"lng":139.638031},"status":"surplus"}]