[{"frame_index":275,"name":"ports_0","capacity":10000,"empty":1751,"full":2136,"shortage":0,"booking":138,"fulfillment":138,"port_name":"Bremerhaven","position":{"lat":53.549999,"lng":8.583333},"status":"surplus"},{"frame_index":275,"name":"ports_1","capacity":10000,"empty":1076,"full":72,"shortage":0,"booking":8,"fulfillment":8,"port_name":"Durban","position":{"lat":-29.8579,"lng":31.0292},"status":"surplus"},{"frame_index":275,"name":"ports_2","capacity":10000,"empty":85,"full":5,"shortage":0,"booking":7,"fulfillment":7,"port_name":"Itagual","position":{"lat":-22.85222,"lng":-43.77528},"status":"balance"},{"frame_index":275,"name":"ports_3","capacity":10000,"empty":1262,"full":1326,"shortage":0,"booking":46,"fulfillment":46,"port_name":"LeHavre","position":{"lat":49.490002,"lng":0.1},"status":"surplus"},{"frame_index":275,"name":"ports_4","capacity":10000,"empty":1950,"full":536,"shortage":0,"booking":39,"fulfillment":39,"port_name":"Los Angeles","position":{"lat":34.052235,"lng":-118.243683},"status":"surplus"},{"frame_index":275,"name":"ports_5","capacity":10000,"empty":0,"full":941,"shortage":39,"booking":39,"fulfillment":0,"port_name":"Manzanillo","position":{"lat":19.11695,"lng":-104.34214},"status":"demand"},{"frame_index":275,"name":"ports_6","capacity":10000,"empty":0,"full":288,"shortage":12,"booking":12,"fulfillment":0,"port_name":"Melbourne","position":{"lat":-37.840935,"lng":144.946457},"status":"demand"},{"frame_index":275,"name":"ports_7","capacity":10000,"empty":689,"full":279,"shortage":0,"booking":12,"fulfillment":12,"port_name":"Montreal","position":{"lat":45.516136,"lng":-73.65683},"status":"surplus"},{"frame_index":275,"name":"ports_8","capacity":10000,"empty":4585,"full":0,"shortage":0,"booking":23,"fulfillment":23,"port_name":"New York","position":{"lat":40.73061,"lng":-73.935242},"status":"surplus"},{"frame_index":275,"name":"ports_9","capacity":10000,"empty":397,"full":1256,"shortage":0,"booking":22,"fulfillment":22,"port_name":"Oakland","position":{"lat":37.804363,"lng":-122.271111},"status":"surplus"},{"frame_index":275,"name":"ports_10","capacity":10000,"empty":2279,"full":344,"shortage":0,"booking":13,"fulfillment":13,"port_name":"Prince Rupert","position":{"lat":54.312519,"lng":-130.305405},"status":"surplus"},{"frame_index":275,"name":"ports_11","capacity":10000,"empty":1640,"full":676,"shortage":0,"booking":46,"fulfillment":46,"port_name":"Pusan","position":{"lat":35.166668,"lng":129.066666},"status":"surplus"},{"frame_index":275,"name":"ports_12","capacity":10000,"empty":299,"full":1453,"shortage":0,"booking":54,"fulfillment":54,"port_name":"Qingdao","position":{"lat":36.066898,"lng":120.382698},"status":"balance"},{"frame_index":275,"name":"ports_13","capacity":10000,"empty":0,"full":261,"shortage":8,"booking":8,"fulfillment":0,"port_name":"San Antonio","position":{"lat":29.424349,"lng":-98.491142},"status":"balance"},{"frame_index":275,"name":"ports_14","capacity":10000,"empty":866,"full":203,"shortage":0,"booking":8,"fulfillment":8,"port_name":"Santos","position":{"lat":-23.96083,"lng":-46.33361},"status":"surplus"},{"frame_index":275,"name":"ports_15","capacity":10000,"empty":1023,"full":1111,"shortage":0,"booking":53,"fulfillment":53,"port_name":"Seattle","position":{"lat":47.608013,"lng":-122.335167},"status":"surplus"},{"frame_index":275,"name":"ports_16","capacity":10000,"empty":193,"full":1432,"shortage":0,"booking":71,"fulfillment":71,"port_name":"Shanghai","position":{"lat":31.224361,"lng":121.46917},"status":"demand"},{"frame_index":275,"name":"ports_17","capacity":10000,"empty":0,"full":525,"shortage":31,"booking":31,"fulfillment":0,"port_name":"Singapore","position":{"lat":1.29027,"lng":103.851959},"status":"demand"},{"frame_index":275,"name":"ports_18","capacity":10000,"empty":0,"full":162,"shortage":12,"booking":12,"fulfillment":0,"port_name":"Sydney","position":{"lat":-33.865143,"lng":151.2099},"status":"demand"},{"frame_index":275,"name":"ports_19","capacity":10000,"empty":567,"full":375,"shortage":0,"booking":15,"fulfillment":15,"port_name":"Vancouver","position":{"lat":49.246292,"lng":-123.116226},"status":"surplus"},{"frame_index":275,"name":"ports_20","capacity":10000,"empty":55,"full":444,"shortage":0,"booking":56,"fulfillment":56,"port_name":"Yantian","position":{"lat":26.8533,"lng":119.8575},"status":"demand"},{"frame_index":275,"name":"ports_21","capacity":10000,"empty":0,"full":13,"shortage":48,"booking":48,"fulfillment":0,"port_name":"Yokohama","position":{"lat":35.443707,"lng":139.638031},"status":"demand"}]