[{"frame_index":914,"name":"ports_0","capacity":10000,"empty":0,"full":1224,"shortage":48,"booking":100,"fulfillment":52,"port_name":"Bremerhaven","position":{"lat":53.549999,"lng":8.583333},"status":"demand"},{"frame_index":914,"name":"ports_1","capacity":10000,"empty":455,"full":53,"shortage":0,"booking":8,"fulfillment":8,"port_name":"Durban","position":{"lat":-29.8579,"lng":31.0292},"status":"surplus"},{"frame_index":914,"name":"ports_2","capacity":10000,"empty":922,"full":28,"shortage":0,"booking":7,"fulfillment":7,"port_name":"Itagual","position":{"lat":-22.85222,"lng":-43.77528},"status":"surplus"},{"frame_index":914,"name":"ports_3","capacity":10000,"empty":2190,"full":1085,"shortage":0,"booking":46,"fulfillment":46,"port_name":"LeHavre","position":{"lat":49.490002,"lng":0.1},"status":"surplus"},{"frame_index":914,"name":"ports_4","capacity":10000,"empty":94,"full":290,"shortage":0,"booking":39,"fulfillment":39,"port_name":"Los Angeles","position":{"lat":34.052235,"lng":-118.243683},"status":"demand"},{"frame_index":914,"name":"ports_5","capacity":10000,"empty":826,"full":135,"shortage":0,"booking":43,"fulfillment":43,"port_name":"Manzanillo","position":{"lat":19.11695,"lng":-104.34214},"status":"surplus"},{"frame_index":914,"name":"ports_6","capacity":10000,"empty":225,"full":32,"shortage":0,"booking":12,"fulfillment":12,"port_name":"Melbourne","position":{"lat":-37.840935,"lng":144.946457},"status":"surplus"},{"frame_index":914,"name":"ports_7","capacity":10000,"empty":2251,"full":65,"shortage":0,"booking":12,"fulfillment":12,"port_name":"Montreal","position":{"lat":45.516136,"lng":-73.65683},"status":"surplus"},{"frame_index":914,"name":"ports_8","capacity":10000,"empty":13881,"full":72,"shortage":0,"booking":24,"fulfillment":24,"port_name":"New York","position":{"lat":40.73061,"lng":-73.935242},"status":"surplus"},{"frame_index":914,"name":"ports_9","capacity":10000,"empty":1766,"full":182,"shortage":0,"booking":25,"fulfillment":25,"port_name":"Oakland","position":{"lat":37.804363,"lng":-122.271111},"status":"surplus"},{"frame_index":914,"name":"ports_10","capacity":10000,"empty":3559,"full":178,"shortage":0,"booking":14,"fulfillment":14,"port_name":"Prince Rupert","position":{"lat":54.312519,"lng":-130.305405},"status":"surplus"},{"frame_index":914,"name":"ports_11","capacity":10000,"empty":355,"full":101,"shortage":0,"booking":48,"fulfillment":48,"port_name":"Pusan","position":{"lat":35.166668,"lng":129.066666},"status":"surplus"},{"frame_index":914,"name":"ports_12","capacity":10000,"empty":1456,"full":270,"shortage":0,"booking":65,"fulfillment":65,"port_name":"Qingdao","position":{"lat":36.066898,"lng":120.382698},"status":"surplus"},{"frame_index":914,"name":"ports_13","capacity":10000,"empty":465,"full":11,"shortage":0,"booking":9,"fulfillment":9,"port_name":"San Antonio","position":{"lat":29.424349,"lng":-98.491142},"status":"surplus"},{"frame_index":914,"name":"ports_14","capacity":10000,"empty":580,"full":73,"shortage":0,"booking":9,"fulfillment":9,"port_name":"Santos","position":{"lat":-23.96083,"lng":-46.33361},"status":"surplus"},{"frame_index":914,"name":"ports_15","capacity":10000,"empty":2121,"full":621,"shortage":0,"booking":53,"fulfillment":53,"port_name":"Seattle","position":{"lat":47.608013,"lng":-122.335167},"status":"surplus"},{"frame_index":914,"name":"ports_16","capacity":10000,"empty":872,"full":2203,"shortage":0,"booking":64,"fulfillment":64,"port_name":"Shanghai","position":{"lat":31.224361,"lng":121.46917},"status":"surplus"},{"frame_index":914,"name":"ports_17","capacity":10000,"empty":2861,"full":322,"shortage":0,"booking":31,"fulfillment":31,"port_name":"Singapore","position":{"lat":1.29027,"lng":103.851959},"status":"surplus"},{"frame_index":914,"name":"ports_18","capacity":10000,"empty":7,"full":183,"shortage":0,"booking":10,"fulfillment":10,"port_name":"Sydney","position":{"lat":-33.865143,"lng":151.2099},"status":"balance"},{"frame_index":914,"name":"ports_19","capacity":10000,"empty":186,"full":210,"shortage":0,"booking":15,"fulfillment":15,"port_name":"Vancouver","position":{"lat":49.246292,"lng":-123.116226},"status":"surplus"},{"frame_index":914,"name":"ports_20","capacity":10000,"empty":354,"full":1169,"shortage":0,"booking":58,"fulfillment":58,"port_name":"Yantian","position":{"lat":26.8533,"lng":119.8575},"status":"surplus"},{"frame_index":914,"name":"ports_21","capacity":10000,"empty":5,"full":377,"shortage":0,"booking":49,"fulfillment":49,"port_name":"Yokohama","position":{"lat":35.443707,"lng":139.638031},"status":"demand"}]