[{"frame_index":29,"name":"ports_0","capacity":10000,"empty":13797,"full":960,"shortage":0,"booking":176,"fulfillment":176,"port_name":"Bremerhaven","position":{"lat":53.549999,"lng":8.583333},"status":"surplus"},{"frame_index":29,"name":"ports_1","capacity":10000,"empty":983,"full":57,"shortage":0,"booking":12,"fulfillment":12,"port_name":"Durban","position":{"lat":-29.8579,"lng":31.0292},"status":"surplus"},{"frame_index":29,"name":"ports_2","capacity":10000,"empty":688,"full":33,"shortage":0,"booking":13,"fulfillment":13,"port_name":"Itagual","position":{"lat":-22.85222,"lng":-43.77528},"status":"surplus"},{"frame_index":29,"name":"ports_3","capacity":10000,"empty":0,"full":53,"shortage":76,"booking":76,"fulfillment":0,"port_name":"LeHavre","position":{"lat":49.490002,"lng":0.1},"status":"demand"},{"frame_index":29,"name":"ports_4","capacity":10000,"empty":190,"full":167,"shortage":0,"booking":62,"fulfillment":62,"port_name":"Los Angeles","position":{"lat":34.052235,"lng":-118.243683},"status":"demand"},{"frame_index":29,"name":"ports_5","capacity":10000,"empty":4282,"full":184,"shortage":0,"booking":54,"fulfillment":54,"port_name":"Manzanillo","position":{"lat":19.11695,"lng":-104.34214},"status":"surplus"},{"frame_index":29,"name":"ports_6","capacity":10000,"empty":1037,"full":77,"shortage":0,"booking":19,"fulfillment":19,"port_name":"Melbourne","position":{"lat":-37.840935,"lng":144.946457},"status":"surplus"},{"frame_index":29,"name":"ports_7","capacity":10000,"empty":1191,"full":0,"shortage":0,"booking":19,"fulfillment":19,"port_name":"Montreal","position":{"lat":45.516136,"lng":-73.65683},"status":"surplus"},{"frame_index":29,"name":"ports_8","capacity":10000,"empty":2569,"full":363,"shortage":0,"booking":37,"fulfillment":37,"port_name":"New York","position":{"lat":40.73061,"lng":-73.935242},"status":"surplus"},{"frame_index":29,"name":"ports_9","capacity":10000,"empty":2562,"full":390,"shortage":0,"booking":35,"fulfillment":35,"port_name":"Oakland","position":{"lat":37.804363,"lng":-122.271111},"status":"surplus"},{"frame_index":29,"name":"ports_10","capacity":10000,"empty":1280,"full":191,"shortage":0,"booking":19,"fulfillment":19,"port_name":"Prince Rupert","position":{"lat":54.312519,"lng":-130.305405},"status":"surplus"},{"frame_index":29,"name":"ports_11","capacity":10000,"empty":2948,"full":389,"shortage":0,"booking":72,"fulfillment":72,"port_name":"Pusan","position":{"lat":35.166668,"lng":129.066666},"status":"surplus"},{"frame_index":29,"name":"ports_12","capacity":10000,"empty":0,"full":637,"shortage":54,"booking":98,"fulfillment":44,"port_name":"Qingdao","position":{"lat":36.066898,"lng":120.382698},"status":"demand"},{"frame_index":29,"name":"ports_13","capacity":10000,"empty":846,"full":137,"shortage":0,"booking":14,"fulfillment":14,"port_name":"San Antonio","position":{"lat":29.424349,"lng":-98.491142},"status":"surplus"},{"frame_index":29,"name":"ports_14","capacity":10000,"empty":843,"full":139,"shortage":0,"booking":12,"fulfillment":12,"port_name":"Santos","position":{"lat":-23.96083,"lng":-46.33361},"status":"surplus"},{"frame_index":29,"name":"ports_15","capacity":10000,"empty":4995,"full":730,"shortage":0,"booking":87,"fulfillment":87,"port_name":"Seattle","position":{"lat":47.608013,"lng":-122.335167},"status":"surplus"},{"frame_index":29,"name":"ports_16","capacity":10000,"empty":5334,"full":873,"shortage":0,"booking":141,"fulfillment":141,"port_name":"Shanghai","position":{"lat":31.224361,"lng":121.46917},"status":"surplus"},{"frame_index":29,"name":"ports_17","capacity":10000,"empty":216,"full":53,"shortage":0,"booking":51,"fulfillment":51,"port_name":"Singapore","position":{"lat":1.29027,"lng":103.851959},"status":"balance"},{"frame_index":29,"name":"ports_18","capacity":10000,"empty":1276,"full":193,"shortage":0,"booking":22,"fulfillment":22,"port_name":"Sydney","position":{"lat":-33.865143,"lng":151.2099},"status":"surplus"},{"frame_index":29,"name":"ports_19","capacity":10000,"empty":0,"full":40,"shortage":24,"booking":24,"fulfillment":0,"port_name":"Vancouver","position":{"lat":49.246292,"lng":-123.116226},"status":"demand"},{"frame_index":29,"name":"ports_20","capacity":10000,"empty":431,"full":404,"shortage":0,"booking":88,"fulfillment":88,"port_name":"Yantian","position":{"lat":26.8533,"lng":119.8575},"status":"balance"},{"frame_index":29,"name":"ports_21","capacity":10000,"empty":7186,"full":697,"shortage":0,"booking":89,"fulfillment":89,"port_name":"Yokohama","position":{"lat":35.443707,"lng":139.638031},"status":"surplus"}]