[{"frame_index":487,"name":"ports_0","capacity":10000,"empty":4685,"full":2285,"shortage":0,"booking":161,"fulfillment":161,"port_name":"Bremerhaven","position":{"lat":53.549999,"lng":8.583333},"status":"surplus"},{"frame_index":487,"name":"ports_1","capacity":10000,"empty":602,"full":317,"shortage":0,"booking":11,"fulfillment":11,"port_name":"Durban","position":{"lat":-29.8579,"lng":31.0292},"status":"surplus"},{"frame_index":487,"name":"ports_2","capacity":10000,"empty":452,"full":170,"shortage":0,"booking":11,"fulfillment":11,"port_name":"Itagual","position":{"lat":-22.85222,"lng":-43.77528},"status":"surplus"},{"frame_index":487,"name":"ports_3","capacity":10000,"empty":1021,"full":601,"shortage":0,"booking":68,"fulfillment":68,"port_name":"LeHavre","position":{"lat":49.490002,"lng":0.1},"status":"surplus"},{"frame_index":487,"name":"ports_4","capacity":10000,"empty":599,"full":597,"shortage":0,"booking":57,"fulfillment":57,"port_name":"Los Angeles","position":{"lat":34.052235,"lng":-118.243683},"status":"surplus"},{"frame_index":487,"name":"ports_5","capacity":10000,"empty":1252,"full":20,"shortage":0,"booking":64,"fulfillment":64,"port_name":"Manzanillo","position":{"lat":19.11695,"lng":-104.34214},"status":"surplus"},{"frame_index":487,"name":"ports_6","capacity":10000,"empty":319,"full":152,"shortage":0,"booking":18,"fulfillment":18,"port_name":"Melbourne","position":{"lat":-37.840935,"lng":144.946457},"status":"surplus"},{"frame_index":487,"name":"ports_7","capacity":10000,"empty":2872,"full":34,"shortage":0,"booking":18,"fulfillment":18,"port_name":"Montreal","position":{"lat":45.516136,"lng":-73.65683},"status":"surplus"},{"frame_index":487,"name":"ports_8","capacity":10000,"empty":7386,"full":265,"shortage":0,"booking":38,"fulfillment":38,"port_name":"New York","position":{"lat":40.73061,"lng":-73.935242},"status":"surplus"},{"frame_index":487,"name":"ports_9","capacity":10000,"empty":2796,"full":476,"shortage":0,"booking":31,"fulfillment":31,"port_name":"Oakland","position":{"lat":37.804363,"lng":-122.271111},"status":"surplus"},{"frame_index":487,"name":"ports_10","capacity":10000,"empty":2958,"full":361,"shortage":0,"booking":18,"fulfillment":18,"port_name":"Prince Rupert","position":{"lat":54.312519,"lng":-130.305405},"status":"surplus"},{"frame_index":487,"name":"ports_11","capacity":10000,"empty":17,"full":499,"shortage":0,"booking":66,"fulfillment":66,"port_name":"Pusan","position":{"lat":35.166668,"lng":129.066666},"status":"demand"},{"frame_index":487,"name":"ports_12","capacity":10000,"empty":3241,"full":935,"shortage":0,"booking":82,"fulfillment":82,"port_name":"Qingdao","position":{"lat":36.066898,"lng":120.382698},"status":"surplus"},{"frame_index":487,"name":"ports_13","capacity":10000,"empty":395,"full":42,"shortage":0,"booking":12,"fulfillment":12,"port_name":"San Antonio","position":{"lat":29.424349,"lng":-98.491142},"status":"surplus"},{"frame_index":487,"name":"ports_14","capacity":10000,"empty":96,"full":232,"shortage":0,"booking":11,"fulfillment":11,"port_name":"Santos","position":{"lat":-23.96083,"lng":-46.33361},"status":"balance"},{"frame_index":487,"name":"ports_15","capacity":10000,"empty":447,"full":246,"shortage":0,"booking":81,"fulfillment":81,"port_name":"Seattle","position":{"lat":47.608013,"lng":-122.335167},"status":"balance"},{"frame_index":487,"name":"ports_16","capacity":10000,"empty":0,"full":861,"shortage":121,"booking":121,"fulfillment":0,"port_name":"Shanghai","position":{"lat":31.224361,"lng":121.46917},"status":"demand"},{"frame_index":487,"name":"ports_17","capacity":10000,"empty":200,"full":251,"shortage":0,"booking":47,"fulfillment":47,"port_name":"Singapore","position":{"lat":1.29027,"lng":103.851959},"status":"balance"},{"frame_index":487,"name":"ports_18","capacity":10000,"empty":0,"full":237,"shortage":17,"booking":17,"fulfillment":0,"port_name":"Sydney","position":{"lat":-33.865143,"lng":151.2099},"status":"demand"},{"frame_index":487,"name":"ports_19","capacity":10000,"empty":350,"full":255,"shortage":0,"booking":25,"fulfillment":25,"port_name":"Vancouver","position":{"lat":49.246292,"lng":-123.116226},"status":"surplus"},{"frame_index":487,"name":"ports_20","capacity":10000,"empty":194,"full":483,"shortage":0,"booking":75,"fulfillment":75,"port_name":"Yantian","position":{"lat":26.8533,"lng":119.8575},"status":"demand"},{"frame_index":487,"name":"ports_21","capacity":10000,"empty":400,"full":532,"shortage":0,"booking":84,"fulfillment":84,"port_name":"Yokohama","position":{"lat":35.443707,"lng":139.638031},"status":"balance"}]