[{"frame_index":67,"name":"ports_0","capacity":10000,"empty":7449,"full":1707,"shortage":0,"booking":211,"fulfillment":211,"port_name":"Bremerhaven","position":{"lat":53.549999,"lng":8.583333},"status":"surplus"},{"frame_index":67,"name":"ports_1","capacity":10000,"empty":573,"full":366,"shortage":0,"booking":12,"fulfillment":12,"port_name":"Durban","position":{"lat":-29.8579,"lng":31.0292},"status":"surplus"},{"frame_index":67,"name":"ports_2","capacity":10000,"empty":305,"full":229,"shortage":0,"booking":13,"fulfillment":13,"port_name":"Itagual","position":{"lat":-22.85222,"lng":-43.77528},"status":"surplus"},{"frame_index":67,"name":"ports_3","capacity":10000,"empty":1355,"full":464,"shortage":0,"booking":80,"fulfillment":80,"port_name":"LeHavre","position":{"lat":49.490002,"lng":0.1},"status":"surplus"},{"frame_index":67,"name":"ports_4","capacity":10000,"empty":0,"full":432,"shortage":67,"booking":67,"fulfillment":0,"port_name":"Los Angeles","position":{"lat":34.052235,"lng":-118.243683},"status":"demand"},{"frame_index":67,"name":"ports_5","capacity":10000,"empty":2212,"full":835,"shortage":0,"booking":68,"fulfillment":68,"port_name":"Manzanillo","position":{"lat":19.11695,"lng":-104.34214},"status":"surplus"},{"frame_index":67,"name":"ports_6","capacity":10000,"empty":44,"full":378,"shortage":0,"booking":20,"fulfillment":20,"port_name":"Melbourne","position":{"lat":-37.840935,"lng":144.946457},"status":"demand"},{"frame_index":67,"name":"ports_7","capacity":10000,"empty":929,"full":89,"shortage":0,"booking":20,"fulfillment":20,"port_name":"Montreal","position":{"lat":45.516136,"lng":-73.65683},"status":"surplus"},{"frame_index":67,"name":"ports_8","capacity":10000,"empty":1654,"full":615,"shortage":0,"booking":43,"fulfillment":43,"port_name":"New York","position":{"lat":40.73061,"lng":-73.935242},"status":"surplus"},{"frame_index":67,"name":"ports_9","capacity":10000,"empty":552,"full":959,"shortage":0,"booking":36,"fulfillment":36,"port_name":"Oakland","position":{"lat":37.804363,"lng":-122.271111},"status":"surplus"},{"frame_index":67,"name":"ports_10","capacity":10000,"empty":370,"full":324,"shortage":0,"booking":20,"fulfillment":20,"port_name":"Prince Rupert","position":{"lat":54.312519,"lng":-130.305405},"status":"surplus"},{"frame_index":67,"name":"ports_11","capacity":10000,"empty":2775,"full":2271,"shortage":0,"booking":80,"fulfillment":80,"port_name":"Pusan","position":{"lat":35.166668,"lng":129.066666},"status":"surplus"},{"frame_index":67,"name":"ports_12","capacity":10000,"empty":437,"full":661,"shortage":0,"booking":118,"fulfillment":118,"port_name":"Qingdao","position":{"lat":36.066898,"lng":120.382698},"status":"demand"},{"frame_index":67,"name":"ports_13","capacity":10000,"empty":0,"full":38,"shortage":14,"booking":14,"fulfillment":0,"port_name":"San Antonio","position":{"lat":29.424349,"lng":-98.491142},"status":"demand"},{"frame_index":67,"name":"ports_14","capacity":10000,"empty":414,"full":38,"shortage":0,"booking":13,"fulfillment":13,"port_name":"Santos","position":{"lat":-23.96083,"lng":-46.33361},"status":"surplus"},{"frame_index":67,"name":"ports_15","capacity":10000,"empty":3916,"full":2152,"shortage":0,"booking":97,"fulfillment":97,"port_name":"Seattle","position":{"lat":47.608013,"lng":-122.335167},"status":"surplus"},{"frame_index":67,"name":"ports_16","capacity":10000,"empty":0,"full":670,"shortage":133,"booking":133,"fulfillment":0,"port_name":"Shanghai","position":{"lat":31.224361,"lng":121.46917},"status":"demand"},{"frame_index":67,"name":"ports_17","capacity":10000,"empty":2696,"full":417,"shortage":0,"booking":55,"fulfillment":55,"port_name":"Singapore","position":{"lat":1.29027,"lng":103.851959},"status":"surplus"},{"frame_index":67,"name":"ports_18","capacity":10000,"empty":386,"full":466,"shortage":0,"booking":21,"fulfillment":21,"port_name":"Sydney","position":{"lat":-33.865143,"lng":151.2099},"status":"surplus"},{"frame_index":67,"name":"ports_19","capacity":10000,"empty":0,"full":112,"shortage":9,"booking":27,"fulfillment":18,"port_name":"Vancouver","position":{"lat":49.246292,"lng":-123.116226},"status":"demand"},{"frame_index":67,"name":"ports_20","capacity":10000,"empty":0,"full":98,"shortage":95,"booking":95,"fulfillment":0,"port_name":"Yantian","position":{"lat":26.8533,"lng":119.8575},"status":"demand"},{"frame_index":67,"name":"ports_21","capacity":10000,"empty":531,"full":1437,"shortage":0,"booking":95,"fulfillment":95,"port_name":"Yokohama","position":{"lat":35.443707,"lng":139.638031},"status":"surplus"}]