[{"frame_index":627,"name":"ports_0","capacity":10000,"empty":3129,"full":2597,"shortage":0,"booking":169,"fulfillment":169,"port_name":"Bremerhaven","position":{"lat":53.549999,"lng":8.583333},"status":"surplus"},{"frame_index":627,"name":"ports_1","capacity":10000,"empty":39,"full":363,"shortage":0,"booking":11,"fulfillment":11,"port_name":"Durban","position":{"lat":-29.8579,"lng":31.0292},"status":"balance"},{"frame_index":627,"name":"ports_2","capacity":10000,"empty":627,"full":17,"shortage":0,"booking":11,"fulfillment":11,"port_name":"Itagual","position":{"lat":-22.85222,"lng":-43.77528},"status":"surplus"},{"frame_index":627,"name":"ports_3","capacity":10000,"empty":0,"full":784,"shortage":66,"booking":66,"fulfillment":0,"port_name":"LeHavre","position":{"lat":49.490002,"lng":0.1},"status":"demand"},{"frame_index":627,"name":"ports_4","capacity":10000,"empty":2526,"full":1395,"shortage":0,"booking":54,"fulfillment":54,"port_name":"Los Angeles","position":{"lat":34.052235,"lng":-118.243683},"status":"surplus"},{"frame_index":627,"name":"ports_5","capacity":10000,"empty":6,"full":636,"shortage":0,"booking":47,"fulfillment":47,"port_name":"Manzanillo","position":{"lat":19.11695,"lng":-104.34214},"status":"demand"},{"frame_index":627,"name":"ports_6","capacity":10000,"empty":212,"full":15,"shortage":0,"booking":17,"fulfillment":17,"port_name":"Melbourne","position":{"lat":-37.840935,"lng":144.946457},"status":"surplus"},{"frame_index":627,"name":"ports_7","capacity":10000,"empty":1783,"full":336,"shortage":0,"booking":17,"fulfillment":17,"port_name":"Montreal","position":{"lat":45.516136,"lng":-73.65683},"status":"surplus"},{"frame_index":627,"name":"ports_8","capacity":10000,"empty":9125,"full":977,"shortage":0,"booking":33,"fulfillment":33,"port_name":"New York","position":{"lat":40.73061,"lng":-73.935242},"status":"surplus"},{"frame_index":627,"name":"ports_9","capacity":10000,"empty":2200,"full":1190,"shortage":0,"booking":36,"fulfillment":36,"port_name":"Oakland","position":{"lat":37.804363,"lng":-122.271111},"status":"surplus"},{"frame_index":627,"name":"ports_10","capacity":10000,"empty":357,"full":337,"shortage":0,"booking":18,"fulfillment":18,"port_name":"Prince Rupert","position":{"lat":54.312519,"lng":-130.305405},"status":"surplus"},{"frame_index":627,"name":"ports_11","capacity":10000,"empty":3026,"full":389,"shortage":0,"booking":64,"fulfillment":64,"port_name":"Pusan","position":{"lat":35.166668,"lng":129.066666},"status":"surplus"},{"frame_index":627,"name":"ports_12","capacity":10000,"empty":0,"full":799,"shortage":26,"booking":91,"fulfillment":65,"port_name":"Qingdao","position":{"lat":36.066898,"lng":120.382698},"status":"demand"},{"frame_index":627,"name":"ports_13","capacity":10000,"empty":234,"full":29,"shortage":0,"booking":10,"fulfillment":10,"port_name":"San Antonio","position":{"lat":29.424349,"lng":-98.491142},"status":"surplus"},{"frame_index":627,"name":"ports_14","capacity":10000,"empty":315,"full":387,"shortage":0,"booking":9,"fulfillment":9,"port_name":"Santos","position":{"lat":-23.96083,"lng":-46.33361},"status":"surplus"},{"frame_index":627,"name":"ports_15","capacity":10000,"empty":0,"full":369,"shortage":76,"booking":76,"fulfillment":0,"port_name":"Seattle","position":{"lat":47.608013,"lng":-122.335167},"status":"demand"},{"frame_index":627,"name":"ports_16","capacity":10000,"empty":0,"full":953,"shortage":107,"booking":107,"fulfillment":0,"port_name":"Shanghai","position":{"lat":31.224361,"lng":121.46917},"status":"demand"},{"frame_index":627,"name":"ports_17","capacity":10000,"empty":547,"full":140,"shortage":0,"booking":45,"fulfillment":45,"port_name":"Singapore","position":{"lat":1.29027,"lng":103.851959},"status":"surplus"},{"frame_index":627,"name":"ports_18","capacity":10000,"empty":0,"full":174,"shortage":16,"booking":16,"fulfillment":0,"port_name":"Sydney","position":{"lat":-33.865143,"lng":151.2099},"status":"demand"},{"frame_index":627,"name":"ports_19","capacity":10000,"empty":0,"full":350,"shortage":24,"booking":24,"fulfillment":0,"port_name":"Vancouver","position":{"lat":49.246292,"lng":-123.116226},"status":"demand"},{"frame_index":627,"name":"ports_20","capacity":10000,"empty":0,"full":1039,"shortage":22,"booking":68,"fulfillment":46,"port_name":"Yantian","position":{"lat":26.8533,"lng":119.8575},"status":"demand"},{"frame_index":627,"name":"ports_21","capacity":10000,"empty":0,"full":796,"shortage":76,"booking":76,"fulfillment":0,"port_name":"Yokohama","position":{"lat":35.443707,"lng":139.638031},"status":"demand"}]