[{"frame_index":1057,"name":"ports_0","capacity":10000,"empty":0,"full":786,"shortage":130,"booking":130,"fulfillment":0,"port_name":"Bremerhaven","position":{"lat":53.549999,"lng":8.583333},"status":"demand"},{"frame_index":1057,"name":"ports_1","capacity":10000,"empty":275,"full":87,"shortage":0,"booking":8,"fulfillment":8,"port_name":"Durban","position":{"lat":-29.8579,"lng":31.0292},"status":"surplus"},{"frame_index":1057,"name":"ports_2","capacity":10000,"empty":355,"full":151,"shortage":0,"booking":9,"fulfillment":9,"port_name":"Itagual","position":{"lat":-22.85222,"lng":-43.77528},"status":"surplus"},{"frame_index":1057,"name":"ports_3","capacity":10000,"empty":0,"full":1237,"shortage":49,"booking":49,"fulfillment":0,"port_name":"LeHavre","position":{"lat":49.490002,"lng":0.1},"status":"demand"},{"frame_index":1057,"name":"ports_4","capacity":10000,"empty":145,"full":938,"shortage":0,"booking":42,"fulfillment":42,"port_name":"Los Angeles","position":{"lat":34.052235,"lng":-118.243683},"status":"demand"},{"frame_index":1057,"name":"ports_5","capacity":10000,"empty":747,"full":1049,"shortage":0,"booking":43,"fulfillment":43,"port_name":"Manzanillo","position":{"lat":19.11695,"lng":-104.34214},"status":"surplus"},{"frame_index":1057,"name":"ports_6","capacity":10000,"empty":108,"full":160,"shortage":0,"booking":13,"fulfillment":13,"port_name":"Melbourne","position":{"lat":-37.840935,"lng":144.946457},"status":"balance"},{"frame_index":1057,"name":"ports_7","capacity":10000,"empty":1873,"full":170,"shortage":0,"booking":13,"fulfillment":13,"port_name":"Montreal","position":{"lat":45.516136,"lng":-73.65683},"status":"surplus"},{"frame_index":1057,"name":"ports_8","capacity":10000,"empty":16190,"full":176,"shortage":0,"booking":25,"fulfillment":25,"port_name":"New York","position":{"lat":40.73061,"lng":-73.935242},"status":"surplus"},{"frame_index":1057,"name":"ports_9","capacity":10000,"empty":375,"full":0,"shortage":0,"booking":29,"fulfillment":29,"port_name":"Oakland","position":{"lat":37.804363,"lng":-122.271111},"status":"surplus"},{"frame_index":1057,"name":"ports_10","capacity":10000,"empty":1539,"full":28,"shortage":0,"booking":11,"fulfillment":11,"port_name":"Prince Rupert","position":{"lat":54.312519,"lng":-130.305405},"status":"surplus"},{"frame_index":1057,"name":"ports_11","capacity":10000,"empty":0,"full":1525,"shortage":49,"booking":49,"fulfillment":0,"port_name":"Pusan","position":{"lat":35.166668,"lng":129.066666},"status":"demand"},{"frame_index":1057,"name":"ports_12","capacity":10000,"empty":443,"full":1464,"shortage":0,"booking":72,"fulfillment":72,"port_name":"Qingdao","position":{"lat":36.066898,"lng":120.382698},"status":"surplus"},{"frame_index":1057,"name":"ports_13","capacity":10000,"empty":225,"full":113,"shortage":0,"booking":8,"fulfillment":8,"port_name":"San Antonio","position":{"lat":29.424349,"lng":-98.491142},"status":"surplus"},{"frame_index":1057,"name":"ports_14","capacity":10000,"empty":75,"full":340,"shortage":0,"booking":9,"fulfillment":9,"port_name":"Santos","position":{"lat":-23.96083,"lng":-46.33361},"status":"balance"},{"frame_index":1057,"name":"ports_15","capacity":10000,"empty":567,"full":647,"shortage":0,"booking":56,"fulfillment":56,"port_name":"Seattle","position":{"lat":47.608013,"lng":-122.335167},"status":"surplus"},{"frame_index":1057,"name":"ports_16","capacity":10000,"empty":0,"full":1425,"shortage":87,"booking":87,"fulfillment":0,"port_name":"Shanghai","position":{"lat":31.224361,"lng":121.46917},"status":"demand"},{"frame_index":1057,"name":"ports_17","capacity":10000,"empty":3,"full":587,"shortage":0,"booking":33,"fulfillment":33,"port_name":"Singapore","position":{"lat":1.29027,"lng":103.851959},"status":"demand"},{"frame_index":1057,"name":"ports_18","capacity":10000,"empty":0,"full":409,"shortage":13,"booking":13,"fulfillment":0,"port_name":"Sydney","position":{"lat":-33.865143,"lng":151.2099},"status":"demand"},{"frame_index":1057,"name":"ports_19","capacity":10000,"empty":227,"full":483,"shortage":0,"booking":18,"fulfillment":18,"port_name":"Vancouver","position":{"lat":49.246292,"lng":-123.116226},"status":"surplus"},{"frame_index":1057,"name":"ports_20","capacity":10000,"empty":0,"full":856,"shortage":23,"booking":54,"fulfillment":31,"port_name":"Yantian","position":{"lat":26.8533,"lng":119.8575},"status":"demand"},{"frame_index":1057,"name":"ports_21","capacity":10000,"empty":379,"full":393,"shortage":0,"booking":55,"fulfillment":55,"port_name":"Yokohama","position":{"lat":35.443707,"lng":139.638031},"status":"surplus"}]