[{"frame_index":606,"name":"ports_0","capacity":10000,"empty":601,"full":4774,"shortage":0,"booking":272,"fulfillment":272,"port_name":"Bremerhaven","position":{"lat":53.549999,"lng":8.583333},"status":"demand"},{"frame_index":606,"name":"ports_1","capacity":10000,"empty":280,"full":119,"shortage":0,"booking":16,"fulfillment":16,"port_name":"Durban","position":{"lat":-29.8579,"lng":31.0292},"status":"surplus"},{"frame_index":606,"name":"ports_2","capacity":10000,"empty":0,"full":268,"shortage":15,"booking":15,"fulfillment":0,"port_name":"Itagual","position":{"lat":-22.85222,"lng":-43.77528},"status":"demand"},{"frame_index":606,"name":"ports_3","capacity":10000,"empty":0,"full":274,"shortage":55,"booking":91,"fulfillment":36,"port_name":"LeHavre","position":{"lat":49.490002,"lng":0.1},"status":"demand"},{"frame_index":606,"name":"ports_4","capacity":10000,"empty":2251,"full":1412,"shortage":0,"booking":77,"fulfillment":77,"port_name":"Los Angeles","position":{"lat":34.052235,"lng":-118.243683},"status":"surplus"},{"frame_index":606,"name":"ports_5","capacity":10000,"empty":119,"full":649,"shortage":0,"booking":82,"fulfillment":82,"port_name":"Manzanillo","position":{"lat":19.11695,"lng":-104.34214},"status":"demand"},{"frame_index":606,"name":"ports_6","capacity":10000,"empty":0,"full":257,"shortage":23,"booking":23,"fulfillment":0,"port_name":"Melbourne","position":{"lat":-37.840935,"lng":144.946457},"status":"demand"},{"frame_index":606,"name":"ports_7","capacity":10000,"empty":2289,"full":295,"shortage":0,"booking":23,"fulfillment":23,"port_name":"Montreal","position":{"lat":45.516136,"lng":-73.65683},"status":"surplus"},{"frame_index":606,"name":"ports_8","capacity":10000,"empty":9853,"full":248,"shortage":0,"booking":44,"fulfillment":44,"port_name":"New York","position":{"lat":40.73061,"lng":-73.935242},"status":"surplus"},{"frame_index":606,"name":"ports_9","capacity":10000,"empty":2933,"full":440,"shortage":0,"booking":45,"fulfillment":45,"port_name":"Oakland","position":{"lat":37.804363,"lng":-122.271111},"status":"surplus"},{"frame_index":606,"name":"ports_10","capacity":10000,"empty":592,"full":272,"shortage":0,"booking":24,"fulfillment":24,"port_name":"Prince Rupert","position":{"lat":54.312519,"lng":-130.305405},"status":"surplus"},{"frame_index":606,"name":"ports_11","capacity":10000,"empty":0,"full":676,"shortage":92,"booking":92,"fulfillment":0,"port_name":"Pusan","position":{"lat":35.166668,"lng":129.066666},"status":"demand"},{"frame_index":606,"name":"ports_12","capacity":10000,"empty":110,"full":863,"shortage":0,"booking":107,"fulfillment":107,"port_name":"Qingdao","position":{"lat":36.066898,"lng":120.382698},"status":"demand"},{"frame_index":606,"name":"ports_13","capacity":10000,"empty":0,"full":174,"shortage":14,"booking":14,"fulfillment":0,"port_name":"San Antonio","position":{"lat":29.424349,"lng":-98.491142},"status":"demand"},{"frame_index":606,"name":"ports_14","capacity":10000,"empty":567,"full":117,"shortage":0,"booking":18,"fulfillment":18,"port_name":"Santos","position":{"lat":-23.96083,"lng":-46.33361},"status":"surplus"},{"frame_index":606,"name":"ports_15","capacity":10000,"empty":0,"full":369,"shortage":105,"booking":105,"fulfillment":0,"port_name":"Seattle","position":{"lat":47.608013,"lng":-122.335167},"status":"demand"},{"frame_index":606,"name":"ports_16","capacity":10000,"empty":0,"full":835,"shortage":111,"booking":134,"fulfillment":23,"port_name":"Shanghai","position":{"lat":31.224361,"lng":121.46917},"status":"demand"},{"frame_index":606,"name":"ports_17","capacity":10000,"empty":0,"full":372,"shortage":56,"booking":61,"fulfillment":5,"port_name":"Singapore","position":{"lat":1.29027,"lng":103.851959},"status":"demand"},{"frame_index":606,"name":"ports_18","capacity":10000,"empty":110,"full":137,"shortage":0,"booking":24,"fulfillment":24,"port_name":"Sydney","position":{"lat":-33.865143,"lng":151.2099},"status":"balance"},{"frame_index":606,"name":"ports_19","capacity":10000,"empty":385,"full":0,"shortage":29,"booking":29,"fulfillment":0,"port_name":"Vancouver","position":{"lat":49.246292,"lng":-123.116226},"status":"surplus"},{"frame_index":606,"name":"ports_20","capacity":10000,"empty":0,"full":669,"shortage":108,"booking":108,"fulfillment":0,"port_name":"Yantian","position":{"lat":26.8533,"lng":119.8575},"status":"demand"},{"frame_index":606,"name":"ports_21","capacity":10000,"empty":0,"full":23,"shortage":109,"booking":109,"fulfillment":0,"port_name":"Yokohama","position":{"lat":35.443707,"lng":139.638031},"status":"demand"}]