[{"frame_index":375,"name":"ports_0","capacity":10000,"empty":4759,"full":1930,"shortage":0,"booking":220,"fulfillment":220,"port_name":"Bremerhaven","position":{"lat":53.549999,"lng":8.583333},"status":"surplus"},{"frame_index":375,"name":"ports_1","capacity":10000,"empty":690,"full":249,"shortage":0,"booking":12,"fulfillment":12,"port_name":"Durban","position":{"lat":-29.8579,"lng":31.0292},"status":"surplus"},{"frame_index":375,"name":"ports_2","capacity":10000,"empty":590,"full":54,"shortage":0,"booking":12,"fulfillment":12,"port_name":"Itagual","position":{"lat":-22.85222,"lng":-43.77528},"status":"surplus"},{"frame_index":375,"name":"ports_3","capacity":10000,"empty":566,"full":824,"shortage":0,"booking":74,"fulfillment":74,"port_name":"LeHavre","position":{"lat":49.490002,"lng":0.1},"status":"surplus"},{"frame_index":375,"name":"ports_4","capacity":10000,"empty":0,"full":552,"shortage":49,"booking":62,"fulfillment":13,"port_name":"Los Angeles","position":{"lat":34.052235,"lng":-118.243683},"status":"demand"},{"frame_index":375,"name":"ports_5","capacity":10000,"empty":0,"full":64,"shortage":72,"booking":72,"fulfillment":0,"port_name":"Manzanillo","position":{"lat":19.11695,"lng":-104.34214},"status":"demand"},{"frame_index":375,"name":"ports_6","capacity":10000,"empty":0,"full":183,"shortage":20,"booking":20,"fulfillment":0,"port_name":"Melbourne","position":{"lat":-37.840935,"lng":144.946457},"status":"demand"},{"frame_index":375,"name":"ports_7","capacity":10000,"empty":1750,"full":151,"shortage":0,"booking":19,"fulfillment":19,"port_name":"Montreal","position":{"lat":45.516136,"lng":-73.65683},"status":"surplus"},{"frame_index":375,"name":"ports_8","capacity":10000,"empty":7032,"full":405,"shortage":0,"booking":39,"fulfillment":39,"port_name":"New York","position":{"lat":40.73061,"lng":-73.935242},"status":"surplus"},{"frame_index":375,"name":"ports_9","capacity":10000,"empty":3281,"full":32,"shortage":0,"booking":32,"fulfillment":32,"port_name":"Oakland","position":{"lat":37.804363,"lng":-122.271111},"status":"surplus"},{"frame_index":375,"name":"ports_10","capacity":10000,"empty":2881,"full":317,"shortage":0,"booking":21,"fulfillment":21,"port_name":"Prince Rupert","position":{"lat":54.312519,"lng":-130.305405},"status":"surplus"},{"frame_index":375,"name":"ports_11","capacity":10000,"empty":0,"full":701,"shortage":75,"booking":75,"fulfillment":0,"port_name":"Pusan","position":{"lat":35.166668,"lng":129.066666},"status":"demand"},{"frame_index":375,"name":"ports_12","capacity":10000,"empty":232,"full":1446,"shortage":0,"booking":91,"fulfillment":91,"port_name":"Qingdao","position":{"lat":36.066898,"lng":120.382698},"status":"demand"},{"frame_index":375,"name":"ports_13","capacity":10000,"empty":125,"full":0,"shortage":0,"booking":14,"fulfillment":14,"port_name":"San Antonio","position":{"lat":29.424349,"lng":-98.491142},"status":"surplus"},{"frame_index":375,"name":"ports_14","capacity":10000,"empty":1018,"full":246,"shortage":0,"booking":15,"fulfillment":15,"port_name":"Santos","position":{"lat":-23.96083,"lng":-46.33361},"status":"surplus"},{"frame_index":375,"name":"ports_15","capacity":10000,"empty":693,"full":516,"shortage":0,"booking":86,"fulfillment":86,"port_name":"Seattle","position":{"lat":47.608013,"lng":-122.335167},"status":"surplus"},{"frame_index":375,"name":"ports_16","capacity":10000,"empty":3251,"full":589,"shortage":0,"booking":121,"fulfillment":121,"port_name":"Shanghai","position":{"lat":31.224361,"lng":121.46917},"status":"surplus"},{"frame_index":375,"name":"ports_17","capacity":10000,"empty":318,"full":77,"shortage":0,"booking":51,"fulfillment":51,"port_name":"Singapore","position":{"lat":1.29027,"lng":103.851959},"status":"surplus"},{"frame_index":375,"name":"ports_18","capacity":10000,"empty":129,"full":75,"shortage":0,"booking":17,"fulfillment":17,"port_name":"Sydney","position":{"lat":-33.865143,"lng":151.2099},"status":"balance"},{"frame_index":375,"name":"ports_19","capacity":10000,"empty":933,"full":89,"shortage":0,"booking":25,"fulfillment":25,"port_name":"Vancouver","position":{"lat":49.246292,"lng":-123.116226},"status":"surplus"},{"frame_index":375,"name":"ports_20","capacity":10000,"empty":0,"full":669,"shortage":6,"booking":77,"fulfillment":71,"port_name":"Yantian","position":{"lat":26.8533,"lng":119.8575},"status":"demand"},{"frame_index":375,"name":"ports_21","capacity":10000,"empty":471,"full":69,"shortage":0,"booking":88,"fulfillment":88,"port_name":"Yokohama","position":{"lat":35.443707,"lng":139.638031},"status":"balance"}]