[{"frame_index":196,"name":"ports_0","capacity":10000,"empty":0,"full":1651,"shortage":40,"booking":155,"fulfillment":115,"port_name":"Bremerhaven","position":{"lat":53.549999,"lng":8.583333},"status":"demand"},{"frame_index":196,"name":"ports_1","capacity":10000,"empty":832,"full":65,"shortage":0,"booking":10,"fulfillment":10,"port_name":"Durban","position":{"lat":-29.8579,"lng":31.0292},"status":"surplus"},{"frame_index":196,"name":"ports_2","capacity":10000,"empty":35,"full":48,"shortage":0,"booking":12,"fulfillment":12,"port_name":"Itagual","position":{"lat":-22.85222,"lng":-43.77528},"status":"balance"},{"frame_index":196,"name":"ports_3","capacity":10000,"empty":1366,"full":1372,"shortage":0,"booking":63,"fulfillment":63,"port_name":"LeHavre","position":{"lat":49.490002,"lng":0.1},"status":"surplus"},{"frame_index":196,"name":"ports_4","capacity":10000,"empty":185,"full":396,"shortage":0,"booking":55,"fulfillment":55,"port_name":"Los Angeles","position":{"lat":34.052235,"lng":-118.243683},"status":"demand"},{"frame_index":196,"name":"ports_5","capacity":10000,"empty":640,"full":137,"shortage":0,"booking":48,"fulfillment":48,"port_name":"Manzanillo","position":{"lat":19.11695,"lng":-104.34214},"status":"surplus"},{"frame_index":196,"name":"ports_6","capacity":10000,"empty":0,"full":200,"shortage":17,"booking":17,"fulfillment":0,"port_name":"Melbourne","position":{"lat":-37.840935,"lng":144.946457},"status":"demand"},{"frame_index":196,"name":"ports_7","capacity":10000,"empty":82,"full":309,"shortage":0,"booking":17,"fulfillment":17,"port_name":"Montreal","position":{"lat":45.516136,"lng":-73.65683},"status":"balance"},{"frame_index":196,"name":"ports_8","capacity":10000,"empty":6834,"full":1120,"shortage":0,"booking":35,"fulfillment":35,"port_name":"New York","position":{"lat":40.73061,"lng":-73.935242},"status":"surplus"},{"frame_index":196,"name":"ports_9","capacity":10000,"empty":2144,"full":0,"shortage":0,"booking":29,"fulfillment":29,"port_name":"Oakland","position":{"lat":37.804363,"lng":-122.271111},"status":"surplus"},{"frame_index":196,"name":"ports_10","capacity":10000,"empty":468,"full":464,"shortage":0,"booking":15,"fulfillment":15,"port_name":"Prince Rupert","position":{"lat":54.312519,"lng":-130.305405},"status":"surplus"},{"frame_index":196,"name":"ports_11","capacity":10000,"empty":2572,"full":1073,"shortage":0,"booking":65,"fulfillment":65,"port_name":"Pusan","position":{"lat":35.166668,"lng":129.066666},"status":"surplus"},{"frame_index":196,"name":"ports_12","capacity":10000,"empty":0,"full":1510,"shortage":78,"booking":85,"fulfillment":7,"port_name":"Qingdao","position":{"lat":36.066898,"lng":120.382698},"status":"demand"},{"frame_index":196,"name":"ports_13","capacity":10000,"empty":1151,"full":38,"shortage":0,"booking":12,"fulfillment":12,"port_name":"San Antonio","position":{"lat":29.424349,"lng":-98.491142},"status":"surplus"},{"frame_index":196,"name":"ports_14","capacity":10000,"empty":0,"full":74,"shortage":12,"booking":12,"fulfillment":0,"port_name":"Santos","position":{"lat":-23.96083,"lng":-46.33361},"status":"demand"},{"frame_index":196,"name":"ports_15","capacity":10000,"empty":0,"full":2114,"shortage":7,"booking":79,"fulfillment":72,"port_name":"Seattle","position":{"lat":47.608013,"lng":-122.335167},"status":"demand"},{"frame_index":196,"name":"ports_16","capacity":10000,"empty":159,"full":971,"shortage":0,"booking":119,"fulfillment":119,"port_name":"Shanghai","position":{"lat":31.224361,"lng":121.46917},"status":"demand"},{"frame_index":196,"name":"ports_17","capacity":10000,"empty":0,"full":582,"shortage":37,"booking":44,"fulfillment":7,"port_name":"Singapore","position":{"lat":1.29027,"lng":103.851959},"status":"demand"},{"frame_index":196,"name":"ports_18","capacity":10000,"empty":389,"full":248,"shortage":0,"booking":18,"fulfillment":18,"port_name":"Sydney","position":{"lat":-33.865143,"lng":151.2099},"status":"surplus"},{"frame_index":196,"name":"ports_19","capacity":10000,"empty":980,"full":169,"shortage":0,"booking":20,"fulfillment":20,"port_name":"Vancouver","position":{"lat":49.246292,"lng":-123.116226},"status":"surplus"},{"frame_index":196,"name":"ports_20","capacity":10000,"empty":408,"full":371,"shortage":0,"booking":83,"fulfillment":83,"port_name":"Yantian","position":{"lat":26.8533,"lng":119.8575},"status":"balance"},{"frame_index":196,"name":"ports_21","capacity":10000,"empty":0,"full":659,"shortage":79,"booking":79,"fulfillment":0,"port_name":"Yokohama","position":{"lat":35.443707,"lng":139.638031},"status":"demand"}]