[{"frame_index":845,"name":"ports_0","capacity":10000,"empty":3307,"full":2973,"shortage":0,"booking":193,"fulfillment":193,"port_name":"Bremerhaven","position":{"lat":53.549999,"lng":8.583333},"status":"surplus"},{"frame_index":845,"name":"ports_1","capacity":10000,"empty":112,"full":0,"shortage":0,"booking":16,"fulfillment":16,"port_name":"Durban","position":{"lat":-29.8579,"lng":31.0292},"status":"balance"},{"frame_index":845,"name":"ports_2","capacity":10000,"empty":364,"full":21,"shortage":0,"booking":15,"fulfillment":15,"port_name":"Itagual","position":{"lat":-22.85222,"lng":-43.77528},"status":"surplus"},{"frame_index":845,"name":"ports_3","capacity":10000,"empty":464,"full":476,"shortage":0,"booking":89,"fulfillment":89,"port_name":"LeHavre","position":{"lat":49.490002,"lng":0.1},"status":"balance"},{"frame_index":845,"name":"ports_4","capacity":10000,"empty":1331,"full":1032,"shortage":0,"booking":72,"fulfillment":72,"port_name":"Los Angeles","position":{"lat":34.052235,"lng":-118.243683},"status":"surplus"},{"frame_index":845,"name":"ports_5","capacity":10000,"empty":0,"full":454,"shortage":71,"booking":71,"fulfillment":0,"port_name":"Manzanillo","position":{"lat":19.11695,"lng":-104.34214},"status":"demand"},{"frame_index":845,"name":"ports_6","capacity":10000,"empty":0,"full":54,"shortage":2,"booking":22,"fulfillment":20,"port_name":"Melbourne","position":{"lat":-37.840935,"lng":144.946457},"status":"demand"},{"frame_index":845,"name":"ports_7","capacity":10000,"empty":1989,"full":347,"shortage":0,"booking":22,"fulfillment":22,"port_name":"Montreal","position":{"lat":45.516136,"lng":-73.65683},"status":"surplus"},{"frame_index":845,"name":"ports_8","capacity":10000,"empty":10111,"full":892,"shortage":0,"booking":41,"fulfillment":41,"port_name":"New York","position":{"lat":40.73061,"lng":-73.935242},"status":"surplus"},{"frame_index":845,"name":"ports_9","capacity":10000,"empty":912,"full":290,"shortage":0,"booking":48,"fulfillment":48,"port_name":"Oakland","position":{"lat":37.804363,"lng":-122.271111},"status":"surplus"},{"frame_index":845,"name":"ports_10","capacity":10000,"empty":2030,"full":755,"shortage":0,"booking":18,"fulfillment":18,"port_name":"Prince Rupert","position":{"lat":54.312519,"lng":-130.305405},"status":"surplus"},{"frame_index":845,"name":"ports_11","capacity":10000,"empty":0,"full":665,"shortage":83,"booking":83,"fulfillment":0,"port_name":"Pusan","position":{"lat":35.166668,"lng":129.066666},"status":"demand"},{"frame_index":845,"name":"ports_12","capacity":10000,"empty":0,"full":2987,"shortage":99,"booking":103,"fulfillment":4,"port_name":"Qingdao","position":{"lat":36.066898,"lng":120.382698},"status":"demand"},{"frame_index":845,"name":"ports_13","capacity":10000,"empty":1023,"full":104,"shortage":0,"booking":14,"fulfillment":14,"port_name":"San Antonio","position":{"lat":29.424349,"lng":-98.491142},"status":"surplus"},{"frame_index":845,"name":"ports_14","capacity":10000,"empty":250,"full":204,"shortage":0,"booking":16,"fulfillment":16,"port_name":"Santos","position":{"lat":-23.96083,"lng":-46.33361},"status":"surplus"},{"frame_index":845,"name":"ports_15","capacity":10000,"empty":155,"full":752,"shortage":0,"booking":102,"fulfillment":102,"port_name":"Seattle","position":{"lat":47.608013,"lng":-122.335167},"status":"demand"},{"frame_index":845,"name":"ports_16","capacity":10000,"empty":1429,"full":1294,"shortage":0,"booking":153,"fulfillment":153,"port_name":"Shanghai","position":{"lat":31.224361,"lng":121.46917},"status":"surplus"},{"frame_index":845,"name":"ports_17","capacity":10000,"empty":182,"full":710,"shortage":0,"booking":59,"fulfillment":59,"port_name":"Singapore","position":{"lat":1.29027,"lng":103.851959},"status":"demand"},{"frame_index":845,"name":"ports_18","capacity":10000,"empty":0,"full":287,"shortage":21,"booking":21,"fulfillment":0,"port_name":"Sydney","position":{"lat":-33.865143,"lng":151.2099},"status":"demand"},{"frame_index":845,"name":"ports_19","capacity":10000,"empty":0,"full":175,"shortage":28,"booking":28,"fulfillment":0,"port_name":"Vancouver","position":{"lat":49.246292,"lng":-123.116226},"status":"demand"},{"frame_index":845,"name":"ports_20","capacity":10000,"empty":0,"full":727,"shortage":57,"booking":108,"fulfillment":51,"port_name":"Yantian","position":{"lat":26.8533,"lng":119.8575},"status":"demand"},{"frame_index":845,"name":"ports_21","capacity":10000,"empty":0,"full":621,"shortage":104,"booking":104,"fulfillment":0,"port_name":"Yokohama","position":{"lat":35.443707,"lng":139.638031},"status":"demand"}]