[{"frame_index":586,"name":"ports_0","capacity":10000,"empty":4105,"full":1633,"shortage":0,"booking":144,"fulfillment":144,"port_name":"Bremerhaven","position":{"lat":53.549999,"lng":8.583333},"status":"surplus"},{"frame_index":586,"name":"ports_1","capacity":10000,"empty":162,"full":0,"shortage":0,"booking":9,"fulfillment":9,"port_name":"Durban","position":{"lat":-29.8579,"lng":31.0292},"status":"surplus"},{"frame_index":586,"name":"ports_2","capacity":10000,"empty":198,"full":59,"shortage":0,"booking":9,"fulfillment":9,"port_name":"Itagual","position":{"lat":-22.85222,"lng":-43.77528},"status":"surplus"},{"frame_index":586,"name":"ports_3","capacity":10000,"empty":325,"full":1313,"shortage":0,"booking":48,"fulfillment":48,"port_name":"LeHavre","position":{"lat":49.490002,"lng":0.1},"status":"surplus"},{"frame_index":586,"name":"ports_4","capacity":10000,"empty":3376,"full":355,"shortage":0,"booking":41,"fulfillment":41,"port_name":"Los Angeles","position":{"lat":34.052235,"lng":-118.243683},"status":"surplus"},{"frame_index":586,"name":"ports_5","capacity":10000,"empty":164,"full":824,"shortage":0,"booking":36,"fulfillment":36,"port_name":"Manzanillo","position":{"lat":19.11695,"lng":-104.34214},"status":"balance"},{"frame_index":586,"name":"ports_6","capacity":10000,"empty":193,"full":25,"shortage":0,"booking":13,"fulfillment":13,"port_name":"Melbourne","position":{"lat":-37.840935,"lng":144.946457},"status":"surplus"},{"frame_index":586,"name":"ports_7","capacity":10000,"empty":2470,"full":299,"shortage":0,"booking":12,"fulfillment":12,"port_name":"Montreal","position":{"lat":45.516136,"lng":-73.65683},"status":"surplus"},{"frame_index":586,"name":"ports_8","capacity":10000,"empty":7485,"full":461,"shortage":0,"booking":25,"fulfillment":25,"port_name":"New York","position":{"lat":40.73061,"lng":-73.935242},"status":"surplus"},{"frame_index":586,"name":"ports_9","capacity":10000,"empty":2658,"full":359,"shortage":0,"booking":21,"fulfillment":21,"port_name":"Oakland","position":{"lat":37.804363,"lng":-122.271111},"status":"surplus"},{"frame_index":586,"name":"ports_10","capacity":10000,"empty":583,"full":292,"shortage":0,"booking":12,"fulfillment":12,"port_name":"Prince Rupert","position":{"lat":54.312519,"lng":-130.305405},"status":"surplus"},{"frame_index":586,"name":"ports_11","capacity":10000,"empty":1587,"full":550,"shortage":0,"booking":46,"fulfillment":46,"port_name":"Pusan","position":{"lat":35.166668,"lng":129.066666},"status":"surplus"},{"frame_index":586,"name":"ports_12","capacity":10000,"empty":2610,"full":739,"shortage":0,"booking":61,"fulfillment":61,"port_name":"Qingdao","position":{"lat":36.066898,"lng":120.382698},"status":"surplus"},{"frame_index":586,"name":"ports_13","capacity":10000,"empty":100,"full":62,"shortage":0,"booking":8,"fulfillment":8,"port_name":"San Antonio","position":{"lat":29.424349,"lng":-98.491142},"status":"surplus"},{"frame_index":586,"name":"ports_14","capacity":10000,"empty":128,"full":154,"shortage":0,"booking":7,"fulfillment":7,"port_name":"Santos","position":{"lat":-23.96083,"lng":-46.33361},"status":"surplus"},{"frame_index":586,"name":"ports_15","capacity":10000,"empty":444,"full":212,"shortage":0,"booking":57,"fulfillment":57,"port_name":"Seattle","position":{"lat":47.608013,"lng":-122.335167},"status":"surplus"},{"frame_index":586,"name":"ports_16","capacity":10000,"empty":5418,"full":265,"shortage":0,"booking":72,"fulfillment":72,"port_name":"Shanghai","position":{"lat":31.224361,"lng":121.46917},"status":"surplus"},{"frame_index":586,"name":"ports_17","capacity":10000,"empty":429,"full":254,"shortage":0,"booking":33,"fulfillment":33,"port_name":"Singapore","position":{"lat":1.29027,"lng":103.851959},"status":"surplus"},{"frame_index":586,"name":"ports_18","capacity":10000,"empty":0,"full":66,"shortage":12,"booking":12,"fulfillment":0,"port_name":"Sydney","position":{"lat":-33.865143,"lng":151.2099},"status":"demand"},{"frame_index":586,"name":"ports_19","capacity":10000,"empty":0,"full":397,"shortage":17,"booking":17,"fulfillment":0,"port_name":"Vancouver","position":{"lat":49.246292,"lng":-123.116226},"status":"demand"},{"frame_index":586,"name":"ports_20","capacity":10000,"empty":563,"full":248,"shortage":0,"booking":58,"fulfillment":58,"port_name":"Yantian","position":{"lat":26.8533,"lng":119.8575},"status":"surplus"},{"frame_index":586,"name":"ports_21","capacity":10000,"empty":0,"full":16,"shortage":56,"booking":56,"fulfillment":0,"port_name":"Yokohama","position":{"lat":35.443707,"lng":139.638031},"status":"demand"}]