[{"frame_index":1068,"name":"ports_0","capacity":10000,"empty":0,"full":951,"shortage":215,"booking":215,"fulfillment":0,"port_name":"Bremerhaven","position":{"lat":53.549999,"lng":8.583333},"status":"demand"},{"frame_index":1068,"name":"ports_1","capacity":10000,"empty":123,"full":233,"shortage":0,"booking":15,"fulfillment":15,"port_name":"Durban","position":{"lat":-29.8579,"lng":31.0292},"status":"balance"},{"frame_index":1068,"name":"ports_2","capacity":10000,"empty":204,"full":289,"shortage":0,"booking":14,"fulfillment":14,"port_name":"Itagual","position":{"lat":-22.85222,"lng":-43.77528},"status":"surplus"},{"frame_index":1068,"name":"ports_3","capacity":10000,"empty":0,"full":1237,"shortage":86,"booking":86,"fulfillment":0,"port_name":"LeHavre","position":{"lat":49.490002,"lng":0.1},"status":"demand"},{"frame_index":1068,"name":"ports_4","capacity":10000,"empty":0,"full":1160,"shortage":72,"booking":72,"fulfillment":0,"port_name":"Los Angeles","position":{"lat":34.052235,"lng":-118.243683},"status":"demand"},{"frame_index":1068,"name":"ports_5","capacity":10000,"empty":0,"full":530,"shortage":41,"booking":75,"fulfillment":34,"port_name":"Manzanillo","position":{"lat":19.11695,"lng":-104.34214},"status":"demand"},{"frame_index":1068,"name":"ports_6","capacity":10000,"empty":0,"full":286,"shortage":22,"booking":22,"fulfillment":0,"port_name":"Melbourne","position":{"lat":-37.840935,"lng":144.946457},"status":"demand"},{"frame_index":1068,"name":"ports_7","capacity":10000,"empty":1644,"full":396,"shortage":0,"booking":22,"fulfillment":22,"port_name":"Montreal","position":{"lat":45.516136,"lng":-73.65683},"status":"surplus"},{"frame_index":1068,"name":"ports_8","capacity":10000,"empty":15735,"full":593,"shortage":0,"booking":45,"fulfillment":45,"port_name":"New York","position":{"lat":40.73061,"lng":-73.935242},"status":"surplus"},{"frame_index":1068,"name":"ports_9","capacity":10000,"empty":837,"full":437,"shortage":0,"booking":46,"fulfillment":46,"port_name":"Oakland","position":{"lat":37.804363,"lng":-122.271111},"status":"surplus"},{"frame_index":1068,"name":"ports_10","capacity":10000,"empty":1307,"full":237,"shortage":0,"booking":23,"fulfillment":23,"port_name":"Prince Rupert","position":{"lat":54.312519,"lng":-130.305405},"status":"surplus"},{"frame_index":1068,"name":"ports_11","capacity":10000,"empty":257,"full":777,"shortage":0,"booking":87,"fulfillment":87,"port_name":"Pusan","position":{"lat":35.166668,"lng":129.066666},"status":"demand"},{"frame_index":1068,"name":"ports_12","capacity":10000,"empty":0,"full":1825,"shortage":122,"booking":122,"fulfillment":0,"port_name":"Qingdao","position":{"lat":36.066898,"lng":120.382698},"status":"demand"},{"frame_index":1068,"name":"ports_13","capacity":10000,"empty":75,"full":250,"shortage":0,"booking":16,"fulfillment":16,"port_name":"San Antonio","position":{"lat":29.424349,"lng":-98.491142},"status":"balance"},{"frame_index":1068,"name":"ports_14","capacity":10000,"empty":0,"full":426,"shortage":16,"booking":16,"fulfillment":0,"port_name":"Santos","position":{"lat":-23.96083,"lng":-46.33361},"status":"demand"},{"frame_index":1068,"name":"ports_15","capacity":10000,"empty":0,"full":1459,"shortage":102,"booking":102,"fulfillment":0,"port_name":"Seattle","position":{"lat":47.608013,"lng":-122.335167},"status":"demand"},{"frame_index":1068,"name":"ports_16","capacity":10000,"empty":68,"full":1321,"shortage":0,"booking":121,"fulfillment":121,"port_name":"Shanghai","position":{"lat":31.224361,"lng":121.46917},"status":"demand"},{"frame_index":1068,"name":"ports_17","capacity":10000,"empty":37,"full":700,"shortage":0,"booking":57,"fulfillment":57,"port_name":"Singapore","position":{"lat":1.29027,"lng":103.851959},"status":"demand"},{"frame_index":1068,"name":"ports_18","capacity":10000,"empty":195,"full":116,"shortage":0,"booking":25,"fulfillment":25,"port_name":"Sydney","position":{"lat":-33.865143,"lng":151.2099},"status":"surplus"},{"frame_index":1068,"name":"ports_19","capacity":10000,"empty":0,"full":362,"shortage":2,"booking":31,"fulfillment":29,"port_name":"Vancouver","position":{"lat":49.246292,"lng":-123.116226},"status":"demand"},{"frame_index":1068,"name":"ports_20","capacity":10000,"empty":0,"full":1022,"shortage":89,"booking":101,"fulfillment":12,"port_name":"Yantian","position":{"lat":26.8533,"lng":119.8575},"status":"demand"},{"frame_index":1068,"name":"ports_21","capacity":10000,"empty":0,"full":720,"shortage":105,"booking":105,"fulfillment":0,"port_name":"Yokohama","position":{"lat":35.443707,"lng":139.638031},"status":"demand"}]