[{"frame_index":1097,"name":"ports_0","capacity":10000,"empty":0,"full":3387,"shortage":143,"booking":143,"fulfillment":0,"port_name":"Bremerhaven","position":{"lat":53.549999,"lng":8.583333},"status":"demand"},{"frame_index":1097,"name":"ports_1","capacity":10000,"empty":245,"full":148,"shortage":0,"booking":9,"fulfillment":9,"port_name":"Durban","position":{"lat":-29.8579,"lng":31.0292},"status":"surplus"},{"frame_index":1097,"name":"ports_2","capacity":10000,"empty":367,"full":367,"shortage":0,"booking":9,"fulfillment":9,"port_name":"Itagual","position":{"lat":-22.85222,"lng":-43.77528},"status":"surplus"},{"frame_index":1097,"name":"ports_3","capacity":10000,"empty":213,"full":1073,"shortage":0,"booking":46,"fulfillment":46,"port_name":"LeHavre","position":{"lat":49.490002,"lng":0.1},"status":"balance"},{"frame_index":1097,"name":"ports_4","capacity":10000,"empty":1022,"full":283,"shortage":0,"booking":39,"fulfillment":39,"port_name":"Los Angeles","position":{"lat":34.052235,"lng":-118.243683},"status":"surplus"},{"frame_index":1097,"name":"ports_5","capacity":10000,"empty":962,"full":467,"shortage":33,"booking":33,"fulfillment":0,"port_name":"Manzanillo","position":{"lat":19.11695,"lng":-104.34214},"status":"surplus"},{"frame_index":1097,"name":"ports_6","capacity":10000,"empty":0,"full":286,"shortage":12,"booking":12,"fulfillment":0,"port_name":"Melbourne","position":{"lat":-37.840935,"lng":144.946457},"status":"demand"},{"frame_index":1097,"name":"ports_7","capacity":10000,"empty":1667,"full":131,"shortage":0,"booking":12,"fulfillment":12,"port_name":"Montreal","position":{"lat":45.516136,"lng":-73.65683},"status":"surplus"},{"frame_index":1097,"name":"ports_8","capacity":10000,"empty":17573,"full":270,"shortage":0,"booking":22,"fulfillment":22,"port_name":"New York","position":{"lat":40.73061,"lng":-73.935242},"status":"surplus"},{"frame_index":1097,"name":"ports_9","capacity":10000,"empty":0,"full":1349,"shortage":22,"booking":22,"fulfillment":0,"port_name":"Oakland","position":{"lat":37.804363,"lng":-122.271111},"status":"demand"},{"frame_index":1097,"name":"ports_10","capacity":10000,"empty":706,"full":429,"shortage":0,"booking":11,"fulfillment":11,"port_name":"Prince Rupert","position":{"lat":54.312519,"lng":-130.305405},"status":"surplus"},{"frame_index":1097,"name":"ports_11","capacity":10000,"empty":0,"full":965,"shortage":28,"booking":45,"fulfillment":17,"port_name":"Pusan","position":{"lat":35.166668,"lng":129.066666},"status":"demand"},{"frame_index":1097,"name":"ports_12","capacity":10000,"empty":15,"full":999,"shortage":0,"booking":61,"fulfillment":61,"port_name":"Qingdao","position":{"lat":36.066898,"lng":120.382698},"status":"demand"},{"frame_index":1097,"name":"ports_13","capacity":10000,"empty":23,"full":342,"shortage":0,"booking":8,"fulfillment":8,"port_name":"San Antonio","position":{"lat":29.424349,"lng":-98.491142},"status":"balance"},{"frame_index":1097,"name":"ports_14","capacity":10000,"empty":237,"full":179,"shortage":0,"booking":8,"fulfillment":8,"port_name":"Santos","position":{"lat":-23.96083,"lng":-46.33361},"status":"surplus"},{"frame_index":1097,"name":"ports_15","capacity":10000,"empty":0,"full":1459,"shortage":56,"booking":56,"fulfillment":0,"port_name":"Seattle","position":{"lat":47.608013,"lng":-122.335167},"status":"demand"},{"frame_index":1097,"name":"ports_16","capacity":10000,"empty":70,"full":956,"shortage":0,"booking":75,"fulfillment":75,"port_name":"Shanghai","position":{"lat":31.224361,"lng":121.46917},"status":"demand"},{"frame_index":1097,"name":"ports_17","capacity":10000,"empty":0,"full":441,"shortage":32,"booking":32,"fulfillment":0,"port_name":"Singapore","position":{"lat":1.29027,"lng":103.851959},"status":"demand"},{"frame_index":1097,"name":"ports_18","capacity":10000,"empty":34,"full":61,"shortage":0,"booking":12,"fulfillment":12,"port_name":"Sydney","position":{"lat":-33.865143,"lng":151.2099},"status":"balance"},{"frame_index":1097,"name":"ports_19","capacity":10000,"empty":0,"full":477,"shortage":16,"booking":16,"fulfillment":0,"port_name":"Vancouver","position":{"lat":49.246292,"lng":-123.116226},"status":"demand"},{"frame_index":1097,"name":"ports_20","capacity":10000,"empty":248,"full":250,"shortage":0,"booking":54,"fulfillment":54,"port_name":"Yantian","position":{"lat":26.8533,"lng":119.8575},"status":"balance"},{"frame_index":1097,"name":"ports_21","capacity":10000,"empty":294,"full":934,"shortage":0,"booking":51,"fulfillment":51,"port_name":"Yokohama","position":{"lat":35.443707,"lng":139.638031},"status":"balance"}]