[{"frame_index":66,"name":"ports_0","capacity":10000,"empty":7660,"full":1671,"shortage":0,"booking":197,"fulfillment":197,"port_name":"Bremerhaven","position":{"lat":53.549999,"lng":8.583333},"status":"surplus"},{"frame_index":66,"name":"ports_1","capacity":10000,"empty":585,"full":359,"shortage":0,"booking":11,"fulfillment":11,"port_name":"Durban","position":{"lat":-29.8579,"lng":31.0292},"status":"surplus"},{"frame_index":66,"name":"ports_2","capacity":10000,"empty":318,"full":216,"shortage":0,"booking":11,"fulfillment":11,"port_name":"Itagual","position":{"lat":-22.85222,"lng":-43.77528},"status":"surplus"},{"frame_index":66,"name":"ports_3","capacity":10000,"empty":1435,"full":449,"shortage":0,"booking":67,"fulfillment":67,"port_name":"LeHavre","position":{"lat":49.490002,"lng":0.1},"status":"surplus"},{"frame_index":66,"name":"ports_4","capacity":10000,"empty":0,"full":432,"shortage":57,"booking":57,"fulfillment":0,"port_name":"Los Angeles","position":{"lat":34.052235,"lng":-118.243683},"status":"demand"},{"frame_index":66,"name":"ports_5","capacity":10000,"empty":2280,"full":808,"shortage":0,"booking":52,"fulfillment":52,"port_name":"Manzanillo","position":{"lat":19.11695,"lng":-104.34214},"status":"surplus"},{"frame_index":66,"name":"ports_6","capacity":10000,"empty":64,"full":375,"shortage":0,"booking":17,"fulfillment":17,"port_name":"Melbourne","position":{"lat":-37.840935,"lng":144.946457},"status":"balance"},{"frame_index":66,"name":"ports_7","capacity":10000,"empty":949,"full":86,"shortage":0,"booking":17,"fulfillment":17,"port_name":"Montreal","position":{"lat":45.516136,"lng":-73.65683},"status":"surplus"},{"frame_index":66,"name":"ports_8","capacity":10000,"empty":1697,"full":571,"shortage":0,"booking":36,"fulfillment":36,"port_name":"New York","position":{"lat":40.73061,"lng":-73.935242},"status":"surplus"},{"frame_index":66,"name":"ports_9","capacity":10000,"empty":588,"full":938,"shortage":0,"booking":33,"fulfillment":33,"port_name":"Oakland","position":{"lat":37.804363,"lng":-122.271111},"status":"surplus"},{"frame_index":66,"name":"ports_10","capacity":10000,"empty":390,"full":316,"shortage":0,"booking":18,"fulfillment":18,"port_name":"Prince Rupert","position":{"lat":54.312519,"lng":-130.305405},"status":"surplus"},{"frame_index":66,"name":"ports_11","capacity":10000,"empty":2855,"full":2228,"shortage":0,"booking":69,"fulfillment":69,"port_name":"Pusan","position":{"lat":35.166668,"lng":129.066666},"status":"surplus"},{"frame_index":66,"name":"ports_12","capacity":10000,"empty":555,"full":592,"shortage":0,"booking":80,"fulfillment":80,"port_name":"Qingdao","position":{"lat":36.066898,"lng":120.382698},"status":"surplus"},{"frame_index":66,"name":"ports_13","capacity":10000,"empty":0,"full":38,"shortage":11,"booking":11,"fulfillment":0,"port_name":"San Antonio","position":{"lat":29.424349,"lng":-98.491142},"status":"demand"},{"frame_index":66,"name":"ports_14","capacity":10000,"empty":427,"full":24,"shortage":0,"booking":13,"fulfillment":13,"port_name":"Santos","position":{"lat":-23.96083,"lng":-46.33361},"status":"surplus"},{"frame_index":66,"name":"ports_15","capacity":10000,"empty":4013,"full":2095,"shortage":0,"booking":76,"fulfillment":76,"port_name":"Seattle","position":{"lat":47.608013,"lng":-122.335167},"status":"surplus"},{"frame_index":66,"name":"ports_16","capacity":10000,"empty":0,"full":670,"shortage":126,"booking":126,"fulfillment":0,"port_name":"Shanghai","position":{"lat":31.224361,"lng":121.46917},"status":"demand"},{"frame_index":66,"name":"ports_17","capacity":10000,"empty":2718,"full":382,"shortage":0,"booking":45,"fulfillment":45,"port_name":"Singapore","position":{"lat":1.29027,"lng":103.851959},"status":"surplus"},{"frame_index":66,"name":"ports_18","capacity":10000,"empty":407,"full":453,"shortage":0,"booking":17,"fulfillment":17,"port_name":"Sydney","position":{"lat":-33.865143,"lng":151.2099},"status":"surplus"},{"frame_index":66,"name":"ports_19","capacity":10000,"empty":18,"full":89,"shortage":0,"booking":22,"fulfillment":22,"port_name":"Vancouver","position":{"lat":49.246292,"lng":-123.116226},"status":"demand"},{"frame_index":66,"name":"ports_20","capacity":10000,"empty":0,"full":98,"shortage":86,"booking":86,"fulfillment":0,"port_name":"Yantian","position":{"lat":26.8533,"lng":119.8575},"status":"demand"},{"frame_index":66,"name":"ports_21","capacity":10000,"empty":626,"full":1389,"shortage":0,"booking":76,"fulfillment":76,"port_name":"Yokohama","position":{"lat":35.443707,"lng":139.638031},"status":"surplus"}]