[{"frame_index":788,"name":"ports_0","capacity":10000,"empty":0,"full":1812,"shortage":38,"booking":38,"fulfillment":0,"port_name":"Bremerhaven","position":{"lat":53.549999,"lng":8.583333},"status":"demand"},{"frame_index":788,"name":"ports_1","capacity":10000,"empty":80,"full":84,"shortage":0,"booking":3,"fulfillment":3,"port_name":"Durban","position":{"lat":-29.8579,"lng":31.0292},"status":"surplus"},{"frame_index":788,"name":"ports_2","capacity":10000,"empty":283,"full":59,"shortage":0,"booking":3,"fulfillment":3,"port_name":"Itagual","position":{"lat":-22.85222,"lng":-43.77528},"status":"surplus"},{"frame_index":788,"name":"ports_3","capacity":10000,"empty":715,"full":1505,"shortage":0,"booking":14,"fulfillment":14,"port_name":"LeHavre","position":{"lat":49.490002,"lng":0.1},"status":"surplus"},{"frame_index":788,"name":"ports_4","capacity":10000,"empty":1123,"full":286,"shortage":0,"booking":11,"fulfillment":11,"port_name":"Los Angeles","position":{"lat":34.052235,"lng":-118.243683},"status":"surplus"},{"frame_index":788,"name":"ports_5","capacity":10000,"empty":940,"full":1021,"shortage":0,"booking":10,"fulfillment":10,"port_name":"Manzanillo","position":{"lat":19.11695,"lng":-104.34214},"status":"surplus"},{"frame_index":788,"name":"ports_6","capacity":10000,"empty":149,"full":157,"shortage":0,"booking":4,"fulfillment":4,"port_name":"Melbourne","position":{"lat":-37.840935,"lng":144.946457},"status":"surplus"},{"frame_index":788,"name":"ports_7","capacity":10000,"empty":2605,"full":41,"shortage":0,"booking":4,"fulfillment":4,"port_name":"Montreal","position":{"lat":45.516136,"lng":-73.65683},"status":"surplus"},{"frame_index":788,"name":"ports_8","capacity":10000,"empty":11179,"full":235,"shortage":0,"booking":7,"fulfillment":7,"port_name":"New York","position":{"lat":40.73061,"lng":-73.935242},"status":"surplus"},{"frame_index":788,"name":"ports_9","capacity":10000,"empty":424,"full":849,"shortage":0,"booking":8,"fulfillment":8,"port_name":"Oakland","position":{"lat":37.804363,"lng":-122.271111},"status":"surplus"},{"frame_index":788,"name":"ports_10","capacity":10000,"empty":4063,"full":230,"shortage":0,"booking":3,"fulfillment":3,"port_name":"Prince Rupert","position":{"lat":54.312519,"lng":-130.305405},"status":"surplus"},{"frame_index":788,"name":"ports_11","capacity":10000,"empty":1381,"full":261,"shortage":0,"booking":14,"fulfillment":14,"port_name":"Pusan","position":{"lat":35.166668,"lng":129.066666},"status":"surplus"},{"frame_index":788,"name":"ports_12","capacity":10000,"empty":2542,"full":1216,"shortage":0,"booking":20,"fulfillment":20,"port_name":"Qingdao","position":{"lat":36.066898,"lng":120.382698},"status":"surplus"},{"frame_index":788,"name":"ports_13","capacity":10000,"empty":1304,"full":33,"shortage":0,"booking":2,"fulfillment":2,"port_name":"San Antonio","position":{"lat":29.424349,"lng":-98.491142},"status":"surplus"},{"frame_index":788,"name":"ports_14","capacity":10000,"empty":558,"full":36,"shortage":0,"booking":2,"fulfillment":2,"port_name":"Santos","position":{"lat":-23.96083,"lng":-46.33361},"status":"surplus"},{"frame_index":788,"name":"ports_15","capacity":10000,"empty":396,"full":286,"shortage":0,"booking":16,"fulfillment":16,"port_name":"Seattle","position":{"lat":47.608013,"lng":-122.335167},"status":"surplus"},{"frame_index":788,"name":"ports_16","capacity":10000,"empty":8,"full":195,"shortage":0,"booking":25,"fulfillment":25,"port_name":"Shanghai","position":{"lat":31.224361,"lng":121.46917},"status":"demand"},{"frame_index":788,"name":"ports_17","capacity":10000,"empty":3006,"full":111,"shortage":0,"booking":9,"fulfillment":9,"port_name":"Singapore","position":{"lat":1.29027,"lng":103.851959},"status":"surplus"},{"frame_index":788,"name":"ports_18","capacity":10000,"empty":0,"full":98,"shortage":3,"booking":3,"fulfillment":0,"port_name":"Sydney","position":{"lat":-33.865143,"lng":151.2099},"status":"balance"},{"frame_index":788,"name":"ports_19","capacity":10000,"empty":148,"full":304,"shortage":0,"booking":5,"fulfillment":5,"port_name":"Vancouver","position":{"lat":49.246292,"lng":-123.116226},"status":"surplus"},{"frame_index":788,"name":"ports_20","capacity":10000,"empty":150,"full":265,"shortage":0,"booking":14,"fulfillment":14,"port_name":"Yantian","position":{"lat":26.8533,"lng":119.8575},"status":"surplus"},{"frame_index":788,"name":"ports_21","capacity":10000,"empty":34,"full":1261,"shortage":0,"booking":8,"fulfillment":8,"port_name":"Yokohama","position":{"lat":35.443707,"lng":139.638031},"status":"balance"}]