[{"frame_index":933,"name":"ports_0","capacity":10000,"empty":30,"full":668,"shortage":0,"booking":102,"fulfillment":102,"port_name":"Bremerhaven","position":{"lat":53.549999,"lng":8.583333},"status":"demand"},{"frame_index":933,"name":"ports_1","capacity":10000,"empty":532,"full":83,"shortage":0,"booking":6,"fulfillment":6,"port_name":"Durban","position":{"lat":-29.8579,"lng":31.0292},"status":"surplus"},{"frame_index":933,"name":"ports_2","capacity":10000,"empty":525,"full":47,"shortage":0,"booking":6,"fulfillment":6,"port_name":"Itagual","position":{"lat":-22.85222,"lng":-43.77528},"status":"surplus"},{"frame_index":933,"name":"ports_3","capacity":10000,"empty":1399,"full":1411,"shortage":0,"booking":33,"fulfillment":33,"port_name":"LeHavre","position":{"lat":49.490002,"lng":0.1},"status":"surplus"},{"frame_index":933,"name":"ports_4","capacity":10000,"empty":1740,"full":452,"shortage":0,"booking":28,"fulfillment":28,"port_name":"Los Angeles","position":{"lat":34.052235,"lng":-118.243683},"status":"surplus"},{"frame_index":933,"name":"ports_5","capacity":10000,"empty":3,"full":123,"shortage":0,"booking":31,"fulfillment":31,"port_name":"Manzanillo","position":{"lat":19.11695,"lng":-104.34214},"status":"demand"},{"frame_index":933,"name":"ports_6","capacity":10000,"empty":134,"full":154,"shortage":0,"booking":9,"fulfillment":9,"port_name":"Melbourne","position":{"lat":-37.840935,"lng":144.946457},"status":"surplus"},{"frame_index":933,"name":"ports_7","capacity":10000,"empty":2032,"full":290,"shortage":0,"booking":9,"fulfillment":9,"port_name":"Montreal","position":{"lat":45.516136,"lng":-73.65683},"status":"surplus"},{"frame_index":933,"name":"ports_8","capacity":10000,"empty":13449,"full":514,"shortage":0,"booking":17,"fulfillment":17,"port_name":"New York","position":{"lat":40.73061,"lng":-73.935242},"status":"surplus"},{"frame_index":933,"name":"ports_9","capacity":10000,"empty":2377,"full":11,"shortage":0,"booking":15,"fulfillment":15,"port_name":"Oakland","position":{"lat":37.804363,"lng":-122.271111},"status":"surplus"},{"frame_index":933,"name":"ports_10","capacity":10000,"empty":2127,"full":46,"shortage":0,"booking":9,"fulfillment":9,"port_name":"Prince Rupert","position":{"lat":54.312519,"lng":-130.305405},"status":"surplus"},{"frame_index":933,"name":"ports_11","capacity":10000,"empty":1032,"full":134,"shortage":0,"booking":32,"fulfillment":32,"port_name":"Pusan","position":{"lat":35.166668,"lng":129.066666},"status":"surplus"},{"frame_index":933,"name":"ports_12","capacity":10000,"empty":152,"full":874,"shortage":0,"booking":46,"fulfillment":46,"port_name":"Qingdao","position":{"lat":36.066898,"lng":120.382698},"status":"demand"},{"frame_index":933,"name":"ports_13","capacity":10000,"empty":317,"full":160,"shortage":0,"booking":6,"fulfillment":6,"port_name":"San Antonio","position":{"lat":29.424349,"lng":-98.491142},"status":"surplus"},{"frame_index":933,"name":"ports_14","capacity":10000,"empty":429,"full":227,"shortage":0,"booking":7,"fulfillment":7,"port_name":"Santos","position":{"lat":-23.96083,"lng":-46.33361},"status":"surplus"},{"frame_index":933,"name":"ports_15","capacity":10000,"empty":497,"full":1174,"shortage":0,"booking":40,"fulfillment":40,"port_name":"Seattle","position":{"lat":47.608013,"lng":-122.335167},"status":"surplus"},{"frame_index":933,"name":"ports_16","capacity":10000,"empty":11,"full":508,"shortage":0,"booking":51,"fulfillment":51,"port_name":"Shanghai","position":{"lat":31.224361,"lng":121.46917},"status":"demand"},{"frame_index":933,"name":"ports_17","capacity":10000,"empty":898,"full":639,"shortage":0,"booking":23,"fulfillment":23,"port_name":"Singapore","position":{"lat":1.29027,"lng":103.851959},"status":"surplus"},{"frame_index":933,"name":"ports_18","capacity":10000,"empty":0,"full":200,"shortage":9,"booking":9,"fulfillment":0,"port_name":"Sydney","position":{"lat":-33.865143,"lng":151.2099},"status":"balance"},{"frame_index":933,"name":"ports_19","capacity":10000,"empty":0,"full":411,"shortage":11,"booking":11,"fulfillment":0,"port_name":"Vancouver","position":{"lat":49.246292,"lng":-123.116226},"status":"demand"},{"frame_index":933,"name":"ports_20","capacity":10000,"empty":7,"full":293,"shortage":0,"booking":43,"fulfillment":43,"port_name":"Yantian","position":{"lat":26.8533,"lng":119.8575},"status":"demand"},{"frame_index":933,"name":"ports_21","capacity":10000,"empty":270,"full":439,"shortage":0,"booking":31,"fulfillment":31,"port_name":"Yokohama","position":{"lat":35.443707,"lng":139.638031},"status":"surplus"}]