[{"frame_index":700,"name":"ports_0","capacity":10000,"empty":1053,"full":690,"shortage":0,"booking":156,"fulfillment":156,"port_name":"Bremerhaven","position":{"lat":53.549999,"lng":8.583333},"status":"surplus"},{"frame_index":700,"name":"ports_1","capacity":10000,"empty":230,"full":98,"shortage":0,"booking":9,"fulfillment":9,"port_name":"Durban","position":{"lat":-29.8579,"lng":31.0292},"status":"surplus"},{"frame_index":700,"name":"ports_2","capacity":10000,"empty":511,"full":239,"shortage":0,"booking":9,"fulfillment":9,"port_name":"Itagual","position":{"lat":-22.85222,"lng":-43.77528},"status":"surplus"},{"frame_index":700,"name":"ports_3","capacity":10000,"empty":0,"full":601,"shortage":53,"booking":53,"fulfillment":0,"port_name":"LeHavre","position":{"lat":49.490002,"lng":0.1},"status":"demand"},{"frame_index":700,"name":"ports_4","capacity":10000,"empty":757,"full":591,"shortage":0,"booking":44,"fulfillment":44,"port_name":"Los Angeles","position":{"lat":34.052235,"lng":-118.243683},"status":"surplus"},{"frame_index":700,"name":"ports_5","capacity":10000,"empty":814,"full":171,"shortage":0,"booking":51,"fulfillment":51,"port_name":"Manzanillo","position":{"lat":19.11695,"lng":-104.34214},"status":"surplus"},{"frame_index":700,"name":"ports_6","capacity":10000,"empty":197,"full":17,"shortage":0,"booking":14,"fulfillment":14,"port_name":"Melbourne","position":{"lat":-37.840935,"lng":144.946457},"status":"surplus"},{"frame_index":700,"name":"ports_7","capacity":10000,"empty":2006,"full":183,"shortage":0,"booking":14,"fulfillment":14,"port_name":"Montreal","position":{"lat":45.516136,"lng":-73.65683},"status":"surplus"},{"frame_index":700,"name":"ports_8","capacity":10000,"empty":12227,"full":484,"shortage":0,"booking":28,"fulfillment":28,"port_name":"New York","position":{"lat":40.73061,"lng":-73.935242},"status":"surplus"},{"frame_index":700,"name":"ports_9","capacity":10000,"empty":1186,"full":100,"shortage":0,"booking":25,"fulfillment":25,"port_name":"Oakland","position":{"lat":37.804363,"lng":-122.271111},"status":"surplus"},{"frame_index":700,"name":"ports_10","capacity":10000,"empty":2965,"full":34,"shortage":0,"booking":11,"fulfillment":11,"port_name":"Prince Rupert","position":{"lat":54.312519,"lng":-130.305405},"status":"surplus"},{"frame_index":700,"name":"ports_11","capacity":10000,"empty":0,"full":1222,"shortage":55,"booking":55,"fulfillment":0,"port_name":"Pusan","position":{"lat":35.166668,"lng":129.066666},"status":"demand"},{"frame_index":700,"name":"ports_12","capacity":10000,"empty":1098,"full":1750,"shortage":0,"booking":64,"fulfillment":64,"port_name":"Qingdao","position":{"lat":36.066898,"lng":120.382698},"status":"surplus"},{"frame_index":700,"name":"ports_13","capacity":10000,"empty":6566,"full":120,"shortage":0,"booking":10,"fulfillment":10,"port_name":"San Antonio","position":{"lat":29.424349,"lng":-98.491142},"status":"surplus"},{"frame_index":700,"name":"ports_14","capacity":10000,"empty":424,"full":138,"shortage":0,"booking":9,"fulfillment":9,"port_name":"Santos","position":{"lat":-23.96083,"lng":-46.33361},"status":"surplus"},{"frame_index":700,"name":"ports_15","capacity":10000,"empty":808,"full":529,"shortage":0,"booking":63,"fulfillment":63,"port_name":"Seattle","position":{"lat":47.608013,"lng":-122.335167},"status":"surplus"},{"frame_index":700,"name":"ports_16","capacity":10000,"empty":325,"full":1196,"shortage":0,"booking":80,"fulfillment":80,"port_name":"Shanghai","position":{"lat":31.224361,"lng":121.46917},"status":"demand"},{"frame_index":700,"name":"ports_17","capacity":10000,"empty":1956,"full":150,"shortage":0,"booking":37,"fulfillment":37,"port_name":"Singapore","position":{"lat":1.29027,"lng":103.851959},"status":"surplus"},{"frame_index":700,"name":"ports_18","capacity":10000,"empty":19,"full":210,"shortage":0,"booking":13,"fulfillment":13,"port_name":"Sydney","position":{"lat":-33.865143,"lng":151.2099},"status":"balance"},{"frame_index":700,"name":"ports_19","capacity":10000,"empty":0,"full":184,"shortage":19,"booking":19,"fulfillment":0,"port_name":"Vancouver","position":{"lat":49.246292,"lng":-123.116226},"status":"demand"},{"frame_index":700,"name":"ports_20","capacity":10000,"empty":0,"full":575,"shortage":50,"booking":63,"fulfillment":13,"port_name":"Yantian","position":{"lat":26.8533,"lng":119.8575},"status":"demand"},{"frame_index":700,"name":"ports_21","capacity":10000,"empty":0,"full":289,"shortage":58,"booking":58,"fulfillment":0,"port_name":"Yokohama","position":{"lat":35.443707,"lng":139.638031},"status":"demand"}]