[{"frame_index":1109,"name":"ports_0","capacity":10000,"empty":803,"full":1325,"shortage":0,"booking":87,"fulfillment":87,"port_name":"Bremerhaven","position":{"lat":53.549999,"lng":8.583333},"status":"surplus"},{"frame_index":1109,"name":"ports_1","capacity":10000,"empty":186,"full":207,"shortage":0,"booking":6,"fulfillment":6,"port_name":"Durban","position":{"lat":-29.8579,"lng":31.0292},"status":"surplus"},{"frame_index":1109,"name":"ports_2","capacity":10000,"empty":307,"full":436,"shortage":0,"booking":5,"fulfillment":5,"port_name":"Itagual","position":{"lat":-22.85222,"lng":-43.77528},"status":"surplus"},{"frame_index":1109,"name":"ports_3","capacity":10000,"empty":1141,"full":914,"shortage":0,"booking":33,"fulfillment":33,"port_name":"LeHavre","position":{"lat":49.490002,"lng":0.1},"status":"surplus"},{"frame_index":1109,"name":"ports_4","capacity":10000,"empty":1097,"full":278,"shortage":0,"booking":27,"fulfillment":27,"port_name":"Los Angeles","position":{"lat":34.052235,"lng":-118.243683},"status":"surplus"},{"frame_index":1109,"name":"ports_5","capacity":10000,"empty":859,"full":708,"shortage":0,"booking":23,"fulfillment":23,"port_name":"Manzanillo","position":{"lat":19.11695,"lng":-104.34214},"status":"surplus"},{"frame_index":1109,"name":"ports_6","capacity":10000,"empty":128,"full":150,"shortage":0,"booking":8,"fulfillment":8,"port_name":"Melbourne","position":{"lat":-37.840935,"lng":144.946457},"status":"surplus"},{"frame_index":1109,"name":"ports_7","capacity":10000,"empty":1786,"full":58,"shortage":0,"booking":8,"fulfillment":8,"port_name":"Montreal","position":{"lat":45.516136,"lng":-73.65683},"status":"surplus"},{"frame_index":1109,"name":"ports_8","capacity":10000,"empty":18091,"full":123,"shortage":0,"booking":15,"fulfillment":15,"port_name":"New York","position":{"lat":40.73061,"lng":-73.935242},"status":"surplus"},{"frame_index":1109,"name":"ports_9","capacity":10000,"empty":916,"full":82,"shortage":0,"booking":17,"fulfillment":17,"port_name":"Oakland","position":{"lat":37.804363,"lng":-122.271111},"status":"surplus"},{"frame_index":1109,"name":"ports_10","capacity":10000,"empty":1468,"full":117,"shortage":0,"booking":9,"fulfillment":9,"port_name":"Prince Rupert","position":{"lat":54.312519,"lng":-130.305405},"status":"surplus"},{"frame_index":1109,"name":"ports_11","capacity":10000,"empty":301,"full":360,"shortage":0,"booking":31,"fulfillment":31,"port_name":"Pusan","position":{"lat":35.166668,"lng":129.066666},"status":"surplus"},{"frame_index":1109,"name":"ports_12","capacity":10000,"empty":3375,"full":1258,"shortage":45,"booking":45,"fulfillment":0,"port_name":"Qingdao","position":{"lat":36.066898,"lng":120.382698},"status":"surplus"},{"frame_index":1109,"name":"ports_13","capacity":10000,"empty":0,"full":273,"shortage":6,"booking":6,"fulfillment":0,"port_name":"San Antonio","position":{"lat":29.424349,"lng":-98.491142},"status":"balance"},{"frame_index":1109,"name":"ports_14","capacity":10000,"empty":588,"full":206,"shortage":0,"booking":6,"fulfillment":6,"port_name":"Santos","position":{"lat":-23.96083,"lng":-46.33361},"status":"surplus"},{"frame_index":1109,"name":"ports_15","capacity":10000,"empty":90,"full":1134,"shortage":0,"booking":38,"fulfillment":38,"port_name":"Seattle","position":{"lat":47.608013,"lng":-122.335167},"status":"demand"},{"frame_index":1109,"name":"ports_16","capacity":10000,"empty":86,"full":519,"shortage":0,"booking":45,"fulfillment":45,"port_name":"Shanghai","position":{"lat":31.224361,"lng":121.46917},"status":"demand"},{"frame_index":1109,"name":"ports_17","capacity":10000,"empty":166,"full":304,"shortage":0,"booking":21,"fulfillment":21,"port_name":"Singapore","position":{"lat":1.29027,"lng":103.851959},"status":"surplus"},{"frame_index":1109,"name":"ports_18","capacity":10000,"empty":0,"full":117,"shortage":9,"booking":9,"fulfillment":0,"port_name":"Sydney","position":{"lat":-33.865143,"lng":151.2099},"status":"balance"},{"frame_index":1109,"name":"ports_19","capacity":10000,"empty":0,"full":477,"shortage":10,"booking":10,"fulfillment":0,"port_name":"Vancouver","position":{"lat":49.246292,"lng":-123.116226},"status":"balance"},{"frame_index":1109,"name":"ports_20","capacity":10000,"empty":101,"full":512,"shortage":0,"booking":38,"fulfillment":38,"port_name":"Yantian","position":{"lat":26.8533,"lng":119.8575},"status":"demand"},{"frame_index":1109,"name":"ports_21","capacity":10000,"empty":41,"full":1036,"shortage":0,"booking":30,"fulfillment":30,"port_name":"Yokohama","position":{"lat":35.443707,"lng":139.638031},"status":"demand"}]