[{"frame_index":189,"name":"ports_0","capacity":10000,"empty":0,"full":947,"shortage":76,"booking":77,"fulfillment":1,"port_name":"Bremerhaven","position":{"lat":53.549999,"lng":8.583333},"status":"demand"},{"frame_index":189,"name":"ports_1","capacity":10000,"empty":408,"full":508,"shortage":0,"booking":6,"fulfillment":6,"port_name":"Durban","position":{"lat":-29.8579,"lng":31.0292},"status":"surplus"},{"frame_index":189,"name":"ports_2","capacity":10000,"empty":349,"full":35,"shortage":0,"booking":7,"fulfillment":7,"port_name":"Itagual","position":{"lat":-22.85222,"lng":-43.77528},"status":"surplus"},{"frame_index":189,"name":"ports_3","capacity":10000,"empty":1427,"full":1658,"shortage":0,"booking":34,"fulfillment":34,"port_name":"LeHavre","position":{"lat":49.490002,"lng":0.1},"status":"surplus"},{"frame_index":189,"name":"ports_4","capacity":10000,"empty":1207,"full":857,"shortage":0,"booking":28,"fulfillment":28,"port_name":"Los Angeles","position":{"lat":34.052235,"lng":-118.243683},"status":"surplus"},{"frame_index":189,"name":"ports_5","capacity":10000,"empty":953,"full":169,"shortage":0,"booking":28,"fulfillment":28,"port_name":"Manzanillo","position":{"lat":19.11695,"lng":-104.34214},"status":"surplus"},{"frame_index":189,"name":"ports_6","capacity":10000,"empty":0,"full":200,"shortage":9,"booking":9,"fulfillment":0,"port_name":"Melbourne","position":{"lat":-37.840935,"lng":144.946457},"status":"balance"},{"frame_index":189,"name":"ports_7","capacity":10000,"empty":171,"full":228,"shortage":0,"booking":9,"fulfillment":9,"port_name":"Montreal","position":{"lat":45.516136,"lng":-73.65683},"status":"surplus"},{"frame_index":189,"name":"ports_8","capacity":10000,"empty":7008,"full":957,"shortage":0,"booking":17,"fulfillment":17,"port_name":"New York","position":{"lat":40.73061,"lng":-73.935242},"status":"surplus"},{"frame_index":189,"name":"ports_9","capacity":10000,"empty":0,"full":1107,"shortage":17,"booking":17,"fulfillment":0,"port_name":"Oakland","position":{"lat":37.804363,"lng":-122.271111},"status":"demand"},{"frame_index":189,"name":"ports_10","capacity":10000,"empty":559,"full":390,"shortage":0,"booking":9,"fulfillment":9,"port_name":"Prince Rupert","position":{"lat":54.312519,"lng":-130.305405},"status":"surplus"},{"frame_index":189,"name":"ports_11","capacity":10000,"empty":2910,"full":786,"shortage":0,"booking":35,"fulfillment":35,"port_name":"Pusan","position":{"lat":35.166668,"lng":129.066666},"status":"surplus"},{"frame_index":189,"name":"ports_12","capacity":10000,"empty":0,"full":1570,"shortage":40,"booking":40,"fulfillment":0,"port_name":"Qingdao","position":{"lat":36.066898,"lng":120.382698},"status":"demand"},{"frame_index":189,"name":"ports_13","capacity":10000,"empty":1059,"full":106,"shortage":0,"booking":7,"fulfillment":7,"port_name":"San Antonio","position":{"lat":29.424349,"lng":-98.491142},"status":"surplus"},{"frame_index":189,"name":"ports_14","capacity":10000,"empty":0,"full":74,"shortage":7,"booking":7,"fulfillment":0,"port_name":"Santos","position":{"lat":-23.96083,"lng":-46.33361},"status":"balance"},{"frame_index":189,"name":"ports_15","capacity":10000,"empty":385,"full":1735,"shortage":0,"booking":41,"fulfillment":41,"port_name":"Seattle","position":{"lat":47.608013,"lng":-122.335167},"status":"surplus"},{"frame_index":189,"name":"ports_16","capacity":10000,"empty":699,"full":938,"shortage":66,"booking":66,"fulfillment":0,"port_name":"Shanghai","position":{"lat":31.224361,"lng":121.46917},"status":"surplus"},{"frame_index":189,"name":"ports_17","capacity":10000,"empty":169,"full":558,"shortage":0,"booking":24,"fulfillment":24,"port_name":"Singapore","position":{"lat":1.29027,"lng":103.851959},"status":"balance"},{"frame_index":189,"name":"ports_18","capacity":10000,"empty":480,"full":170,"shortage":0,"booking":9,"fulfillment":9,"port_name":"Sydney","position":{"lat":-33.865143,"lng":151.2099},"status":"surplus"},{"frame_index":189,"name":"ports_19","capacity":10000,"empty":679,"full":66,"shortage":0,"booking":12,"fulfillment":12,"port_name":"Vancouver","position":{"lat":49.246292,"lng":-123.116226},"status":"surplus"},{"frame_index":189,"name":"ports_20","capacity":10000,"empty":908,"full":1085,"shortage":0,"booking":36,"fulfillment":36,"port_name":"Yantian","position":{"lat":26.8533,"lng":119.8575},"status":"surplus"},{"frame_index":189,"name":"ports_21","capacity":10000,"empty":0,"full":659,"shortage":33,"booking":33,"fulfillment":0,"port_name":"Yokohama","position":{"lat":35.443707,"lng":139.638031},"status":"demand"}]