[{"frame_index":901,"name":"ports_0","capacity":10000,"empty":0,"full":435,"shortage":0,"booking":66,"fulfillment":66,"port_name":"Bremerhaven","position":{"lat":53.549999,"lng":8.583333},"status":"demand"},{"frame_index":901,"name":"ports_1","capacity":10000,"empty":443,"full":0,"shortage":0,"booking":4,"fulfillment":4,"port_name":"Durban","position":{"lat":-29.8579,"lng":31.0292},"status":"surplus"},{"frame_index":901,"name":"ports_2","capacity":10000,"empty":78,"full":5,"shortage":0,"booking":5,"fulfillment":5,"port_name":"Itagual","position":{"lat":-22.85222,"lng":-43.77528},"status":"surplus"},{"frame_index":901,"name":"ports_3","capacity":10000,"empty":991,"full":951,"shortage":0,"booking":26,"fulfillment":26,"port_name":"LeHavre","position":{"lat":49.490002,"lng":0.1},"status":"surplus"},{"frame_index":901,"name":"ports_4","capacity":10000,"empty":395,"full":467,"shortage":0,"booking":22,"fulfillment":22,"port_name":"Los Angeles","position":{"lat":34.052235,"lng":-118.243683},"status":"surplus"},{"frame_index":901,"name":"ports_5","capacity":10000,"empty":993,"full":15,"shortage":0,"booking":22,"fulfillment":22,"port_name":"Manzanillo","position":{"lat":19.11695,"lng":-104.34214},"status":"surplus"},{"frame_index":901,"name":"ports_6","capacity":10000,"empty":209,"full":41,"shortage":0,"booking":7,"fulfillment":7,"port_name":"Melbourne","position":{"lat":-37.840935,"lng":144.946457},"status":"surplus"},{"frame_index":901,"name":"ports_7","capacity":10000,"empty":2145,"full":63,"shortage":0,"booking":7,"fulfillment":7,"port_name":"Montreal","position":{"lat":45.516136,"lng":-73.65683},"status":"surplus"},{"frame_index":901,"name":"ports_8","capacity":10000,"empty":11932,"full":192,"shortage":0,"booking":12,"fulfillment":12,"port_name":"New York","position":{"lat":40.73061,"lng":-73.935242},"status":"surplus"},{"frame_index":901,"name":"ports_9","capacity":10000,"empty":1940,"full":22,"shortage":0,"booking":13,"fulfillment":13,"port_name":"Oakland","position":{"lat":37.804363,"lng":-122.271111},"status":"surplus"},{"frame_index":901,"name":"ports_10","capacity":10000,"empty":3652,"full":94,"shortage":0,"booking":7,"fulfillment":7,"port_name":"Prince Rupert","position":{"lat":54.312519,"lng":-130.305405},"status":"surplus"},{"frame_index":901,"name":"ports_11","capacity":10000,"empty":0,"full":1081,"shortage":27,"booking":27,"fulfillment":0,"port_name":"Pusan","position":{"lat":35.166668,"lng":129.066666},"status":"demand"},{"frame_index":901,"name":"ports_12","capacity":10000,"empty":2256,"full":246,"shortage":0,"booking":31,"fulfillment":31,"port_name":"Qingdao","position":{"lat":36.066898,"lng":120.382698},"status":"surplus"},{"frame_index":901,"name":"ports_13","capacity":10000,"empty":347,"full":114,"shortage":0,"booking":5,"fulfillment":5,"port_name":"San Antonio","position":{"lat":29.424349,"lng":-98.491142},"status":"surplus"},{"frame_index":901,"name":"ports_14","capacity":10000,"empty":641,"full":18,"shortage":0,"booking":5,"fulfillment":5,"port_name":"Santos","position":{"lat":-23.96083,"lng":-46.33361},"status":"surplus"},{"frame_index":901,"name":"ports_15","capacity":10000,"empty":2387,"full":279,"shortage":0,"booking":31,"fulfillment":31,"port_name":"Seattle","position":{"lat":47.608013,"lng":-122.335167},"status":"surplus"},{"frame_index":901,"name":"ports_16","capacity":10000,"empty":0,"full":2042,"shortage":47,"booking":48,"fulfillment":1,"port_name":"Shanghai","position":{"lat":31.224361,"lng":121.46917},"status":"demand"},{"frame_index":901,"name":"ports_17","capacity":10000,"empty":2400,"full":241,"shortage":0,"booking":18,"fulfillment":18,"port_name":"Singapore","position":{"lat":1.29027,"lng":103.851959},"status":"surplus"},{"frame_index":901,"name":"ports_18","capacity":10000,"empty":91,"full":98,"shortage":0,"booking":8,"fulfillment":8,"port_name":"Sydney","position":{"lat":-33.865143,"lng":151.2099},"status":"surplus"},{"frame_index":901,"name":"ports_19","capacity":10000,"empty":264,"full":111,"shortage":0,"booking":9,"fulfillment":9,"port_name":"Vancouver","position":{"lat":49.246292,"lng":-123.116226},"status":"surplus"},{"frame_index":901,"name":"ports_20","capacity":10000,"empty":308,"full":1202,"shortage":0,"booking":29,"fulfillment":29,"port_name":"Yantian","position":{"lat":26.8533,"lng":119.8575},"status":"surplus"},{"frame_index":901,"name":"ports_21","capacity":10000,"empty":257,"full":111,"shortage":0,"booking":26,"fulfillment":26,"port_name":"Yokohama","position":{"lat":35.443707,"lng":139.638031},"status":"surplus"}]