[{"frame_index":944,"name":"ports_0","capacity":10000,"empty":0,"full":811,"shortage":119,"booking":119,"fulfillment":0,"port_name":"Bremerhaven","position":{"lat":53.549999,"lng":8.583333},"status":"demand"},{"frame_index":944,"name":"ports_1","capacity":10000,"empty":381,"full":227,"shortage":0,"booking":10,"fulfillment":10,"port_name":"Durban","position":{"lat":-29.8579,"lng":31.0292},"status":"surplus"},{"frame_index":944,"name":"ports_2","capacity":10000,"empty":380,"full":185,"shortage":0,"booking":10,"fulfillment":10,"port_name":"Itagual","position":{"lat":-22.85222,"lng":-43.77528},"status":"surplus"},{"frame_index":944,"name":"ports_3","capacity":10000,"empty":1284,"full":1875,"shortage":0,"booking":53,"fulfillment":53,"port_name":"LeHavre","position":{"lat":49.490002,"lng":0.1},"status":"surplus"},{"frame_index":944,"name":"ports_4","capacity":10000,"empty":1011,"full":1124,"shortage":0,"booking":44,"fulfillment":44,"port_name":"Los Angeles","position":{"lat":34.052235,"lng":-118.243683},"status":"surplus"},{"frame_index":944,"name":"ports_5","capacity":10000,"empty":0,"full":420,"shortage":50,"booking":50,"fulfillment":0,"port_name":"Manzanillo","position":{"lat":19.11695,"lng":-104.34214},"status":"demand"},{"frame_index":944,"name":"ports_6","capacity":10000,"empty":0,"full":299,"shortage":14,"booking":14,"fulfillment":0,"port_name":"Melbourne","position":{"lat":-37.840935,"lng":144.946457},"status":"demand"},{"frame_index":944,"name":"ports_7","capacity":10000,"empty":1808,"full":498,"shortage":0,"booking":14,"fulfillment":14,"port_name":"Montreal","position":{"lat":45.516136,"lng":-73.65683},"status":"surplus"},{"frame_index":944,"name":"ports_8","capacity":10000,"empty":16983,"full":260,"shortage":0,"booking":25,"fulfillment":25,"port_name":"New York","position":{"lat":40.73061,"lng":-73.935242},"status":"surplus"},{"frame_index":944,"name":"ports_9","capacity":10000,"empty":2391,"full":435,"shortage":0,"booking":23,"fulfillment":23,"port_name":"Oakland","position":{"lat":37.804363,"lng":-122.271111},"status":"surplus"},{"frame_index":944,"name":"ports_10","capacity":10000,"empty":1904,"full":257,"shortage":0,"booking":15,"fulfillment":15,"port_name":"Prince Rupert","position":{"lat":54.312519,"lng":-130.305405},"status":"surplus"},{"frame_index":944,"name":"ports_11","capacity":10000,"empty":1564,"full":192,"shortage":0,"booking":56,"fulfillment":56,"port_name":"Pusan","position":{"lat":35.166668,"lng":129.066666},"status":"surplus"},{"frame_index":944,"name":"ports_12","capacity":10000,"empty":0,"full":948,"shortage":72,"booking":72,"fulfillment":0,"port_name":"Qingdao","position":{"lat":36.066898,"lng":120.382698},"status":"demand"},{"frame_index":944,"name":"ports_13","capacity":10000,"empty":1128,"full":138,"shortage":0,"booking":9,"fulfillment":9,"port_name":"San Antonio","position":{"lat":29.424349,"lng":-98.491142},"status":"surplus"},{"frame_index":944,"name":"ports_14","capacity":10000,"empty":282,"full":368,"shortage":0,"booking":9,"fulfillment":9,"port_name":"Santos","position":{"lat":-23.96083,"lng":-46.33361},"status":"surplus"},{"frame_index":944,"name":"ports_15","capacity":10000,"empty":173,"full":716,"shortage":63,"booking":63,"fulfillment":0,"port_name":"Seattle","position":{"lat":47.608013,"lng":-122.335167},"status":"demand"},{"frame_index":944,"name":"ports_16","capacity":10000,"empty":620,"full":425,"shortage":0,"booking":97,"fulfillment":97,"port_name":"Shanghai","position":{"lat":31.224361,"lng":121.46917},"status":"surplus"},{"frame_index":944,"name":"ports_17","capacity":10000,"empty":434,"full":953,"shortage":0,"booking":35,"fulfillment":35,"port_name":"Singapore","position":{"lat":1.29027,"lng":103.851959},"status":"surplus"},{"frame_index":944,"name":"ports_18","capacity":10000,"empty":70,"full":71,"shortage":0,"booking":15,"fulfillment":15,"port_name":"Sydney","position":{"lat":-33.865143,"lng":151.2099},"status":"balance"},{"frame_index":944,"name":"ports_19","capacity":10000,"empty":0,"full":411,"shortage":18,"booking":18,"fulfillment":0,"port_name":"Vancouver","position":{"lat":49.246292,"lng":-123.116226},"status":"demand"},{"frame_index":944,"name":"ports_20","capacity":10000,"empty":1545,"full":379,"shortage":0,"booking":65,"fulfillment":65,"port_name":"Yantian","position":{"lat":26.8533,"lng":119.8575},"status":"surplus"},{"frame_index":944,"name":"ports_21","capacity":10000,"empty":0,"full":487,"shortage":58,"booking":58,"fulfillment":0,"port_name":"Yokohama","position":{"lat":35.443707,"lng":139.638031},"status":"demand"}]