[{"frame_index":1040,"name":"ports_0","capacity":10000,"empty":4468,"full":1376,"shortage":0,"booking":199,"fulfillment":199,"port_name":"Bremerhaven","position":{"lat":53.549999,"lng":8.583333},"status":"surplus"},{"frame_index":1040,"name":"ports_1","capacity":10000,"empty":255,"full":23,"shortage":0,"booking":13,"fulfillment":13,"port_name":"Durban","position":{"lat":-29.8579,"lng":31.0292},"status":"surplus"},{"frame_index":1040,"name":"ports_2","capacity":10000,"empty":0,"full":364,"shortage":12,"booking":12,"fulfillment":0,"port_name":"Itagual","position":{"lat":-22.85222,"lng":-43.77528},"status":"demand"},{"frame_index":1040,"name":"ports_3","capacity":10000,"empty":18,"full":843,"shortage":0,"booking":72,"fulfillment":72,"port_name":"LeHavre","position":{"lat":49.490002,"lng":0.1},"status":"demand"},{"frame_index":1040,"name":"ports_4","capacity":10000,"empty":0,"full":676,"shortage":59,"booking":59,"fulfillment":0,"port_name":"Los Angeles","position":{"lat":34.052235,"lng":-118.243683},"status":"demand"},{"frame_index":1040,"name":"ports_5","capacity":10000,"empty":2310,"full":528,"shortage":0,"booking":55,"fulfillment":55,"port_name":"Manzanillo","position":{"lat":19.11695,"lng":-104.34214},"status":"surplus"},{"frame_index":1040,"name":"ports_6","capacity":10000,"empty":0,"full":172,"shortage":19,"booking":19,"fulfillment":0,"port_name":"Melbourne","position":{"lat":-37.840935,"lng":144.946457},"status":"demand"},{"frame_index":1040,"name":"ports_7","capacity":10000,"empty":1883,"full":164,"shortage":0,"booking":18,"fulfillment":18,"port_name":"Montreal","position":{"lat":45.516136,"lng":-73.65683},"status":"surplus"},{"frame_index":1040,"name":"ports_8","capacity":10000,"empty":16103,"full":290,"shortage":0,"booking":37,"fulfillment":37,"port_name":"New York","position":{"lat":40.73061,"lng":-73.935242},"status":"surplus"},{"frame_index":1040,"name":"ports_9","capacity":10000,"empty":1826,"full":367,"shortage":0,"booking":39,"fulfillment":39,"port_name":"Oakland","position":{"lat":37.804363,"lng":-122.271111},"status":"surplus"},{"frame_index":1040,"name":"ports_10","capacity":10000,"empty":1340,"full":216,"shortage":0,"booking":21,"fulfillment":21,"port_name":"Prince Rupert","position":{"lat":54.312519,"lng":-130.305405},"status":"surplus"},{"frame_index":1040,"name":"ports_11","capacity":10000,"empty":333,"full":1079,"shortage":0,"booking":70,"fulfillment":70,"port_name":"Pusan","position":{"lat":35.166668,"lng":129.066666},"status":"balance"},{"frame_index":1040,"name":"ports_12","capacity":10000,"empty":47,"full":383,"shortage":0,"booking":90,"fulfillment":90,"port_name":"Qingdao","position":{"lat":36.066898,"lng":120.382698},"status":"demand"},{"frame_index":1040,"name":"ports_13","capacity":10000,"empty":0,"full":154,"shortage":13,"booking":13,"fulfillment":0,"port_name":"San Antonio","position":{"lat":29.424349,"lng":-98.491142},"status":"demand"},{"frame_index":1040,"name":"ports_14","capacity":10000,"empty":269,"full":137,"shortage":0,"booking":10,"fulfillment":10,"port_name":"Santos","position":{"lat":-23.96083,"lng":-46.33361},"status":"surplus"},{"frame_index":1040,"name":"ports_15","capacity":10000,"empty":1035,"full":680,"shortage":0,"booking":83,"fulfillment":83,"port_name":"Seattle","position":{"lat":47.608013,"lng":-122.335167},"status":"surplus"},{"frame_index":1040,"name":"ports_16","capacity":10000,"empty":0,"full":1362,"shortage":122,"booking":122,"fulfillment":0,"port_name":"Shanghai","position":{"lat":31.224361,"lng":121.46917},"status":"demand"},{"frame_index":1040,"name":"ports_17","capacity":10000,"empty":653,"full":481,"shortage":0,"booking":49,"fulfillment":49,"port_name":"Singapore","position":{"lat":1.29027,"lng":103.851959},"status":"surplus"},{"frame_index":1040,"name":"ports_18","capacity":10000,"empty":197,"full":188,"shortage":0,"booking":18,"fulfillment":18,"port_name":"Sydney","position":{"lat":-33.865143,"lng":151.2099},"status":"surplus"},{"frame_index":1040,"name":"ports_19","capacity":10000,"empty":621,"full":77,"shortage":0,"booking":22,"fulfillment":22,"port_name":"Vancouver","position":{"lat":49.246292,"lng":-123.116226},"status":"surplus"},{"frame_index":1040,"name":"ports_20","capacity":10000,"empty":0,"full":720,"shortage":80,"booking":80,"fulfillment":0,"port_name":"Yantian","position":{"lat":26.8533,"lng":119.8575},"status":"demand"},{"frame_index":1040,"name":"ports_21","capacity":10000,"empty":0,"full":386,"shortage":83,"booking":83,"fulfillment":0,"port_name":"Yokohama","position":{"lat":35.443707,"lng":139.638031},"status":"demand"}]