[{"frame_index":862,"name":"ports_0","capacity":10000,"empty":3271,"full":1755,"shortage":0,"booking":44,"fulfillment":44,"port_name":"Bremerhaven","position":{"lat":53.549999,"lng":8.583333},"status":"surplus"},{"frame_index":862,"name":"ports_1","capacity":10000,"empty":109,"full":209,"shortage":0,"booking":3,"fulfillment":3,"port_name":"Durban","position":{"lat":-29.8579,"lng":31.0292},"status":"surplus"},{"frame_index":862,"name":"ports_2","capacity":10000,"empty":262,"full":228,"shortage":0,"booking":3,"fulfillment":3,"port_name":"Itagual","position":{"lat":-22.85222,"lng":-43.77528},"status":"surplus"},{"frame_index":862,"name":"ports_3","capacity":10000,"empty":0,"full":1092,"shortage":16,"booking":16,"fulfillment":0,"port_name":"LeHavre","position":{"lat":49.490002,"lng":0.1},"status":"demand"},{"frame_index":862,"name":"ports_4","capacity":10000,"empty":416,"full":1996,"shortage":0,"booking":14,"fulfillment":14,"port_name":"Los Angeles","position":{"lat":34.052235,"lng":-118.243683},"status":"surplus"},{"frame_index":862,"name":"ports_5","capacity":10000,"empty":0,"full":72,"shortage":14,"booking":14,"fulfillment":0,"port_name":"Manzanillo","position":{"lat":19.11695,"lng":-104.34214},"status":"demand"},{"frame_index":862,"name":"ports_6","capacity":10000,"empty":0,"full":85,"shortage":4,"booking":4,"fulfillment":0,"port_name":"Melbourne","position":{"lat":-37.840935,"lng":144.946457},"status":"balance"},{"frame_index":862,"name":"ports_7","capacity":10000,"empty":1793,"full":274,"shortage":0,"booking":4,"fulfillment":4,"port_name":"Montreal","position":{"lat":45.516136,"lng":-73.65683},"status":"surplus"},{"frame_index":862,"name":"ports_8","capacity":10000,"empty":10579,"full":469,"shortage":0,"booking":8,"fulfillment":8,"port_name":"New York","position":{"lat":40.73061,"lng":-73.935242},"status":"surplus"},{"frame_index":862,"name":"ports_9","capacity":10000,"empty":370,"full":885,"shortage":0,"booking":8,"fulfillment":8,"port_name":"Oakland","position":{"lat":37.804363,"lng":-122.271111},"status":"surplus"},{"frame_index":862,"name":"ports_10","capacity":10000,"empty":3278,"full":206,"shortage":0,"booking":5,"fulfillment":5,"port_name":"Prince Rupert","position":{"lat":54.312519,"lng":-130.305405},"status":"surplus"},{"frame_index":862,"name":"ports_11","capacity":10000,"empty":0,"full":775,"shortage":16,"booking":16,"fulfillment":0,"port_name":"Pusan","position":{"lat":35.166668,"lng":129.066666},"status":"demand"},{"frame_index":862,"name":"ports_12","capacity":10000,"empty":12,"full":2540,"shortage":22,"booking":22,"fulfillment":0,"port_name":"Qingdao","position":{"lat":36.066898,"lng":120.382698},"status":"demand"},{"frame_index":862,"name":"ports_13","capacity":10000,"empty":1201,"full":200,"shortage":0,"booking":3,"fulfillment":3,"port_name":"San Antonio","position":{"lat":29.424349,"lng":-98.491142},"status":"surplus"},{"frame_index":862,"name":"ports_14","capacity":10000,"empty":58,"full":416,"shortage":0,"booking":4,"fulfillment":4,"port_name":"Santos","position":{"lat":-23.96083,"lng":-46.33361},"status":"balance"},{"frame_index":862,"name":"ports_15","capacity":10000,"empty":543,"full":263,"shortage":0,"booking":19,"fulfillment":19,"port_name":"Seattle","position":{"lat":47.608013,"lng":-122.335167},"status":"surplus"},{"frame_index":862,"name":"ports_16","capacity":10000,"empty":250,"full":2056,"shortage":0,"booking":25,"fulfillment":25,"port_name":"Shanghai","position":{"lat":31.224361,"lng":121.46917},"status":"surplus"},{"frame_index":862,"name":"ports_17","capacity":10000,"empty":0,"full":863,"shortage":11,"booking":11,"fulfillment":0,"port_name":"Singapore","position":{"lat":1.29027,"lng":103.851959},"status":"demand"},{"frame_index":862,"name":"ports_18","capacity":10000,"empty":0,"full":287,"shortage":5,"booking":5,"fulfillment":0,"port_name":"Sydney","position":{"lat":-33.865143,"lng":151.2099},"status":"balance"},{"frame_index":862,"name":"ports_19","capacity":10000,"empty":0,"full":175,"shortage":6,"booking":6,"fulfillment":0,"port_name":"Vancouver","position":{"lat":49.246292,"lng":-123.116226},"status":"balance"},{"frame_index":862,"name":"ports_20","capacity":10000,"empty":149,"full":738,"shortage":0,"booking":17,"fulfillment":17,"port_name":"Yantian","position":{"lat":26.8533,"lng":119.8575},"status":"surplus"},{"frame_index":862,"name":"ports_21","capacity":10000,"empty":381,"full":81,"shortage":0,"booking":13,"fulfillment":13,"port_name":"Yokohama","position":{"lat":35.443707,"lng":139.638031},"status":"surplus"}]