[{"frame_index":360,"name":"ports_0","capacity":10000,"empty":4692,"full":577,"shortage":0,"booking":93,"fulfillment":93,"port_name":"Bremerhaven","position":{"lat":53.549999,"lng":8.583333},"status":"surplus"},{"frame_index":360,"name":"ports_1","capacity":10000,"empty":820,"full":121,"shortage":0,"booking":8,"fulfillment":8,"port_name":"Durban","position":{"lat":-29.8579,"lng":31.0292},"status":"surplus"},{"frame_index":360,"name":"ports_2","capacity":10000,"empty":0,"full":186,"shortage":7,"booking":7,"fulfillment":0,"port_name":"Itagual","position":{"lat":-22.85222,"lng":-43.77528},"status":"balance"},{"frame_index":360,"name":"ports_3","capacity":10000,"empty":1331,"full":96,"shortage":0,"booking":42,"fulfillment":42,"port_name":"LeHavre","position":{"lat":49.490002,"lng":0.1},"status":"surplus"},{"frame_index":360,"name":"ports_4","capacity":10000,"empty":2534,"full":60,"shortage":0,"booking":34,"fulfillment":34,"port_name":"Los Angeles","position":{"lat":34.052235,"lng":-118.243683},"status":"surplus"},{"frame_index":360,"name":"ports_5","capacity":10000,"empty":742,"full":153,"shortage":0,"booking":30,"fulfillment":30,"port_name":"Manzanillo","position":{"lat":19.11695,"lng":-104.34214},"status":"surplus"},{"frame_index":360,"name":"ports_6","capacity":10000,"empty":82,"full":86,"shortage":0,"booking":11,"fulfillment":11,"port_name":"Melbourne","position":{"lat":-37.840935,"lng":144.946457},"status":"balance"},{"frame_index":360,"name":"ports_7","capacity":10000,"empty":1093,"full":19,"shortage":0,"booking":11,"fulfillment":11,"port_name":"Montreal","position":{"lat":45.516136,"lng":-73.65683},"status":"surplus"},{"frame_index":360,"name":"ports_8","capacity":10000,"empty":7416,"full":37,"shortage":0,"booking":19,"fulfillment":19,"port_name":"New York","position":{"lat":40.73061,"lng":-73.935242},"status":"surplus"},{"frame_index":360,"name":"ports_9","capacity":10000,"empty":1137,"full":1186,"shortage":0,"booking":24,"fulfillment":24,"port_name":"Oakland","position":{"lat":37.804363,"lng":-122.271111},"status":"surplus"},{"frame_index":360,"name":"ports_10","capacity":10000,"empty":3082,"full":124,"shortage":0,"booking":12,"fulfillment":12,"port_name":"Prince Rupert","position":{"lat":54.312519,"lng":-130.305405},"status":"surplus"},{"frame_index":360,"name":"ports_11","capacity":10000,"empty":195,"full":553,"shortage":0,"booking":40,"fulfillment":40,"port_name":"Pusan","position":{"lat":35.166668,"lng":129.066666},"status":"balance"},{"frame_index":360,"name":"ports_12","capacity":10000,"empty":773,"full":651,"shortage":0,"booking":59,"fulfillment":59,"port_name":"Qingdao","position":{"lat":36.066898,"lng":120.382698},"status":"surplus"},{"frame_index":360,"name":"ports_13","capacity":10000,"empty":15,"full":65,"shortage":0,"booking":7,"fulfillment":7,"port_name":"San Antonio","position":{"lat":29.424349,"lng":-98.491142},"status":"balance"},{"frame_index":360,"name":"ports_14","capacity":10000,"empty":1157,"full":118,"shortage":0,"booking":7,"fulfillment":7,"port_name":"Santos","position":{"lat":-23.96083,"lng":-46.33361},"status":"surplus"},{"frame_index":360,"name":"ports_15","capacity":10000,"empty":226,"full":725,"shortage":0,"booking":46,"fulfillment":46,"port_name":"Seattle","position":{"lat":47.608013,"lng":-122.335167},"status":"balance"},{"frame_index":360,"name":"ports_16","capacity":10000,"empty":1971,"full":887,"shortage":0,"booking":64,"fulfillment":64,"port_name":"Shanghai","position":{"lat":31.224361,"lng":121.46917},"status":"surplus"},{"frame_index":360,"name":"ports_17","capacity":10000,"empty":43,"full":157,"shortage":0,"booking":27,"fulfillment":27,"port_name":"Singapore","position":{"lat":1.29027,"lng":103.851959},"status":"demand"},{"frame_index":360,"name":"ports_18","capacity":10000,"empty":38,"full":247,"shortage":0,"booking":11,"fulfillment":11,"port_name":"Sydney","position":{"lat":-33.865143,"lng":151.2099},"status":"balance"},{"frame_index":360,"name":"ports_19","capacity":10000,"empty":1057,"full":104,"shortage":0,"booking":14,"fulfillment":14,"port_name":"Vancouver","position":{"lat":49.246292,"lng":-123.116226},"status":"surplus"},{"frame_index":360,"name":"ports_20","capacity":10000,"empty":61,"full":551,"shortage":0,"booking":47,"fulfillment":47,"port_name":"Yantian","position":{"lat":26.8533,"lng":119.8575},"status":"demand"},{"frame_index":360,"name":"ports_21","capacity":10000,"empty":794,"full":449,"shortage":0,"booking":41,"fulfillment":41,"port_name":"Yokohama","position":{"lat":35.443707,"lng":139.638031},"status":"surplus"}]