[{"frame_index":677,"name":"ports_0","capacity":10000,"empty":2120,"full":3305,"shortage":0,"booking":71,"fulfillment":71,"port_name":"Bremerhaven","position":{"lat":53.549999,"lng":8.583333},"status":"surplus"},{"frame_index":677,"name":"ports_1","capacity":10000,"empty":61,"full":170,"shortage":0,"booking":5,"fulfillment":5,"port_name":"Durban","position":{"lat":-29.8579,"lng":31.0292},"status":"balance"},{"frame_index":677,"name":"ports_2","capacity":10000,"empty":644,"full":116,"shortage":0,"booking":5,"fulfillment":5,"port_name":"Itagual","position":{"lat":-22.85222,"lng":-43.77528},"status":"surplus"},{"frame_index":677,"name":"ports_3","capacity":10000,"empty":424,"full":141,"shortage":0,"booking":27,"fulfillment":27,"port_name":"LeHavre","position":{"lat":49.490002,"lng":0.1},"status":"surplus"},{"frame_index":677,"name":"ports_4","capacity":10000,"empty":1816,"full":662,"shortage":0,"booking":24,"fulfillment":24,"port_name":"Los Angeles","position":{"lat":34.052235,"lng":-118.243683},"status":"surplus"},{"frame_index":677,"name":"ports_5","capacity":10000,"empty":1037,"full":60,"shortage":0,"booking":26,"fulfillment":26,"port_name":"Manzanillo","position":{"lat":19.11695,"lng":-104.34214},"status":"surplus"},{"frame_index":677,"name":"ports_6","capacity":10000,"empty":60,"full":43,"shortage":0,"booking":7,"fulfillment":7,"port_name":"Melbourne","position":{"lat":-37.840935,"lng":144.946457},"status":"balance"},{"frame_index":677,"name":"ports_7","capacity":10000,"empty":2201,"full":8,"shortage":0,"booking":7,"fulfillment":7,"port_name":"Montreal","position":{"lat":45.516136,"lng":-73.65683},"status":"surplus"},{"frame_index":677,"name":"ports_8","capacity":10000,"empty":12609,"full":114,"shortage":0,"booking":13,"fulfillment":13,"port_name":"New York","position":{"lat":40.73061,"lng":-73.935242},"status":"surplus"},{"frame_index":677,"name":"ports_9","capacity":10000,"empty":1071,"full":331,"shortage":0,"booking":14,"fulfillment":14,"port_name":"Oakland","position":{"lat":37.804363,"lng":-122.271111},"status":"surplus"},{"frame_index":677,"name":"ports_10","capacity":10000,"empty":2491,"full":4,"shortage":0,"booking":8,"fulfillment":8,"port_name":"Prince Rupert","position":{"lat":54.312519,"lng":-130.305405},"status":"surplus"},{"frame_index":677,"name":"ports_11","capacity":10000,"empty":434,"full":751,"shortage":0,"booking":27,"fulfillment":27,"port_name":"Pusan","position":{"lat":35.166668,"lng":129.066666},"status":"surplus"},{"frame_index":677,"name":"ports_12","capacity":10000,"empty":2821,"full":1147,"shortage":0,"booking":35,"fulfillment":35,"port_name":"Qingdao","position":{"lat":36.066898,"lng":120.382698},"status":"surplus"},{"frame_index":677,"name":"ports_13","capacity":10000,"empty":2648,"full":33,"shortage":0,"booking":5,"fulfillment":5,"port_name":"San Antonio","position":{"lat":29.424349,"lng":-98.491142},"status":"surplus"},{"frame_index":677,"name":"ports_14","capacity":10000,"empty":560,"full":7,"shortage":0,"booking":6,"fulfillment":6,"port_name":"Santos","position":{"lat":-23.96083,"lng":-46.33361},"status":"surplus"},{"frame_index":677,"name":"ports_15","capacity":10000,"empty":1672,"full":51,"shortage":0,"booking":33,"fulfillment":33,"port_name":"Seattle","position":{"lat":47.608013,"lng":-122.335167},"status":"surplus"},{"frame_index":677,"name":"ports_16","capacity":10000,"empty":573,"full":746,"shortage":0,"booking":49,"fulfillment":49,"port_name":"Shanghai","position":{"lat":31.224361,"lng":121.46917},"status":"surplus"},{"frame_index":677,"name":"ports_17","capacity":10000,"empty":111,"full":186,"shortage":0,"booking":18,"fulfillment":18,"port_name":"Singapore","position":{"lat":1.29027,"lng":103.851959},"status":"balance"},{"frame_index":677,"name":"ports_18","capacity":10000,"empty":215,"full":22,"shortage":0,"booking":7,"fulfillment":7,"port_name":"Sydney","position":{"lat":-33.865143,"lng":151.2099},"status":"surplus"},{"frame_index":677,"name":"ports_19","capacity":10000,"empty":316,"full":20,"shortage":0,"booking":9,"fulfillment":9,"port_name":"Vancouver","position":{"lat":49.246292,"lng":-123.116226},"status":"surplus"},{"frame_index":677,"name":"ports_20","capacity":10000,"empty":402,"full":470,"shortage":0,"booking":31,"fulfillment":31,"port_name":"Yantian","position":{"lat":26.8533,"lng":119.8575},"status":"surplus"},{"frame_index":677,"name":"ports_21","capacity":10000,"empty":0,"full":23,"shortage":5,"booking":26,"fulfillment":21,"port_name":"Yokohama","position":{"lat":35.443707,"lng":139.638031},"status":"demand"}]