[{"frame_index":192,"name":"ports_0","capacity":10000,"empty":570,"full":1052,"shortage":0,"booking":118,"fulfillment":118,"port_name":"Bremerhaven","position":{"lat":53.549999,"lng":8.583333},"status":"balance"},{"frame_index":192,"name":"ports_1","capacity":10000,"empty":390,"full":528,"shortage":0,"booking":7,"fulfillment":7,"port_name":"Durban","position":{"lat":-29.8579,"lng":31.0292},"status":"surplus"},{"frame_index":192,"name":"ports_2","capacity":10000,"empty":77,"full":15,"shortage":0,"booking":6,"fulfillment":6,"port_name":"Itagual","position":{"lat":-22.85222,"lng":-43.77528},"status":"balance"},{"frame_index":192,"name":"ports_3","capacity":10000,"empty":1326,"full":1762,"shortage":0,"booking":38,"fulfillment":38,"port_name":"LeHavre","position":{"lat":49.490002,"lng":0.1},"status":"surplus"},{"frame_index":192,"name":"ports_4","capacity":10000,"empty":1122,"full":920,"shortage":0,"booking":32,"fulfillment":32,"port_name":"Los Angeles","position":{"lat":34.052235,"lng":-118.243683},"status":"surplus"},{"frame_index":192,"name":"ports_5","capacity":10000,"empty":864,"full":256,"shortage":0,"booking":35,"fulfillment":35,"port_name":"Manzanillo","position":{"lat":19.11695,"lng":-104.34214},"status":"surplus"},{"frame_index":192,"name":"ports_6","capacity":10000,"empty":0,"full":200,"shortage":10,"booking":10,"fulfillment":0,"port_name":"Melbourne","position":{"lat":-37.840935,"lng":144.946457},"status":"balance"},{"frame_index":192,"name":"ports_7","capacity":10000,"empty":144,"full":254,"shortage":0,"booking":10,"fulfillment":10,"port_name":"Montreal","position":{"lat":45.516136,"lng":-73.65683},"status":"surplus"},{"frame_index":192,"name":"ports_8","capacity":10000,"empty":6958,"full":1018,"shortage":0,"booking":19,"fulfillment":19,"port_name":"New York","position":{"lat":40.73061,"lng":-73.935242},"status":"surplus"},{"frame_index":192,"name":"ports_9","capacity":10000,"empty":1240,"full":0,"shortage":0,"booking":18,"fulfillment":18,"port_name":"Oakland","position":{"lat":37.804363,"lng":-122.271111},"status":"surplus"},{"frame_index":192,"name":"ports_10","capacity":10000,"empty":530,"full":417,"shortage":0,"booking":12,"fulfillment":12,"port_name":"Prince Rupert","position":{"lat":54.312519,"lng":-130.305405},"status":"surplus"},{"frame_index":192,"name":"ports_11","capacity":10000,"empty":2808,"full":889,"shortage":0,"booking":38,"fulfillment":38,"port_name":"Pusan","position":{"lat":35.166668,"lng":129.066666},"status":"surplus"},{"frame_index":192,"name":"ports_12","capacity":10000,"empty":0,"full":1570,"shortage":55,"booking":55,"fulfillment":0,"port_name":"Qingdao","position":{"lat":36.066898,"lng":120.382698},"status":"demand"},{"frame_index":192,"name":"ports_13","capacity":10000,"empty":1098,"full":7,"shortage":0,"booking":6,"fulfillment":6,"port_name":"San Antonio","position":{"lat":29.424349,"lng":-98.491142},"status":"surplus"},{"frame_index":192,"name":"ports_14","capacity":10000,"empty":0,"full":74,"shortage":6,"booking":6,"fulfillment":0,"port_name":"Santos","position":{"lat":-23.96083,"lng":-46.33361},"status":"balance"},{"frame_index":192,"name":"ports_15","capacity":10000,"empty":269,"full":1884,"shortage":0,"booking":45,"fulfillment":45,"port_name":"Seattle","position":{"lat":47.608013,"lng":-122.335167},"status":"balance"},{"frame_index":192,"name":"ports_16","capacity":10000,"empty":573,"full":684,"shortage":0,"booking":69,"fulfillment":69,"port_name":"Shanghai","position":{"lat":31.224361,"lng":121.46917},"status":"surplus"},{"frame_index":192,"name":"ports_17","capacity":10000,"empty":100,"full":630,"shortage":0,"booking":26,"fulfillment":26,"port_name":"Singapore","position":{"lat":1.29027,"lng":103.851959},"status":"balance"},{"frame_index":192,"name":"ports_18","capacity":10000,"empty":454,"full":204,"shortage":0,"booking":10,"fulfillment":10,"port_name":"Sydney","position":{"lat":-33.865143,"lng":151.2099},"status":"surplus"},{"frame_index":192,"name":"ports_19","capacity":10000,"empty":1060,"full":101,"shortage":0,"booking":12,"fulfillment":12,"port_name":"Vancouver","position":{"lat":49.246292,"lng":-123.116226},"status":"surplus"},{"frame_index":192,"name":"ports_20","capacity":10000,"empty":915,"full":374,"shortage":0,"booking":49,"fulfillment":49,"port_name":"Yantian","position":{"lat":26.8533,"lng":119.8575},"status":"surplus"},{"frame_index":192,"name":"ports_21","capacity":10000,"empty":0,"full":659,"shortage":40,"booking":40,"fulfillment":0,"port_name":"Yokohama","position":{"lat":35.443707,"lng":139.638031},"status":"demand"}]