[{"frame_index":962,"name":"ports_0","capacity":10000,"empty":413,"full":714,"shortage":0,"booking":116,"fulfillment":116,"port_name":"Bremerhaven","position":{"lat":53.549999,"lng":8.583333},"status":"demand"},{"frame_index":962,"name":"ports_1","capacity":10000,"empty":345,"full":92,"shortage":0,"booking":9,"fulfillment":9,"port_name":"Durban","position":{"lat":-29.8579,"lng":31.0292},"status":"surplus"},{"frame_index":962,"name":"ports_2","capacity":10000,"empty":169,"full":401,"shortage":0,"booking":8,"fulfillment":8,"port_name":"Itagual","position":{"lat":-22.85222,"lng":-43.77528},"status":"surplus"},{"frame_index":962,"name":"ports_3","capacity":10000,"empty":326,"full":1009,"shortage":0,"booking":47,"fulfillment":47,"port_name":"LeHavre","position":{"lat":49.490002,"lng":0.1},"status":"surplus"},{"frame_index":962,"name":"ports_4","capacity":10000,"empty":1225,"full":716,"shortage":0,"booking":39,"fulfillment":39,"port_name":"Los Angeles","position":{"lat":34.052235,"lng":-118.243683},"status":"surplus"},{"frame_index":962,"name":"ports_5","capacity":10000,"empty":0,"full":282,"shortage":38,"booking":38,"fulfillment":0,"port_name":"Manzanillo","position":{"lat":19.11695,"lng":-104.34214},"status":"demand"},{"frame_index":962,"name":"ports_6","capacity":10000,"empty":0,"full":299,"shortage":12,"booking":12,"fulfillment":0,"port_name":"Melbourne","position":{"lat":-37.840935,"lng":144.946457},"status":"demand"},{"frame_index":962,"name":"ports_7","capacity":10000,"empty":2219,"full":54,"shortage":0,"booking":12,"fulfillment":12,"port_name":"Montreal","position":{"lat":45.516136,"lng":-73.65683},"status":"surplus"},{"frame_index":962,"name":"ports_8","capacity":10000,"empty":16333,"full":924,"shortage":0,"booking":25,"fulfillment":25,"port_name":"New York","position":{"lat":40.73061,"lng":-73.935242},"status":"surplus"},{"frame_index":962,"name":"ports_9","capacity":10000,"empty":1733,"full":1090,"shortage":0,"booking":21,"fulfillment":21,"port_name":"Oakland","position":{"lat":37.804363,"lng":-122.271111},"status":"surplus"},{"frame_index":962,"name":"ports_10","capacity":10000,"empty":1002,"full":143,"shortage":0,"booking":12,"fulfillment":12,"port_name":"Prince Rupert","position":{"lat":54.312519,"lng":-130.305405},"status":"surplus"},{"frame_index":962,"name":"ports_11","capacity":10000,"empty":662,"full":583,"shortage":0,"booking":48,"fulfillment":48,"port_name":"Pusan","position":{"lat":35.166668,"lng":129.066666},"status":"surplus"},{"frame_index":962,"name":"ports_12","capacity":10000,"empty":698,"full":595,"shortage":0,"booking":58,"fulfillment":58,"port_name":"Qingdao","position":{"lat":36.066898,"lng":120.382698},"status":"surplus"},{"frame_index":962,"name":"ports_13","capacity":10000,"empty":909,"full":361,"shortage":0,"booking":8,"fulfillment":8,"port_name":"San Antonio","position":{"lat":29.424349,"lng":-98.491142},"status":"surplus"},{"frame_index":962,"name":"ports_14","capacity":10000,"empty":660,"full":118,"shortage":0,"booking":9,"fulfillment":9,"port_name":"Santos","position":{"lat":-23.96083,"lng":-46.33361},"status":"surplus"},{"frame_index":962,"name":"ports_15","capacity":10000,"empty":1148,"full":106,"shortage":0,"booking":54,"fulfillment":54,"port_name":"Seattle","position":{"lat":47.608013,"lng":-122.335167},"status":"surplus"},{"frame_index":962,"name":"ports_16","capacity":10000,"empty":59,"full":271,"shortage":43,"booking":70,"fulfillment":27,"port_name":"Shanghai","position":{"lat":31.224361,"lng":121.46917},"status":"demand"},{"frame_index":962,"name":"ports_17","capacity":10000,"empty":168,"full":365,"shortage":0,"booking":33,"fulfillment":33,"port_name":"Singapore","position":{"lat":1.29027,"lng":103.851959},"status":"balance"},{"frame_index":962,"name":"ports_18","capacity":10000,"empty":47,"full":160,"shortage":0,"booking":11,"fulfillment":11,"port_name":"Sydney","position":{"lat":-33.865143,"lng":151.2099},"status":"balance"},{"frame_index":962,"name":"ports_19","capacity":10000,"empty":0,"full":411,"shortage":16,"booking":16,"fulfillment":0,"port_name":"Vancouver","position":{"lat":49.246292,"lng":-123.116226},"status":"demand"},{"frame_index":962,"name":"ports_20","capacity":10000,"empty":921,"full":1103,"shortage":0,"booking":53,"fulfillment":53,"port_name":"Yantian","position":{"lat":26.8533,"lng":119.8575},"status":"surplus"},{"frame_index":962,"name":"ports_21","capacity":10000,"empty":0,"full":1017,"shortage":52,"booking":52,"fulfillment":0,"port_name":"Yokohama","position":{"lat":35.443707,"lng":139.638031},"status":"demand"}]