[{"frame_index":501,"name":"ports_0","capacity":10000,"empty":2537,"full":3866,"shortage":0,"booking":175,"fulfillment":175,"port_name":"Bremerhaven","position":{"lat":53.549999,"lng":8.583333},"status":"surplus"},{"frame_index":501,"name":"ports_1","capacity":10000,"empty":553,"full":87,"shortage":0,"booking":13,"fulfillment":13,"port_name":"Durban","position":{"lat":-29.8579,"lng":31.0292},"status":"surplus"},{"frame_index":501,"name":"ports_2","capacity":10000,"empty":537,"full":33,"shortage":0,"booking":13,"fulfillment":13,"port_name":"Itagual","position":{"lat":-22.85222,"lng":-43.77528},"status":"surplus"},{"frame_index":501,"name":"ports_3","capacity":10000,"empty":336,"full":979,"shortage":0,"booking":66,"fulfillment":66,"port_name":"LeHavre","position":{"lat":49.490002,"lng":0.1},"status":"balance"},{"frame_index":501,"name":"ports_4","capacity":10000,"empty":0,"full":1257,"shortage":58,"booking":58,"fulfillment":0,"port_name":"Los Angeles","position":{"lat":34.052235,"lng":-118.243683},"status":"demand"},{"frame_index":501,"name":"ports_5","capacity":10000,"empty":207,"full":79,"shortage":0,"booking":65,"fulfillment":65,"port_name":"Manzanillo","position":{"lat":19.11695,"lng":-104.34214},"status":"demand"},{"frame_index":501,"name":"ports_6","capacity":10000,"empty":302,"full":75,"shortage":0,"booking":18,"fulfillment":18,"port_name":"Melbourne","position":{"lat":-37.840935,"lng":144.946457},"status":"surplus"},{"frame_index":501,"name":"ports_7","capacity":10000,"empty":2618,"full":281,"shortage":0,"booking":18,"fulfillment":18,"port_name":"Montreal","position":{"lat":45.516136,"lng":-73.65683},"status":"surplus"},{"frame_index":501,"name":"ports_8","capacity":10000,"empty":6887,"full":0,"shortage":0,"booking":34,"fulfillment":34,"port_name":"New York","position":{"lat":40.73061,"lng":-73.935242},"status":"surplus"},{"frame_index":501,"name":"ports_9","capacity":10000,"empty":4954,"full":346,"shortage":0,"booking":30,"fulfillment":30,"port_name":"Oakland","position":{"lat":37.804363,"lng":-122.271111},"status":"surplus"},{"frame_index":501,"name":"ports_10","capacity":10000,"empty":2701,"full":616,"shortage":0,"booking":17,"fulfillment":17,"port_name":"Prince Rupert","position":{"lat":54.312519,"lng":-130.305405},"status":"surplus"},{"frame_index":501,"name":"ports_11","capacity":10000,"empty":0,"full":648,"shortage":70,"booking":70,"fulfillment":0,"port_name":"Pusan","position":{"lat":35.166668,"lng":129.066666},"status":"demand"},{"frame_index":501,"name":"ports_12","capacity":10000,"empty":693,"full":1763,"shortage":0,"booking":95,"fulfillment":95,"port_name":"Qingdao","position":{"lat":36.066898,"lng":120.382698},"status":"surplus"},{"frame_index":501,"name":"ports_13","capacity":10000,"empty":225,"full":209,"shortage":0,"booking":12,"fulfillment":12,"port_name":"San Antonio","position":{"lat":29.424349,"lng":-98.491142},"status":"surplus"},{"frame_index":501,"name":"ports_14","capacity":10000,"empty":0,"full":343,"shortage":11,"booking":11,"fulfillment":0,"port_name":"Santos","position":{"lat":-23.96083,"lng":-46.33361},"status":"demand"},{"frame_index":501,"name":"ports_15","capacity":10000,"empty":291,"full":334,"shortage":0,"booking":80,"fulfillment":80,"port_name":"Seattle","position":{"lat":47.608013,"lng":-122.335167},"status":"demand"},{"frame_index":501,"name":"ports_16","capacity":10000,"empty":50,"full":463,"shortage":0,"booking":98,"fulfillment":98,"port_name":"Shanghai","position":{"lat":31.224361,"lng":121.46917},"status":"demand"},{"frame_index":501,"name":"ports_17","capacity":10000,"empty":14,"full":319,"shortage":0,"booking":46,"fulfillment":46,"port_name":"Singapore","position":{"lat":1.29027,"lng":103.851959},"status":"demand"},{"frame_index":501,"name":"ports_18","capacity":10000,"empty":0,"full":237,"shortage":19,"booking":19,"fulfillment":0,"port_name":"Sydney","position":{"lat":-33.865143,"lng":151.2099},"status":"demand"},{"frame_index":501,"name":"ports_19","capacity":10000,"empty":20,"full":581,"shortage":0,"booking":24,"fulfillment":24,"port_name":"Vancouver","position":{"lat":49.246292,"lng":-123.116226},"status":"demand"},{"frame_index":501,"name":"ports_20","capacity":10000,"empty":0,"full":667,"shortage":75,"booking":75,"fulfillment":0,"port_name":"Yantian","position":{"lat":26.8533,"lng":119.8575},"status":"demand"},{"frame_index":501,"name":"ports_21","capacity":10000,"empty":0,"full":915,"shortage":78,"booking":78,"fulfillment":0,"port_name":"Yokohama","position":{"lat":35.443707,"lng":139.638031},"status":"demand"}]