[{"frame_index":458,"name":"ports_0","capacity":10000,"empty":5023,"full":2358,"shortage":0,"booking":88,"fulfillment":88,"port_name":"Bremerhaven","position":{"lat":53.549999,"lng":8.583333},"status":"surplus"},{"frame_index":458,"name":"ports_1","capacity":10000,"empty":807,"full":116,"shortage":0,"booking":5,"fulfillment":5,"port_name":"Durban","position":{"lat":-29.8579,"lng":31.0292},"status":"surplus"},{"frame_index":458,"name":"ports_2","capacity":10000,"empty":0,"full":657,"shortage":5,"booking":5,"fulfillment":0,"port_name":"Itagual","position":{"lat":-22.85222,"lng":-43.77528},"status":"balance"},{"frame_index":458,"name":"ports_3","capacity":10000,"empty":2538,"full":594,"shortage":0,"booking":30,"fulfillment":30,"port_name":"LeHavre","position":{"lat":49.490002,"lng":0.1},"status":"surplus"},{"frame_index":458,"name":"ports_4","capacity":10000,"empty":3364,"full":147,"shortage":0,"booking":24,"fulfillment":24,"port_name":"Los Angeles","position":{"lat":34.052235,"lng":-118.243683},"status":"surplus"},{"frame_index":458,"name":"ports_5","capacity":10000,"empty":1249,"full":34,"shortage":0,"booking":22,"fulfillment":22,"port_name":"Manzanillo","position":{"lat":19.11695,"lng":-104.34214},"status":"surplus"},{"frame_index":458,"name":"ports_6","capacity":10000,"empty":0,"full":252,"shortage":8,"booking":8,"fulfillment":0,"port_name":"Melbourne","position":{"lat":-37.840935,"lng":144.946457},"status":"balance"},{"frame_index":458,"name":"ports_7","capacity":10000,"empty":1715,"full":255,"shortage":0,"booking":8,"fulfillment":8,"port_name":"Montreal","position":{"lat":45.516136,"lng":-73.65683},"status":"surplus"},{"frame_index":458,"name":"ports_8","capacity":10000,"empty":6105,"full":96,"shortage":0,"booking":15,"fulfillment":15,"port_name":"New York","position":{"lat":40.73061,"lng":-73.935242},"status":"surplus"},{"frame_index":458,"name":"ports_9","capacity":10000,"empty":3784,"full":1652,"shortage":0,"booking":17,"fulfillment":17,"port_name":"Oakland","position":{"lat":37.804363,"lng":-122.271111},"status":"surplus"},{"frame_index":458,"name":"ports_10","capacity":10000,"empty":3255,"full":80,"shortage":0,"booking":8,"fulfillment":8,"port_name":"Prince Rupert","position":{"lat":54.312519,"lng":-130.305405},"status":"surplus"},{"frame_index":458,"name":"ports_11","capacity":10000,"empty":1892,"full":317,"shortage":0,"booking":31,"fulfillment":31,"port_name":"Pusan","position":{"lat":35.166668,"lng":129.066666},"status":"surplus"},{"frame_index":458,"name":"ports_12","capacity":10000,"empty":675,"full":745,"shortage":0,"booking":37,"fulfillment":37,"port_name":"Qingdao","position":{"lat":36.066898,"lng":120.382698},"status":"surplus"},{"frame_index":458,"name":"ports_13","capacity":10000,"empty":355,"full":52,"shortage":0,"booking":5,"fulfillment":5,"port_name":"San Antonio","position":{"lat":29.424349,"lng":-98.491142},"status":"surplus"},{"frame_index":458,"name":"ports_14","capacity":10000,"empty":304,"full":31,"shortage":0,"booking":5,"fulfillment":5,"port_name":"Santos","position":{"lat":-23.96083,"lng":-46.33361},"status":"surplus"},{"frame_index":458,"name":"ports_15","capacity":10000,"empty":467,"full":1066,"shortage":0,"booking":35,"fulfillment":35,"port_name":"Seattle","position":{"lat":47.608013,"lng":-122.335167},"status":"surplus"},{"frame_index":458,"name":"ports_16","capacity":10000,"empty":0,"full":304,"shortage":42,"booking":44,"fulfillment":2,"port_name":"Shanghai","position":{"lat":31.224361,"lng":121.46917},"status":"demand"},{"frame_index":458,"name":"ports_17","capacity":10000,"empty":126,"full":180,"shortage":0,"booking":20,"fulfillment":20,"port_name":"Singapore","position":{"lat":1.29027,"lng":103.851959},"status":"balance"},{"frame_index":458,"name":"ports_18","capacity":10000,"empty":185,"full":17,"shortage":0,"booking":8,"fulfillment":8,"port_name":"Sydney","position":{"lat":-33.865143,"lng":151.2099},"status":"surplus"},{"frame_index":458,"name":"ports_19","capacity":10000,"empty":629,"full":104,"shortage":0,"booking":10,"fulfillment":10,"port_name":"Vancouver","position":{"lat":49.246292,"lng":-123.116226},"status":"surplus"},{"frame_index":458,"name":"ports_20","capacity":10000,"empty":184,"full":263,"shortage":0,"booking":30,"fulfillment":30,"port_name":"Yantian","position":{"lat":26.8533,"lng":119.8575},"status":"balance"},{"frame_index":458,"name":"ports_21","capacity":10000,"empty":0,"full":495,"shortage":28,"booking":28,"fulfillment":0,"port_name":"Yokohama","position":{"lat":35.443707,"lng":139.638031},"status":"demand"}]