[{"frame_index":236,"name":"ports_0","capacity":10000,"empty":508,"full":1880,"shortage":0,"booking":90,"fulfillment":90,"port_name":"Bremerhaven","position":{"lat":53.549999,"lng":8.583333},"status":"surplus"},{"frame_index":236,"name":"ports_1","capacity":10000,"empty":897,"full":28,"shortage":0,"booking":6,"fulfillment":6,"port_name":"Durban","position":{"lat":-29.8579,"lng":31.0292},"status":"surplus"},{"frame_index":236,"name":"ports_2","capacity":10000,"empty":128,"full":108,"shortage":0,"booking":7,"fulfillment":7,"port_name":"Itagual","position":{"lat":-22.85222,"lng":-43.77528},"status":"surplus"},{"frame_index":236,"name":"ports_3","capacity":10000,"empty":2626,"full":231,"shortage":0,"booking":36,"fulfillment":36,"port_name":"LeHavre","position":{"lat":49.490002,"lng":0.1},"status":"surplus"},{"frame_index":236,"name":"ports_4","capacity":10000,"empty":762,"full":720,"shortage":0,"booking":31,"fulfillment":31,"port_name":"Los Angeles","position":{"lat":34.052235,"lng":-118.243683},"status":"surplus"},{"frame_index":236,"name":"ports_5","capacity":10000,"empty":991,"full":210,"shortage":0,"booking":35,"fulfillment":35,"port_name":"Manzanillo","position":{"lat":19.11695,"lng":-104.34214},"status":"surplus"},{"frame_index":236,"name":"ports_6","capacity":10000,"empty":70,"full":37,"shortage":0,"booking":9,"fulfillment":9,"port_name":"Melbourne","position":{"lat":-37.840935,"lng":144.946457},"status":"balance"},{"frame_index":236,"name":"ports_7","capacity":10000,"empty":35,"full":213,"shortage":0,"booking":10,"fulfillment":10,"port_name":"Montreal","position":{"lat":45.516136,"lng":-73.65683},"status":"balance"},{"frame_index":236,"name":"ports_8","capacity":10000,"empty":5551,"full":79,"shortage":0,"booking":18,"fulfillment":18,"port_name":"New York","position":{"lat":40.73061,"lng":-73.935242},"status":"surplus"},{"frame_index":236,"name":"ports_9","capacity":10000,"empty":1351,"full":306,"shortage":0,"booking":21,"fulfillment":21,"port_name":"Oakland","position":{"lat":37.804363,"lng":-122.271111},"status":"surplus"},{"frame_index":236,"name":"ports_10","capacity":10000,"empty":175,"full":777,"shortage":0,"booking":8,"fulfillment":8,"port_name":"Prince Rupert","position":{"lat":54.312519,"lng":-130.305405},"status":"surplus"},{"frame_index":236,"name":"ports_11","capacity":10000,"empty":2402,"full":1113,"shortage":0,"booking":35,"fulfillment":35,"port_name":"Pusan","position":{"lat":35.166668,"lng":129.066666},"status":"surplus"},{"frame_index":236,"name":"ports_12","capacity":10000,"empty":2234,"full":415,"shortage":0,"booking":51,"fulfillment":51,"port_name":"Qingdao","position":{"lat":36.066898,"lng":120.382698},"status":"surplus"},{"frame_index":236,"name":"ports_13","capacity":10000,"empty":398,"full":119,"shortage":0,"booking":7,"fulfillment":7,"port_name":"San Antonio","position":{"lat":29.424349,"lng":-98.491142},"status":"surplus"},{"frame_index":236,"name":"ports_14","capacity":10000,"empty":309,"full":87,"shortage":0,"booking":7,"fulfillment":7,"port_name":"Santos","position":{"lat":-23.96083,"lng":-46.33361},"status":"surplus"},{"frame_index":236,"name":"ports_15","capacity":10000,"empty":1211,"full":295,"shortage":0,"booking":43,"fulfillment":43,"port_name":"Seattle","position":{"lat":47.608013,"lng":-122.335167},"status":"surplus"},{"frame_index":236,"name":"ports_16","capacity":10000,"empty":189,"full":1154,"shortage":0,"booking":56,"fulfillment":56,"port_name":"Shanghai","position":{"lat":31.224361,"lng":121.46917},"status":"demand"},{"frame_index":236,"name":"ports_17","capacity":10000,"empty":877,"full":231,"shortage":0,"booking":24,"fulfillment":24,"port_name":"Singapore","position":{"lat":1.29027,"lng":103.851959},"status":"surplus"},{"frame_index":236,"name":"ports_18","capacity":10000,"empty":524,"full":115,"shortage":0,"booking":10,"fulfillment":10,"port_name":"Sydney","position":{"lat":-33.865143,"lng":151.2099},"status":"surplus"},{"frame_index":236,"name":"ports_19","capacity":10000,"empty":883,"full":293,"shortage":0,"booking":13,"fulfillment":13,"port_name":"Vancouver","position":{"lat":49.246292,"lng":-123.116226},"status":"surplus"},{"frame_index":236,"name":"ports_20","capacity":10000,"empty":10,"full":660,"shortage":0,"booking":43,"fulfillment":43,"port_name":"Yantian","position":{"lat":26.8533,"lng":119.8575},"status":"demand"},{"frame_index":236,"name":"ports_21","capacity":10000,"empty":663,"full":177,"shortage":0,"booking":38,"fulfillment":38,"port_name":"Yokohama","position":{"lat":35.443707,"lng":139.638031},"status":"surplus"}]