[{"frame_index":832,"name":"ports_0","capacity":10000,"empty":0,"full":517,"shortage":153,"booking":153,"fulfillment":0,"port_name":"Bremerhaven","position":{"lat":53.549999,"lng":8.583333},"status":"demand"},{"frame_index":832,"name":"ports_1","capacity":10000,"empty":201,"full":125,"shortage":0,"booking":10,"fulfillment":10,"port_name":"Durban","position":{"lat":-29.8579,"lng":31.0292},"status":"surplus"},{"frame_index":832,"name":"ports_2","capacity":10000,"empty":0,"full":347,"shortage":10,"booking":10,"fulfillment":0,"port_name":"Itagual","position":{"lat":-22.85222,"lng":-43.77528},"status":"balance"},{"frame_index":832,"name":"ports_3","capacity":10000,"empty":0,"full":575,"shortage":57,"booking":57,"fulfillment":0,"port_name":"LeHavre","position":{"lat":49.490002,"lng":0.1},"status":"demand"},{"frame_index":832,"name":"ports_4","capacity":10000,"empty":977,"full":1003,"shortage":0,"booking":47,"fulfillment":47,"port_name":"Los Angeles","position":{"lat":34.052235,"lng":-118.243683},"status":"surplus"},{"frame_index":832,"name":"ports_5","capacity":10000,"empty":0,"full":722,"shortage":54,"booking":54,"fulfillment":0,"port_name":"Manzanillo","position":{"lat":19.11695,"lng":-104.34214},"status":"demand"},{"frame_index":832,"name":"ports_6","capacity":10000,"empty":0,"full":237,"shortage":15,"booking":15,"fulfillment":0,"port_name":"Melbourne","position":{"lat":-37.840935,"lng":144.946457},"status":"demand"},{"frame_index":832,"name":"ports_7","capacity":10000,"empty":2256,"full":79,"shortage":0,"booking":15,"fulfillment":15,"port_name":"Montreal","position":{"lat":45.516136,"lng":-73.65683},"status":"surplus"},{"frame_index":832,"name":"ports_8","capacity":10000,"empty":10636,"full":381,"shortage":0,"booking":29,"fulfillment":29,"port_name":"New York","position":{"lat":40.73061,"lng":-73.935242},"status":"surplus"},{"frame_index":832,"name":"ports_9","capacity":10000,"empty":80,"full":886,"shortage":0,"booking":26,"fulfillment":26,"port_name":"Oakland","position":{"lat":37.804363,"lng":-122.271111},"status":"balance"},{"frame_index":832,"name":"ports_10","capacity":10000,"empty":2298,"full":484,"shortage":0,"booking":14,"fulfillment":14,"port_name":"Prince Rupert","position":{"lat":54.312519,"lng":-130.305405},"status":"surplus"},{"frame_index":832,"name":"ports_11","capacity":10000,"empty":80,"full":600,"shortage":0,"booking":57,"fulfillment":57,"port_name":"Pusan","position":{"lat":35.166668,"lng":129.066666},"status":"demand"},{"frame_index":832,"name":"ports_12","capacity":10000,"empty":1111,"full":1816,"shortage":0,"booking":71,"fulfillment":71,"port_name":"Qingdao","position":{"lat":36.066898,"lng":120.382698},"status":"surplus"},{"frame_index":832,"name":"ports_13","capacity":10000,"empty":1035,"full":137,"shortage":0,"booking":10,"fulfillment":10,"port_name":"San Antonio","position":{"lat":29.424349,"lng":-98.491142},"status":"surplus"},{"frame_index":832,"name":"ports_14","capacity":10000,"empty":427,"full":33,"shortage":0,"booking":9,"fulfillment":9,"port_name":"Santos","position":{"lat":-23.96083,"lng":-46.33361},"status":"surplus"},{"frame_index":832,"name":"ports_15","capacity":10000,"empty":0,"full":835,"shortage":68,"booking":68,"fulfillment":0,"port_name":"Seattle","position":{"lat":47.608013,"lng":-122.335167},"status":"demand"},{"frame_index":832,"name":"ports_16","capacity":10000,"empty":0,"full":1853,"shortage":80,"booking":80,"fulfillment":0,"port_name":"Shanghai","position":{"lat":31.224361,"lng":121.46917},"status":"demand"},{"frame_index":832,"name":"ports_17","capacity":10000,"empty":1431,"full":578,"shortage":0,"booking":39,"fulfillment":39,"port_name":"Singapore","position":{"lat":1.29027,"lng":103.851959},"status":"surplus"},{"frame_index":832,"name":"ports_18","capacity":10000,"empty":0,"full":287,"shortage":13,"booking":13,"fulfillment":0,"port_name":"Sydney","position":{"lat":-33.865143,"lng":151.2099},"status":"demand"},{"frame_index":832,"name":"ports_19","capacity":10000,"empty":104,"full":201,"shortage":0,"booking":19,"fulfillment":19,"port_name":"Vancouver","position":{"lat":49.246292,"lng":-123.116226},"status":"balance"},{"frame_index":832,"name":"ports_20","capacity":10000,"empty":0,"full":682,"shortage":65,"booking":65,"fulfillment":0,"port_name":"Yantian","position":{"lat":26.8533,"lng":119.8575},"status":"demand"},{"frame_index":832,"name":"ports_21","capacity":10000,"empty":154,"full":342,"shortage":0,"booking":65,"fulfillment":65,"port_name":"Yokohama","position":{"lat":35.443707,"lng":139.638031},"status":"demand"}]