[{"frame_index":729,"name":"ports_0","capacity":10000,"empty":0,"full":4674,"shortage":334,"booking":334,"fulfillment":0,"port_name":"Bremerhaven","position":{"lat":53.549999,"lng":8.583333},"status":"demand"},{"frame_index":729,"name":"ports_1","capacity":10000,"empty":0,"full":211,"shortage":18,"booking":18,"fulfillment":0,"port_name":"Durban","position":{"lat":-29.8579,"lng":31.0292},"status":"demand"},{"frame_index":729,"name":"ports_2","capacity":10000,"empty":110,"full":83,"shortage":0,"booking":19,"fulfillment":19,"port_name":"Itagual","position":{"lat":-22.85222,"lng":-43.77528},"status":"balance"},{"frame_index":729,"name":"ports_3","capacity":10000,"empty":611,"full":1171,"shortage":0,"booking":107,"fulfillment":107,"port_name":"LeHavre","position":{"lat":49.490002,"lng":0.1},"status":"surplus"},{"frame_index":729,"name":"ports_4","capacity":10000,"empty":299,"full":657,"shortage":0,"booking":90,"fulfillment":90,"port_name":"Los Angeles","position":{"lat":34.052235,"lng":-118.243683},"status":"demand"},{"frame_index":729,"name":"ports_5","capacity":10000,"empty":0,"full":143,"shortage":86,"booking":86,"fulfillment":0,"port_name":"Manzanillo","position":{"lat":19.11695,"lng":-104.34214},"status":"demand"},{"frame_index":729,"name":"ports_6","capacity":10000,"empty":0,"full":238,"shortage":27,"booking":27,"fulfillment":0,"port_name":"Melbourne","position":{"lat":-37.840935,"lng":144.946457},"status":"demand"},{"frame_index":729,"name":"ports_7","capacity":10000,"empty":2535,"full":70,"shortage":0,"booking":28,"fulfillment":28,"port_name":"Montreal","position":{"lat":45.516136,"lng":-73.65683},"status":"surplus"},{"frame_index":729,"name":"ports_8","capacity":10000,"empty":12198,"full":436,"shortage":0,"booking":53,"fulfillment":53,"port_name":"New York","position":{"lat":40.73061,"lng":-73.935242},"status":"surplus"},{"frame_index":729,"name":"ports_9","capacity":10000,"empty":603,"full":499,"shortage":0,"booking":58,"fulfillment":58,"port_name":"Oakland","position":{"lat":37.804363,"lng":-122.271111},"status":"surplus"},{"frame_index":729,"name":"ports_10","capacity":10000,"empty":2435,"full":548,"shortage":0,"booking":29,"fulfillment":29,"port_name":"Prince Rupert","position":{"lat":54.312519,"lng":-130.305405},"status":"surplus"},{"frame_index":729,"name":"ports_11","capacity":10000,"empty":0,"full":1222,"shortage":106,"booking":106,"fulfillment":0,"port_name":"Pusan","position":{"lat":35.166668,"lng":129.066666},"status":"demand"},{"frame_index":729,"name":"ports_12","capacity":10000,"empty":1228,"full":793,"shortage":0,"booking":136,"fulfillment":136,"port_name":"Qingdao","position":{"lat":36.066898,"lng":120.382698},"status":"surplus"},{"frame_index":729,"name":"ports_13","capacity":10000,"empty":5810,"full":256,"shortage":0,"booking":18,"fulfillment":18,"port_name":"San Antonio","position":{"lat":29.424349,"lng":-98.491142},"status":"surplus"},{"frame_index":729,"name":"ports_14","capacity":10000,"empty":336,"full":300,"shortage":0,"booking":19,"fulfillment":19,"port_name":"Santos","position":{"lat":-23.96083,"lng":-46.33361},"status":"surplus"},{"frame_index":729,"name":"ports_15","capacity":10000,"empty":0,"full":1267,"shortage":123,"booking":123,"fulfillment":0,"port_name":"Seattle","position":{"lat":47.608013,"lng":-122.335167},"status":"demand"},{"frame_index":729,"name":"ports_16","capacity":10000,"empty":21,"full":1660,"shortage":84,"booking":196,"fulfillment":112,"port_name":"Shanghai","position":{"lat":31.224361,"lng":121.46917},"status":"demand"},{"frame_index":729,"name":"ports_17","capacity":10000,"empty":0,"full":284,"shortage":71,"booking":71,"fulfillment":0,"port_name":"Singapore","position":{"lat":1.29027,"lng":103.851959},"status":"demand"},{"frame_index":729,"name":"ports_18","capacity":10000,"empty":0,"full":111,"shortage":25,"booking":25,"fulfillment":0,"port_name":"Sydney","position":{"lat":-33.865143,"lng":151.2099},"status":"demand"},{"frame_index":729,"name":"ports_19","capacity":10000,"empty":96,"full":118,"shortage":39,"booking":39,"fulfillment":0,"port_name":"Vancouver","position":{"lat":49.246292,"lng":-123.116226},"status":"demand"},{"frame_index":729,"name":"ports_20","capacity":10000,"empty":968,"full":922,"shortage":136,"booking":136,"fulfillment":0,"port_name":"Yantian","position":{"lat":26.8533,"lng":119.8575},"status":"surplus"},{"frame_index":729,"name":"ports_21","capacity":10000,"empty":0,"full":208,"shortage":132,"booking":132,"fulfillment":0,"port_name":"Yokohama","position":{"lat":35.443707,"lng":139.638031},"status":"demand"}]