[{"frame_index":1047,"name":"ports_0","capacity":10000,"empty":682,"full":295,"shortage":0,"booking":153,"fulfillment":153,"port_name":"Bremerhaven","position":{"lat":53.549999,"lng":8.583333},"status":"demand"},{"frame_index":1047,"name":"ports_1","capacity":10000,"empty":199,"full":78,"shortage":0,"booking":11,"fulfillment":11,"port_name":"Durban","position":{"lat":-29.8579,"lng":31.0292},"status":"surplus"},{"frame_index":1047,"name":"ports_2","capacity":10000,"empty":493,"full":14,"shortage":0,"booking":10,"fulfillment":10,"port_name":"Itagual","position":{"lat":-22.85222,"lng":-43.77528},"status":"surplus"},{"frame_index":1047,"name":"ports_3","capacity":10000,"empty":301,"full":482,"shortage":0,"booking":65,"fulfillment":65,"port_name":"LeHavre","position":{"lat":49.490002,"lng":0.1},"status":"balance"},{"frame_index":1047,"name":"ports_4","capacity":10000,"empty":832,"full":266,"shortage":0,"booking":54,"fulfillment":54,"port_name":"Los Angeles","position":{"lat":34.052235,"lng":-118.243683},"status":"surplus"},{"frame_index":1047,"name":"ports_5","capacity":10000,"empty":1408,"full":375,"shortage":0,"booking":47,"fulfillment":47,"port_name":"Manzanillo","position":{"lat":19.11695,"lng":-104.34214},"status":"surplus"},{"frame_index":1047,"name":"ports_6","capacity":10000,"empty":166,"full":73,"shortage":0,"booking":17,"fulfillment":17,"port_name":"Melbourne","position":{"lat":-37.840935,"lng":144.946457},"status":"surplus"},{"frame_index":1047,"name":"ports_7","capacity":10000,"empty":1800,"full":252,"shortage":0,"booking":17,"fulfillment":17,"port_name":"Montreal","position":{"lat":45.516136,"lng":-73.65683},"status":"surplus"},{"frame_index":1047,"name":"ports_8","capacity":10000,"empty":15940,"full":475,"shortage":0,"booking":33,"fulfillment":33,"port_name":"New York","position":{"lat":40.73061,"lng":-73.935242},"status":"surplus"},{"frame_index":1047,"name":"ports_9","capacity":10000,"empty":1680,"full":513,"shortage":0,"booking":28,"fulfillment":28,"port_name":"Oakland","position":{"lat":37.804363,"lng":-122.271111},"status":"surplus"},{"frame_index":1047,"name":"ports_10","capacity":10000,"empty":1258,"full":301,"shortage":0,"booking":15,"fulfillment":15,"port_name":"Prince Rupert","position":{"lat":54.312519,"lng":-130.305405},"status":"surplus"},{"frame_index":1047,"name":"ports_11","capacity":10000,"empty":11,"full":1428,"shortage":0,"booking":62,"fulfillment":62,"port_name":"Pusan","position":{"lat":35.166668,"lng":129.066666},"status":"demand"},{"frame_index":1047,"name":"ports_12","capacity":10000,"empty":492,"full":565,"shortage":0,"booking":77,"fulfillment":77,"port_name":"Qingdao","position":{"lat":36.066898,"lng":120.382698},"status":"surplus"},{"frame_index":1047,"name":"ports_13","capacity":10000,"empty":0,"full":154,"shortage":10,"booking":10,"fulfillment":0,"port_name":"San Antonio","position":{"lat":29.424349,"lng":-98.491142},"status":"balance"},{"frame_index":1047,"name":"ports_14","capacity":10000,"empty":213,"full":198,"shortage":0,"booking":10,"fulfillment":10,"port_name":"Santos","position":{"lat":-23.96083,"lng":-46.33361},"status":"surplus"},{"frame_index":1047,"name":"ports_15","capacity":10000,"empty":664,"full":1092,"shortage":0,"booking":73,"fulfillment":73,"port_name":"Seattle","position":{"lat":47.608013,"lng":-122.335167},"status":"surplus"},{"frame_index":1047,"name":"ports_16","capacity":10000,"empty":46,"full":1114,"shortage":117,"booking":117,"fulfillment":0,"port_name":"Shanghai","position":{"lat":31.224361,"lng":121.46917},"status":"demand"},{"frame_index":1047,"name":"ports_17","capacity":10000,"empty":583,"full":652,"shortage":0,"booking":44,"fulfillment":44,"port_name":"Singapore","position":{"lat":1.29027,"lng":103.851959},"status":"surplus"},{"frame_index":1047,"name":"ports_18","capacity":10000,"empty":115,"full":273,"shortage":0,"booking":16,"fulfillment":16,"port_name":"Sydney","position":{"lat":-33.865143,"lng":151.2099},"status":"balance"},{"frame_index":1047,"name":"ports_19","capacity":10000,"empty":507,"full":201,"shortage":0,"booking":23,"fulfillment":23,"port_name":"Vancouver","position":{"lat":49.246292,"lng":-123.116226},"status":"surplus"},{"frame_index":1047,"name":"ports_20","capacity":10000,"empty":112,"full":767,"shortage":0,"booking":68,"fulfillment":68,"port_name":"Yantian","position":{"lat":26.8533,"lng":119.8575},"status":"demand"},{"frame_index":1047,"name":"ports_21","capacity":10000,"empty":0,"full":386,"shortage":74,"booking":74,"fulfillment":0,"port_name":"Yokohama","position":{"lat":35.443707,"lng":139.638031},"status":"demand"}]