[{"frame_index":340,"name":"ports_0","capacity":10000,"empty":2355,"full":859,"shortage":0,"booking":41,"fulfillment":41,"port_name":"Bremerhaven","position":{"lat":53.549999,"lng":8.583333},"status":"surplus"},{"frame_index":340,"name":"ports_1","capacity":10000,"empty":919,"full":30,"shortage":0,"booking":3,"fulfillment":3,"port_name":"Durban","position":{"lat":-29.8579,"lng":31.0292},"status":"surplus"},{"frame_index":340,"name":"ports_2","capacity":10000,"empty":0,"full":186,"shortage":3,"booking":3,"fulfillment":0,"port_name":"Itagual","position":{"lat":-22.85222,"lng":-43.77528},"status":"balance"},{"frame_index":340,"name":"ports_3","capacity":10000,"empty":2124,"full":303,"shortage":0,"booking":15,"fulfillment":15,"port_name":"LeHavre","position":{"lat":49.490002,"lng":0.1},"status":"surplus"},{"frame_index":340,"name":"ports_4","capacity":10000,"empty":769,"full":1389,"shortage":0,"booking":13,"fulfillment":13,"port_name":"Los Angeles","position":{"lat":34.052235,"lng":-118.243683},"status":"surplus"},{"frame_index":340,"name":"ports_5","capacity":10000,"empty":1229,"full":254,"shortage":0,"booking":11,"fulfillment":11,"port_name":"Manzanillo","position":{"lat":19.11695,"lng":-104.34214},"status":"surplus"},{"frame_index":340,"name":"ports_6","capacity":10000,"empty":123,"full":58,"shortage":0,"booking":4,"fulfillment":4,"port_name":"Melbourne","position":{"lat":-37.840935,"lng":144.946457},"status":"surplus"},{"frame_index":340,"name":"ports_7","capacity":10000,"empty":677,"full":188,"shortage":0,"booking":4,"fulfillment":4,"port_name":"Montreal","position":{"lat":45.516136,"lng":-73.65683},"status":"surplus"},{"frame_index":340,"name":"ports_8","capacity":10000,"empty":9911,"full":40,"shortage":0,"booking":8,"fulfillment":8,"port_name":"New York","position":{"lat":40.73061,"lng":-73.935242},"status":"surplus"},{"frame_index":340,"name":"ports_9","capacity":10000,"empty":1414,"full":934,"shortage":0,"booking":8,"fulfillment":8,"port_name":"Oakland","position":{"lat":37.804363,"lng":-122.271111},"status":"surplus"},{"frame_index":340,"name":"ports_10","capacity":10000,"empty":3152,"full":30,"shortage":0,"booking":4,"fulfillment":4,"port_name":"Prince Rupert","position":{"lat":54.312519,"lng":-130.305405},"status":"surplus"},{"frame_index":340,"name":"ports_11","capacity":10000,"empty":743,"full":232,"shortage":0,"booking":15,"fulfillment":15,"port_name":"Pusan","position":{"lat":35.166668,"lng":129.066666},"status":"surplus"},{"frame_index":340,"name":"ports_12","capacity":10000,"empty":1232,"full":465,"shortage":0,"booking":18,"fulfillment":18,"port_name":"Qingdao","position":{"lat":36.066898,"lng":120.382698},"status":"surplus"},{"frame_index":340,"name":"ports_13","capacity":10000,"empty":491,"full":15,"shortage":0,"booking":3,"fulfillment":3,"port_name":"San Antonio","position":{"lat":29.424349,"lng":-98.491142},"status":"surplus"},{"frame_index":340,"name":"ports_14","capacity":10000,"empty":1258,"full":25,"shortage":0,"booking":3,"fulfillment":3,"port_name":"Santos","position":{"lat":-23.96083,"lng":-46.33361},"status":"surplus"},{"frame_index":340,"name":"ports_15","capacity":10000,"empty":307,"full":196,"shortage":0,"booking":18,"fulfillment":18,"port_name":"Seattle","position":{"lat":47.608013,"lng":-122.335167},"status":"surplus"},{"frame_index":340,"name":"ports_16","capacity":10000,"empty":2578,"full":225,"shortage":0,"booking":22,"fulfillment":22,"port_name":"Shanghai","position":{"lat":31.224361,"lng":121.46917},"status":"surplus"},{"frame_index":340,"name":"ports_17","capacity":10000,"empty":732,"full":523,"shortage":0,"booking":10,"fulfillment":10,"port_name":"Singapore","position":{"lat":1.29027,"lng":103.851959},"status":"surplus"},{"frame_index":340,"name":"ports_18","capacity":10000,"empty":177,"full":113,"shortage":0,"booking":4,"fulfillment":4,"port_name":"Sydney","position":{"lat":-33.865143,"lng":151.2099},"status":"surplus"},{"frame_index":340,"name":"ports_19","capacity":10000,"empty":609,"full":494,"shortage":0,"booking":5,"fulfillment":5,"port_name":"Vancouver","position":{"lat":49.246292,"lng":-123.116226},"status":"surplus"},{"frame_index":340,"name":"ports_20","capacity":10000,"empty":32,"full":327,"shortage":16,"booking":16,"fulfillment":0,"port_name":"Yantian","position":{"lat":26.8533,"lng":119.8575},"status":"balance"},{"frame_index":340,"name":"ports_21","capacity":10000,"empty":869,"full":1144,"shortage":0,"booking":9,"fulfillment":9,"port_name":"Yokohama","position":{"lat":35.443707,"lng":139.638031},"status":"surplus"}]