[{"frame_index":608,"name":"ports_0","capacity":10000,"empty":265,"full":5442,"shortage":0,"booking":180,"fulfillment":180,"port_name":"Bremerhaven","position":{"lat":53.549999,"lng":8.583333},"status":"demand"},{"frame_index":608,"name":"ports_1","capacity":10000,"empty":258,"full":146,"shortage":0,"booking":10,"fulfillment":10,"port_name":"Durban","position":{"lat":-29.8579,"lng":31.0292},"status":"surplus"},{"frame_index":608,"name":"ports_2","capacity":10000,"empty":0,"full":268,"shortage":11,"booking":11,"fulfillment":0,"port_name":"Itagual","position":{"lat":-22.85222,"lng":-43.77528},"status":"demand"},{"frame_index":608,"name":"ports_3","capacity":10000,"empty":349,"full":237,"shortage":0,"booking":63,"fulfillment":63,"port_name":"LeHavre","position":{"lat":49.490002,"lng":0.1},"status":"balance"},{"frame_index":608,"name":"ports_4","capacity":10000,"empty":2139,"full":1589,"shortage":0,"booking":55,"fulfillment":55,"port_name":"Los Angeles","position":{"lat":34.052235,"lng":-118.243683},"status":"surplus"},{"frame_index":608,"name":"ports_5","capacity":10000,"empty":8,"full":823,"shortage":0,"booking":54,"fulfillment":54,"port_name":"Manzanillo","position":{"lat":19.11695,"lng":-104.34214},"status":"demand"},{"frame_index":608,"name":"ports_6","capacity":10000,"empty":0,"full":257,"shortage":17,"booking":17,"fulfillment":0,"port_name":"Melbourne","position":{"lat":-37.840935,"lng":144.946457},"status":"demand"},{"frame_index":608,"name":"ports_7","capacity":10000,"empty":1937,"full":0,"shortage":0,"booking":17,"fulfillment":17,"port_name":"Montreal","position":{"lat":45.516136,"lng":-73.65683},"status":"surplus"},{"frame_index":608,"name":"ports_8","capacity":10000,"empty":9787,"full":333,"shortage":0,"booking":33,"fulfillment":33,"port_name":"New York","position":{"lat":40.73061,"lng":-73.935242},"status":"surplus"},{"frame_index":608,"name":"ports_9","capacity":10000,"empty":2864,"full":507,"shortage":0,"booking":30,"fulfillment":30,"port_name":"Oakland","position":{"lat":37.804363,"lng":-122.271111},"status":"surplus"},{"frame_index":608,"name":"ports_10","capacity":10000,"empty":559,"full":0,"shortage":0,"booking":14,"fulfillment":14,"port_name":"Prince Rupert","position":{"lat":54.312519,"lng":-130.305405},"status":"surplus"},{"frame_index":608,"name":"ports_11","capacity":10000,"empty":0,"full":304,"shortage":63,"booking":63,"fulfillment":0,"port_name":"Pusan","position":{"lat":35.166668,"lng":129.066666},"status":"demand"},{"frame_index":608,"name":"ports_12","capacity":10000,"empty":458,"full":392,"shortage":0,"booking":79,"fulfillment":79,"port_name":"Qingdao","position":{"lat":36.066898,"lng":120.382698},"status":"surplus"},{"frame_index":608,"name":"ports_13","capacity":10000,"empty":0,"full":174,"shortage":11,"booking":11,"fulfillment":0,"port_name":"San Antonio","position":{"lat":29.424349,"lng":-98.491142},"status":"demand"},{"frame_index":608,"name":"ports_14","capacity":10000,"empty":545,"full":153,"shortage":0,"booking":11,"fulfillment":11,"port_name":"Santos","position":{"lat":-23.96083,"lng":-46.33361},"status":"surplus"},{"frame_index":608,"name":"ports_15","capacity":10000,"empty":0,"full":369,"shortage":73,"booking":73,"fulfillment":0,"port_name":"Seattle","position":{"lat":47.608013,"lng":-122.335167},"status":"demand"},{"frame_index":608,"name":"ports_16","capacity":10000,"empty":0,"full":733,"shortage":83,"booking":105,"fulfillment":22,"port_name":"Shanghai","position":{"lat":31.224361,"lng":121.46917},"status":"demand"},{"frame_index":608,"name":"ports_17","capacity":10000,"empty":0,"full":419,"shortage":43,"booking":43,"fulfillment":0,"port_name":"Singapore","position":{"lat":1.29027,"lng":103.851959},"status":"demand"},{"frame_index":608,"name":"ports_18","capacity":10000,"empty":75,"full":184,"shortage":0,"booking":15,"fulfillment":15,"port_name":"Sydney","position":{"lat":-33.865143,"lng":151.2099},"status":"balance"},{"frame_index":608,"name":"ports_19","capacity":10000,"empty":523,"full":16,"shortage":0,"booking":21,"fulfillment":21,"port_name":"Vancouver","position":{"lat":49.246292,"lng":-123.116226},"status":"surplus"},{"frame_index":608,"name":"ports_20","capacity":10000,"empty":0,"full":761,"shortage":82,"booking":82,"fulfillment":0,"port_name":"Yantian","position":{"lat":26.8533,"lng":119.8575},"status":"demand"},{"frame_index":608,"name":"ports_21","capacity":10000,"empty":0,"full":23,"shortage":77,"booking":77,"fulfillment":0,"port_name":"Yokohama","position":{"lat":35.443707,"lng":139.638031},"status":"demand"}]