[{"frame_index":175,"name":"ports_0","capacity":10000,"empty":1157,"full":1764,"shortage":0,"booking":128,"fulfillment":128,"port_name":"Bremerhaven","position":{"lat":53.549999,"lng":8.583333},"status":"surplus"},{"frame_index":175,"name":"ports_1","capacity":10000,"empty":571,"full":341,"shortage":0,"booking":8,"fulfillment":8,"port_name":"Durban","position":{"lat":-29.8579,"lng":31.0292},"status":"surplus"},{"frame_index":175,"name":"ports_2","capacity":10000,"empty":108,"full":184,"shortage":0,"booking":7,"fulfillment":7,"port_name":"Itagual","position":{"lat":-22.85222,"lng":-43.77528},"status":"surplus"},{"frame_index":175,"name":"ports_3","capacity":10000,"empty":2374,"full":675,"shortage":0,"booking":42,"fulfillment":42,"port_name":"LeHavre","position":{"lat":49.490002,"lng":0.1},"status":"surplus"},{"frame_index":175,"name":"ports_4","capacity":10000,"empty":857,"full":1404,"shortage":0,"booking":36,"fulfillment":36,"port_name":"Los Angeles","position":{"lat":34.052235,"lng":-118.243683},"status":"surplus"},{"frame_index":175,"name":"ports_5","capacity":10000,"empty":386,"full":886,"shortage":0,"booking":38,"fulfillment":38,"port_name":"Manzanillo","position":{"lat":19.11695,"lng":-104.34214},"status":"surplus"},{"frame_index":175,"name":"ports_6","capacity":10000,"empty":0,"full":175,"shortage":11,"booking":11,"fulfillment":0,"port_name":"Melbourne","position":{"lat":-37.840935,"lng":144.946457},"status":"demand"},{"frame_index":175,"name":"ports_7","capacity":10000,"empty":158,"full":602,"shortage":0,"booking":11,"fulfillment":11,"port_name":"Montreal","position":{"lat":45.516136,"lng":-73.65683},"status":"surplus"},{"frame_index":175,"name":"ports_8","capacity":10000,"empty":7485,"full":483,"shortage":0,"booking":21,"fulfillment":21,"port_name":"New York","position":{"lat":40.73061,"lng":-73.935242},"status":"surplus"},{"frame_index":175,"name":"ports_9","capacity":10000,"empty":0,"full":1107,"shortage":21,"booking":21,"fulfillment":0,"port_name":"Oakland","position":{"lat":37.804363,"lng":-122.271111},"status":"demand"},{"frame_index":175,"name":"ports_10","capacity":10000,"empty":813,"full":134,"shortage":0,"booking":13,"fulfillment":13,"port_name":"Prince Rupert","position":{"lat":54.312519,"lng":-130.305405},"status":"surplus"},{"frame_index":175,"name":"ports_11","capacity":10000,"empty":3797,"full":154,"shortage":0,"booking":44,"fulfillment":44,"port_name":"Pusan","position":{"lat":35.166668,"lng":129.066666},"status":"surplus"},{"frame_index":175,"name":"ports_12","capacity":10000,"empty":97,"full":1394,"shortage":0,"booking":58,"fulfillment":58,"port_name":"Qingdao","position":{"lat":36.066898,"lng":120.382698},"status":"demand"},{"frame_index":175,"name":"ports_13","capacity":10000,"empty":683,"full":0,"shortage":0,"booking":7,"fulfillment":7,"port_name":"San Antonio","position":{"lat":29.424349,"lng":-98.491142},"status":"surplus"},{"frame_index":175,"name":"ports_14","capacity":10000,"empty":0,"full":74,"shortage":7,"booking":7,"fulfillment":0,"port_name":"Santos","position":{"lat":-23.96083,"lng":-46.33361},"status":"balance"},{"frame_index":175,"name":"ports_15","capacity":10000,"empty":190,"full":1364,"shortage":0,"booking":52,"fulfillment":52,"port_name":"Seattle","position":{"lat":47.608013,"lng":-122.335167},"status":"demand"},{"frame_index":175,"name":"ports_16","capacity":10000,"empty":394,"full":1548,"shortage":0,"booking":71,"fulfillment":71,"port_name":"Shanghai","position":{"lat":31.224361,"lng":121.46917},"status":"balance"},{"frame_index":175,"name":"ports_17","capacity":10000,"empty":303,"full":355,"shortage":0,"booking":30,"fulfillment":30,"port_name":"Singapore","position":{"lat":1.29027,"lng":103.851959},"status":"surplus"},{"frame_index":175,"name":"ports_18","capacity":10000,"empty":582,"full":293,"shortage":0,"booking":13,"fulfillment":13,"port_name":"Sydney","position":{"lat":-33.865143,"lng":151.2099},"status":"surplus"},{"frame_index":175,"name":"ports_19","capacity":10000,"empty":930,"full":154,"shortage":0,"booking":16,"fulfillment":16,"port_name":"Vancouver","position":{"lat":49.246292,"lng":-123.116226},"status":"surplus"},{"frame_index":175,"name":"ports_20","capacity":10000,"empty":215,"full":1161,"shortage":0,"booking":55,"fulfillment":55,"port_name":"Yantian","position":{"lat":26.8533,"lng":119.8575},"status":"demand"},{"frame_index":175,"name":"ports_21","capacity":10000,"empty":0,"full":703,"shortage":45,"booking":45,"fulfillment":0,"port_name":"Yokohama","position":{"lat":35.443707,"lng":139.638031},"status":"demand"}]