[{"frame_index":270,"name":"ports_0","capacity":10000,"empty":1173,"full":2609,"shortage":0,"booking":218,"fulfillment":218,"port_name":"Bremerhaven","position":{"lat":53.549999,"lng":8.583333},"status":"surplus"},{"frame_index":270,"name":"ports_1","capacity":10000,"empty":1058,"full":29,"shortage":0,"booking":14,"fulfillment":14,"port_name":"Durban","position":{"lat":-29.8579,"lng":31.0292},"status":"surplus"},{"frame_index":270,"name":"ports_2","capacity":10000,"empty":74,"full":131,"shortage":0,"booking":14,"fulfillment":14,"port_name":"Itagual","position":{"lat":-22.85222,"lng":-43.77528},"status":"balance"},{"frame_index":270,"name":"ports_3","capacity":10000,"empty":1469,"full":1064,"shortage":0,"booking":83,"fulfillment":83,"port_name":"LeHavre","position":{"lat":49.490002,"lng":0.1},"status":"surplus"},{"frame_index":270,"name":"ports_4","capacity":10000,"empty":2120,"full":315,"shortage":0,"booking":70,"fulfillment":70,"port_name":"Los Angeles","position":{"lat":34.052235,"lng":-118.243683},"status":"surplus"},{"frame_index":270,"name":"ports_5","capacity":10000,"empty":0,"full":887,"shortage":38,"booking":72,"fulfillment":34,"port_name":"Manzanillo","position":{"lat":19.11695,"lng":-104.34214},"status":"demand"},{"frame_index":270,"name":"ports_6","capacity":10000,"empty":19,"full":228,"shortage":0,"booking":22,"fulfillment":22,"port_name":"Melbourne","position":{"lat":-37.840935,"lng":144.946457},"status":"demand"},{"frame_index":270,"name":"ports_7","capacity":10000,"empty":743,"full":215,"shortage":0,"booking":22,"fulfillment":22,"port_name":"Montreal","position":{"lat":45.516136,"lng":-73.65683},"status":"surplus"},{"frame_index":270,"name":"ports_8","capacity":10000,"empty":4689,"full":870,"shortage":0,"booking":40,"fulfillment":40,"port_name":"New York","position":{"lat":40.73061,"lng":-73.935242},"status":"surplus"},{"frame_index":270,"name":"ports_9","capacity":10000,"empty":503,"full":1090,"shortage":0,"booking":47,"fulfillment":47,"port_name":"Oakland","position":{"lat":37.804363,"lng":-122.271111},"status":"surplus"},{"frame_index":270,"name":"ports_10","capacity":10000,"empty":2333,"full":278,"shortage":0,"booking":19,"fulfillment":19,"port_name":"Prince Rupert","position":{"lat":54.312519,"lng":-130.305405},"status":"surplus"},{"frame_index":270,"name":"ports_11","capacity":10000,"empty":1802,"full":1237,"shortage":0,"booking":88,"fulfillment":88,"port_name":"Pusan","position":{"lat":35.166668,"lng":129.066666},"status":"surplus"},{"frame_index":270,"name":"ports_12","capacity":10000,"empty":288,"full":1401,"shortage":0,"booking":101,"fulfillment":101,"port_name":"Qingdao","position":{"lat":36.066898,"lng":120.382698},"status":"demand"},{"frame_index":270,"name":"ports_13","capacity":10000,"empty":0,"full":261,"shortage":15,"booking":15,"fulfillment":0,"port_name":"San Antonio","position":{"lat":29.424349,"lng":-98.491142},"status":"demand"},{"frame_index":270,"name":"ports_14","capacity":10000,"empty":902,"full":154,"shortage":0,"booking":15,"fulfillment":15,"port_name":"Santos","position":{"lat":-23.96083,"lng":-46.33361},"status":"surplus"},{"frame_index":270,"name":"ports_15","capacity":10000,"empty":30,"full":1427,"shortage":0,"booking":103,"fulfillment":103,"port_name":"Seattle","position":{"lat":47.608013,"lng":-122.335167},"status":"demand"},{"frame_index":270,"name":"ports_16","capacity":10000,"empty":94,"full":1182,"shortage":0,"booking":152,"fulfillment":152,"port_name":"Shanghai","position":{"lat":31.224361,"lng":121.46917},"status":"demand"},{"frame_index":270,"name":"ports_17","capacity":10000,"empty":52,"full":395,"shortage":0,"booking":57,"fulfillment":57,"port_name":"Singapore","position":{"lat":1.29027,"lng":103.851959},"status":"demand"},{"frame_index":270,"name":"ports_18","capacity":10000,"empty":0,"full":162,"shortage":23,"booking":23,"fulfillment":0,"port_name":"Sydney","position":{"lat":-33.865143,"lng":151.2099},"status":"demand"},{"frame_index":270,"name":"ports_19","capacity":10000,"empty":635,"full":293,"shortage":0,"booking":30,"fulfillment":30,"port_name":"Vancouver","position":{"lat":49.246292,"lng":-123.116226},"status":"surplus"},{"frame_index":270,"name":"ports_20","capacity":10000,"empty":135,"full":341,"shortage":0,"booking":105,"fulfillment":105,"port_name":"Yantian","position":{"lat":26.8533,"lng":119.8575},"status":"demand"},{"frame_index":270,"name":"ports_21","capacity":10000,"empty":0,"full":1023,"shortage":102,"booking":102,"fulfillment":0,"port_name":"Yokohama","position":{"lat":35.443707,"lng":139.638031},"status":"demand"}]