[{"frame_index":32,"name":"ports_0","capacity":10000,"empty":13357,"full":1449,"shortage":0,"booking":172,"fulfillment":172,"port_name":"Bremerhaven","position":{"lat":53.549999,"lng":8.583333},"status":"surplus"},{"frame_index":32,"name":"ports_1","capacity":10000,"empty":951,"full":91,"shortage":0,"booking":11,"fulfillment":11,"port_name":"Durban","position":{"lat":-29.8579,"lng":31.0292},"status":"surplus"},{"frame_index":32,"name":"ports_2","capacity":10000,"empty":656,"full":71,"shortage":0,"booking":11,"fulfillment":11,"port_name":"Itagual","position":{"lat":-22.85222,"lng":-43.77528},"status":"surplus"},{"frame_index":32,"name":"ports_3","capacity":10000,"empty":0,"full":0,"shortage":68,"booking":68,"fulfillment":0,"port_name":"LeHavre","position":{"lat":49.490002,"lng":0.1},"status":"demand"},{"frame_index":32,"name":"ports_4","capacity":10000,"empty":35,"full":315,"shortage":0,"booking":56,"fulfillment":56,"port_name":"Los Angeles","position":{"lat":34.052235,"lng":-118.243683},"status":"demand"},{"frame_index":32,"name":"ports_5","capacity":10000,"empty":4125,"full":335,"shortage":0,"booking":58,"fulfillment":58,"port_name":"Manzanillo","position":{"lat":19.11695,"lng":-104.34214},"status":"surplus"},{"frame_index":32,"name":"ports_6","capacity":10000,"empty":990,"full":122,"shortage":0,"booking":17,"fulfillment":17,"port_name":"Melbourne","position":{"lat":-37.840935,"lng":144.946457},"status":"surplus"},{"frame_index":32,"name":"ports_7","capacity":10000,"empty":1169,"full":43,"shortage":0,"booking":17,"fulfillment":17,"port_name":"Montreal","position":{"lat":45.516136,"lng":-73.65683},"status":"surplus"},{"frame_index":32,"name":"ports_8","capacity":10000,"empty":2471,"full":494,"shortage":0,"booking":35,"fulfillment":35,"port_name":"New York","position":{"lat":40.73061,"lng":-73.935242},"status":"surplus"},{"frame_index":32,"name":"ports_9","capacity":10000,"empty":2468,"full":485,"shortage":0,"booking":33,"fulfillment":33,"port_name":"Oakland","position":{"lat":37.804363,"lng":-122.271111},"status":"surplus"},{"frame_index":32,"name":"ports_10","capacity":10000,"empty":1236,"full":241,"shortage":0,"booking":19,"fulfillment":19,"port_name":"Prince Rupert","position":{"lat":54.312519,"lng":-130.305405},"status":"surplus"},{"frame_index":32,"name":"ports_11","capacity":10000,"empty":2411,"full":313,"shortage":0,"booking":64,"fulfillment":64,"port_name":"Pusan","position":{"lat":35.166668,"lng":129.066666},"status":"surplus"},{"frame_index":32,"name":"ports_12","capacity":10000,"empty":0,"full":741,"shortage":95,"booking":95,"fulfillment":0,"port_name":"Qingdao","position":{"lat":36.066898,"lng":120.382698},"status":"demand"},{"frame_index":32,"name":"ports_13","capacity":10000,"empty":814,"full":171,"shortage":0,"booking":11,"fulfillment":11,"port_name":"San Antonio","position":{"lat":29.424349,"lng":-98.491142},"status":"surplus"},{"frame_index":32,"name":"ports_14","capacity":10000,"empty":809,"full":168,"shortage":0,"booking":14,"fulfillment":14,"port_name":"Santos","position":{"lat":-23.96083,"lng":-46.33361},"status":"surplus"},{"frame_index":32,"name":"ports_15","capacity":10000,"empty":4780,"full":681,"shortage":0,"booking":76,"fulfillment":76,"port_name":"Seattle","position":{"lat":47.608013,"lng":-122.335167},"status":"surplus"},{"frame_index":32,"name":"ports_16","capacity":10000,"empty":5190,"full":770,"shortage":0,"booking":112,"fulfillment":112,"port_name":"Shanghai","position":{"lat":31.224361,"lng":121.46917},"status":"surplus"},{"frame_index":32,"name":"ports_17","capacity":10000,"empty":90,"full":193,"shortage":0,"booking":45,"fulfillment":45,"port_name":"Singapore","position":{"lat":1.29027,"lng":103.851959},"status":"demand"},{"frame_index":32,"name":"ports_18","capacity":10000,"empty":1230,"full":244,"shortage":0,"booking":16,"fulfillment":16,"port_name":"Sydney","position":{"lat":-33.865143,"lng":151.2099},"status":"surplus"},{"frame_index":32,"name":"ports_19","capacity":10000,"empty":107,"full":0,"shortage":0,"booking":22,"fulfillment":22,"port_name":"Vancouver","position":{"lat":49.246292,"lng":-123.116226},"status":"balance"},{"frame_index":32,"name":"ports_20","capacity":10000,"empty":202,"full":631,"shortage":0,"booking":87,"fulfillment":87,"port_name":"Yantian","position":{"lat":26.8533,"lng":119.8575},"status":"demand"},{"frame_index":32,"name":"ports_21","capacity":10000,"empty":6966,"full":921,"shortage":0,"booking":79,"fulfillment":79,"port_name":"Yokohama","position":{"lat":35.443707,"lng":139.638031},"status":"surplus"}]