[{"frame_index":18,"name":"ports_0","capacity":10000,"empty":14927,"full":895,"shortage":0,"booking":83,"fulfillment":83,"port_name":"Bremerhaven","position":{"lat":53.549999,"lng":8.583333},"status":"surplus"},{"frame_index":18,"name":"ports_1","capacity":10000,"empty":923,"full":31,"shortage":0,"booking":6,"fulfillment":6,"port_name":"Durban","position":{"lat":-29.8579,"lng":31.0292},"status":"surplus"},{"frame_index":18,"name":"ports_2","capacity":10000,"empty":925,"full":28,"shortage":0,"booking":5,"fulfillment":5,"port_name":"Itagual","position":{"lat":-22.85222,"lng":-43.77528},"status":"surplus"},{"frame_index":18,"name":"ports_3","capacity":10000,"empty":0,"full":99,"shortage":33,"booking":33,"fulfillment":0,"port_name":"LeHavre","position":{"lat":49.490002,"lng":0.1},"status":"demand"},{"frame_index":18,"name":"ports_4","capacity":10000,"empty":2824,"full":250,"shortage":0,"booking":27,"fulfillment":27,"port_name":"Los Angeles","position":{"lat":34.052235,"lng":-118.243683},"status":"surplus"},{"frame_index":18,"name":"ports_5","capacity":10000,"empty":4640,"full":207,"shortage":0,"booking":29,"fulfillment":29,"port_name":"Manzanillo","position":{"lat":19.11695,"lng":-104.34214},"status":"surplus"},{"frame_index":18,"name":"ports_6","capacity":10000,"empty":1391,"full":95,"shortage":0,"booking":8,"fulfillment":8,"port_name":"Melbourne","position":{"lat":-37.840935,"lng":144.946457},"status":"surplus"},{"frame_index":18,"name":"ports_7","capacity":10000,"empty":1392,"full":90,"shortage":0,"booking":8,"fulfillment":8,"port_name":"Montreal","position":{"lat":45.516136,"lng":-73.65683},"status":"surplus"},{"frame_index":18,"name":"ports_8","capacity":10000,"empty":2788,"full":187,"shortage":0,"booking":16,"fulfillment":16,"port_name":"New York","position":{"lat":40.73061,"lng":-73.935242},"status":"surplus"},{"frame_index":18,"name":"ports_9","capacity":10000,"empty":2781,"full":186,"shortage":0,"booking":18,"fulfillment":18,"port_name":"Oakland","position":{"lat":37.804363,"lng":-122.271111},"status":"surplus"},{"frame_index":18,"name":"ports_10","capacity":10000,"empty":1390,"full":100,"shortage":0,"booking":10,"fulfillment":10,"port_name":"Prince Rupert","position":{"lat":54.312519,"lng":-130.305405},"status":"surplus"},{"frame_index":18,"name":"ports_11","capacity":10000,"empty":4193,"full":323,"shortage":0,"booking":32,"fulfillment":32,"port_name":"Pusan","position":{"lat":35.166668,"lng":129.066666},"status":"surplus"},{"frame_index":18,"name":"ports_12","capacity":10000,"empty":3775,"full":324,"shortage":0,"booking":40,"fulfillment":40,"port_name":"Qingdao","position":{"lat":36.066898,"lng":120.382698},"status":"surplus"},{"frame_index":18,"name":"ports_13","capacity":10000,"empty":925,"full":66,"shortage":0,"booking":6,"fulfillment":6,"port_name":"San Antonio","position":{"lat":29.424349,"lng":-98.491142},"status":"surplus"},{"frame_index":18,"name":"ports_14","capacity":10000,"empty":922,"full":66,"shortage":0,"booking":6,"fulfillment":6,"port_name":"Santos","position":{"lat":-23.96083,"lng":-46.33361},"status":"surplus"},{"frame_index":18,"name":"ports_15","capacity":10000,"empty":5504,"full":311,"shortage":0,"booking":39,"fulfillment":39,"port_name":"Seattle","position":{"lat":47.608013,"lng":-122.335167},"status":"surplus"},{"frame_index":18,"name":"ports_16","capacity":10000,"empty":6071,"full":384,"shortage":0,"booking":50,"fulfillment":50,"port_name":"Shanghai","position":{"lat":31.224361,"lng":121.46917},"status":"surplus"},{"frame_index":18,"name":"ports_17","capacity":10000,"empty":0,"full":36,"shortage":22,"booking":22,"fulfillment":0,"port_name":"Singapore","position":{"lat":1.29027,"lng":103.851959},"status":"demand"},{"frame_index":18,"name":"ports_18","capacity":10000,"empty":1391,"full":98,"shortage":0,"booking":8,"fulfillment":8,"port_name":"Sydney","position":{"lat":-33.865143,"lng":151.2099},"status":"surplus"},{"frame_index":18,"name":"ports_19","capacity":10000,"empty":0,"full":40,"shortage":11,"booking":11,"fulfillment":0,"port_name":"Vancouver","position":{"lat":49.246292,"lng":-123.116226},"status":"demand"},{"frame_index":18,"name":"ports_20","capacity":10000,"empty":6023,"full":334,"shortage":0,"booking":38,"fulfillment":38,"port_name":"Yantian","position":{"lat":26.8533,"lng":119.8575},"status":"surplus"},{"frame_index":18,"name":"ports_21","capacity":10000,"empty":7649,"full":300,"shortage":0,"booking":31,"fulfillment":31,"port_name":"Yokohama","position":{"lat":35.443707,"lng":139.638031},"status":"surplus"}]