[{"frame_index":596,"name":"ports_0","capacity":10000,"empty":2751,"full":3086,"shortage":0,"booking":21,"fulfillment":21,"port_name":"Bremerhaven","position":{"lat":53.549999,"lng":8.583333},"status":"surplus"},{"frame_index":596,"name":"ports_1","capacity":10000,"empty":331,"full":108,"shortage":0,"booking":2,"fulfillment":2,"port_name":"Durban","position":{"lat":-29.8579,"lng":31.0292},"status":"surplus"},{"frame_index":596,"name":"ports_2","capacity":10000,"empty":104,"full":161,"shortage":0,"booking":2,"fulfillment":2,"port_name":"Itagual","position":{"lat":-22.85222,"lng":-43.77528},"status":"surplus"},{"frame_index":596,"name":"ports_3","capacity":10000,"empty":710,"full":1383,"shortage":0,"booking":10,"fulfillment":10,"port_name":"LeHavre","position":{"lat":49.490002,"lng":0.1},"status":"surplus"},{"frame_index":596,"name":"ports_4","capacity":10000,"empty":2931,"full":818,"shortage":0,"booking":8,"fulfillment":8,"port_name":"Los Angeles","position":{"lat":34.052235,"lng":-118.243683},"status":"surplus"},{"frame_index":596,"name":"ports_5","capacity":10000,"empty":798,"full":84,"shortage":0,"booking":7,"fulfillment":7,"port_name":"Manzanillo","position":{"lat":19.11695,"lng":-104.34214},"status":"surplus"},{"frame_index":596,"name":"ports_6","capacity":10000,"empty":77,"full":174,"shortage":0,"booking":3,"fulfillment":3,"port_name":"Melbourne","position":{"lat":-37.840935,"lng":144.946457},"status":"surplus"},{"frame_index":596,"name":"ports_7","capacity":10000,"empty":2498,"full":108,"shortage":0,"booking":3,"fulfillment":3,"port_name":"Montreal","position":{"lat":45.516136,"lng":-73.65683},"status":"surplus"},{"frame_index":596,"name":"ports_8","capacity":10000,"empty":7217,"full":740,"shortage":0,"booking":5,"fulfillment":5,"port_name":"New York","position":{"lat":40.73061,"lng":-73.935242},"status":"surplus"},{"frame_index":596,"name":"ports_9","capacity":10000,"empty":3326,"full":86,"shortage":0,"booking":5,"fulfillment":5,"port_name":"Oakland","position":{"lat":37.804363,"lng":-122.271111},"status":"surplus"},{"frame_index":596,"name":"ports_10","capacity":10000,"empty":798,"full":104,"shortage":0,"booking":2,"fulfillment":2,"port_name":"Prince Rupert","position":{"lat":54.312519,"lng":-130.305405},"status":"surplus"},{"frame_index":596,"name":"ports_11","capacity":10000,"empty":108,"full":348,"shortage":0,"booking":10,"fulfillment":10,"port_name":"Pusan","position":{"lat":35.166668,"lng":129.066666},"status":"surplus"},{"frame_index":596,"name":"ports_12","capacity":10000,"empty":1899,"full":1091,"shortage":0,"booking":13,"fulfillment":13,"port_name":"Qingdao","position":{"lat":36.066898,"lng":120.382698},"status":"surplus"},{"frame_index":596,"name":"ports_13","capacity":10000,"empty":5,"full":165,"shortage":0,"booking":2,"fulfillment":2,"port_name":"San Antonio","position":{"lat":29.424349,"lng":-98.491142},"status":"balance"},{"frame_index":596,"name":"ports_14","capacity":10000,"empty":470,"full":55,"shortage":0,"booking":2,"fulfillment":2,"port_name":"Santos","position":{"lat":-23.96083,"lng":-46.33361},"status":"surplus"},{"frame_index":596,"name":"ports_15","capacity":10000,"empty":75,"full":172,"shortage":11,"booking":11,"fulfillment":0,"port_name":"Seattle","position":{"lat":47.608013,"lng":-122.335167},"status":"balance"},{"frame_index":596,"name":"ports_16","capacity":10000,"empty":1463,"full":1013,"shortage":0,"booking":15,"fulfillment":15,"port_name":"Shanghai","position":{"lat":31.224361,"lng":121.46917},"status":"surplus"},{"frame_index":596,"name":"ports_17","capacity":10000,"empty":314,"full":65,"shortage":0,"booking":6,"fulfillment":6,"port_name":"Singapore","position":{"lat":1.29027,"lng":103.851959},"status":"surplus"},{"frame_index":596,"name":"ports_18","capacity":10000,"empty":0,"full":66,"shortage":3,"booking":3,"fulfillment":0,"port_name":"Sydney","position":{"lat":-33.865143,"lng":151.2099},"status":"balance"},{"frame_index":596,"name":"ports_19","capacity":10000,"empty":0,"full":397,"shortage":3,"booking":3,"fulfillment":0,"port_name":"Vancouver","position":{"lat":49.246292,"lng":-123.116226},"status":"balance"},{"frame_index":596,"name":"ports_20","capacity":10000,"empty":417,"full":579,"shortage":0,"booking":10,"fulfillment":10,"port_name":"Yantian","position":{"lat":26.8533,"lng":119.8575},"status":"surplus"},{"frame_index":596,"name":"ports_21","capacity":10000,"empty":0,"full":23,"shortage":3,"booking":3,"fulfillment":0,"port_name":"Yokohama","position":{"lat":35.443707,"lng":139.638031},"status":"balance"}]