[{"frame_index":1083,"name":"ports_0","capacity":10000,"empty":582,"full":2460,"shortage":0,"booking":222,"fulfillment":222,"port_name":"Bremerhaven","position":{"lat":53.549999,"lng":8.583333},"status":"demand"},{"frame_index":1083,"name":"ports_1","capacity":10000,"empty":0,"full":371,"shortage":14,"booking":14,"fulfillment":0,"port_name":"Durban","position":{"lat":-29.8579,"lng":31.0292},"status":"demand"},{"frame_index":1083,"name":"ports_2","capacity":10000,"empty":488,"full":249,"shortage":0,"booking":13,"fulfillment":13,"port_name":"Itagual","position":{"lat":-22.85222,"lng":-43.77528},"status":"surplus"},{"frame_index":1083,"name":"ports_3","capacity":10000,"empty":362,"full":984,"shortage":0,"booking":71,"fulfillment":71,"port_name":"LeHavre","position":{"lat":49.490002,"lng":0.1},"status":"balance"},{"frame_index":1083,"name":"ports_4","capacity":10000,"empty":0,"full":1160,"shortage":60,"booking":60,"fulfillment":0,"port_name":"Los Angeles","position":{"lat":34.052235,"lng":-118.243683},"status":"demand"},{"frame_index":1083,"name":"ports_5","capacity":10000,"empty":472,"full":262,"shortage":0,"booking":54,"fulfillment":54,"port_name":"Manzanillo","position":{"lat":19.11695,"lng":-104.34214},"status":"surplus"},{"frame_index":1083,"name":"ports_6","capacity":10000,"empty":0,"full":286,"shortage":18,"booking":18,"fulfillment":0,"port_name":"Melbourne","position":{"lat":-37.840935,"lng":144.946457},"status":"demand"},{"frame_index":1083,"name":"ports_7","capacity":10000,"empty":1375,"full":669,"shortage":0,"booking":18,"fulfillment":18,"port_name":"Montreal","position":{"lat":45.516136,"lng":-73.65683},"status":"surplus"},{"frame_index":1083,"name":"ports_8","capacity":10000,"empty":15206,"full":1131,"shortage":0,"booking":35,"fulfillment":35,"port_name":"New York","position":{"lat":40.73061,"lng":-73.935242},"status":"surplus"},{"frame_index":1083,"name":"ports_9","capacity":10000,"empty":302,"full":1008,"shortage":0,"booking":39,"fulfillment":39,"port_name":"Oakland","position":{"lat":37.804363,"lng":-122.271111},"status":"surplus"},{"frame_index":1083,"name":"ports_10","capacity":10000,"empty":874,"full":248,"shortage":0,"booking":20,"fulfillment":20,"port_name":"Prince Rupert","position":{"lat":54.312519,"lng":-130.305405},"status":"surplus"},{"frame_index":1083,"name":"ports_11","capacity":10000,"empty":422,"full":1384,"shortage":0,"booking":73,"fulfillment":73,"port_name":"Pusan","position":{"lat":35.166668,"lng":129.066666},"status":"surplus"},{"frame_index":1083,"name":"ports_12","capacity":10000,"empty":0,"full":1057,"shortage":85,"booking":85,"fulfillment":0,"port_name":"Qingdao","position":{"lat":36.066898,"lng":120.382698},"status":"demand"},{"frame_index":1083,"name":"ports_13","capacity":10000,"empty":143,"full":214,"shortage":0,"booking":11,"fulfillment":11,"port_name":"San Antonio","position":{"lat":29.424349,"lng":-98.491142},"status":"surplus"},{"frame_index":1083,"name":"ports_14","capacity":10000,"empty":0,"full":426,"shortage":14,"booking":14,"fulfillment":0,"port_name":"Santos","position":{"lat":-23.96083,"lng":-46.33361},"status":"demand"},{"frame_index":1083,"name":"ports_15","capacity":10000,"empty":0,"full":1459,"shortage":86,"booking":86,"fulfillment":0,"port_name":"Seattle","position":{"lat":47.608013,"lng":-122.335167},"status":"demand"},{"frame_index":1083,"name":"ports_16","capacity":10000,"empty":438,"full":867,"shortage":0,"booking":137,"fulfillment":137,"port_name":"Shanghai","position":{"lat":31.224361,"lng":121.46917},"status":"demand"},{"frame_index":1083,"name":"ports_17","capacity":10000,"empty":0,"full":958,"shortage":47,"booking":47,"fulfillment":0,"port_name":"Singapore","position":{"lat":1.29027,"lng":103.851959},"status":"demand"},{"frame_index":1083,"name":"ports_18","capacity":10000,"empty":0,"full":88,"shortage":18,"booking":18,"fulfillment":0,"port_name":"Sydney","position":{"lat":-33.865143,"lng":151.2099},"status":"demand"},{"frame_index":1083,"name":"ports_19","capacity":10000,"empty":0,"full":477,"shortage":24,"booking":24,"fulfillment":0,"port_name":"Vancouver","position":{"lat":49.246292,"lng":-123.116226},"status":"demand"},{"frame_index":1083,"name":"ports_20","capacity":10000,"empty":3,"full":161,"shortage":18,"booking":88,"fulfillment":70,"port_name":"Yantian","position":{"lat":26.8533,"lng":119.8575},"status":"demand"},{"frame_index":1083,"name":"ports_21","capacity":10000,"empty":0,"full":720,"shortage":83,"booking":83,"fulfillment":0,"port_name":"Yokohama","position":{"lat":35.443707,"lng":139.638031},"status":"demand"}]