[{"frame_index":1046,"name":"ports_0","capacity":10000,"empty":1187,"full":1865,"shortage":0,"booking":143,"fulfillment":143,"port_name":"Bremerhaven","position":{"lat":53.549999,"lng":8.583333},"status":"surplus"},{"frame_index":1046,"name":"ports_1","capacity":10000,"empty":210,"full":70,"shortage":0,"booking":9,"fulfillment":9,"port_name":"Durban","position":{"lat":-29.8579,"lng":31.0292},"status":"surplus"},{"frame_index":1046,"name":"ports_2","capacity":10000,"empty":503,"full":2,"shortage":0,"booking":8,"fulfillment":8,"port_name":"Itagual","position":{"lat":-22.85222,"lng":-43.77528},"status":"surplus"},{"frame_index":1046,"name":"ports_3","capacity":10000,"empty":644,"full":656,"shortage":0,"booking":47,"fulfillment":47,"port_name":"LeHavre","position":{"lat":49.490002,"lng":0.1},"status":"surplus"},{"frame_index":1046,"name":"ports_4","capacity":10000,"empty":886,"full":220,"shortage":0,"booking":40,"fulfillment":40,"port_name":"Los Angeles","position":{"lat":34.052235,"lng":-118.243683},"status":"surplus"},{"frame_index":1046,"name":"ports_5","capacity":10000,"empty":1455,"full":336,"shortage":0,"booking":37,"fulfillment":37,"port_name":"Manzanillo","position":{"lat":19.11695,"lng":-104.34214},"status":"surplus"},{"frame_index":1046,"name":"ports_6","capacity":10000,"empty":183,"full":69,"shortage":0,"booking":12,"fulfillment":12,"port_name":"Melbourne","position":{"lat":-37.840935,"lng":144.946457},"status":"surplus"},{"frame_index":1046,"name":"ports_7","capacity":10000,"empty":1817,"full":240,"shortage":0,"booking":13,"fulfillment":13,"port_name":"Montreal","position":{"lat":45.516136,"lng":-73.65683},"status":"surplus"},{"frame_index":1046,"name":"ports_8","capacity":10000,"empty":15973,"full":449,"shortage":0,"booking":26,"fulfillment":26,"port_name":"New York","position":{"lat":40.73061,"lng":-73.935242},"status":"surplus"},{"frame_index":1046,"name":"ports_9","capacity":10000,"empty":1708,"full":501,"shortage":0,"booking":22,"fulfillment":22,"port_name":"Oakland","position":{"lat":37.804363,"lng":-122.271111},"status":"surplus"},{"frame_index":1046,"name":"ports_10","capacity":10000,"empty":1273,"full":290,"shortage":0,"booking":13,"fulfillment":13,"port_name":"Prince Rupert","position":{"lat":54.312519,"lng":-130.305405},"status":"surplus"},{"frame_index":1046,"name":"ports_11","capacity":10000,"empty":73,"full":1368,"shortage":0,"booking":51,"fulfillment":51,"port_name":"Pusan","position":{"lat":35.166668,"lng":129.066666},"status":"demand"},{"frame_index":1046,"name":"ports_12","capacity":10000,"empty":566,"full":526,"shortage":0,"booking":62,"fulfillment":62,"port_name":"Qingdao","position":{"lat":36.066898,"lng":120.382698},"status":"surplus"},{"frame_index":1046,"name":"ports_13","capacity":10000,"empty":0,"full":154,"shortage":8,"booking":8,"fulfillment":0,"port_name":"San Antonio","position":{"lat":29.424349,"lng":-98.491142},"status":"balance"},{"frame_index":1046,"name":"ports_14","capacity":10000,"empty":223,"full":193,"shortage":0,"booking":9,"fulfillment":9,"port_name":"Santos","position":{"lat":-23.96083,"lng":-46.33361},"status":"surplus"},{"frame_index":1046,"name":"ports_15","capacity":10000,"empty":737,"full":1024,"shortage":0,"booking":57,"fulfillment":57,"port_name":"Seattle","position":{"lat":47.608013,"lng":-122.335167},"status":"surplus"},{"frame_index":1046,"name":"ports_16","capacity":10000,"empty":0,"full":1506,"shortage":67,"booking":67,"fulfillment":0,"port_name":"Shanghai","position":{"lat":31.224361,"lng":121.46917},"status":"demand"},{"frame_index":1046,"name":"ports_17","capacity":10000,"empty":627,"full":615,"shortage":0,"booking":32,"fulfillment":32,"port_name":"Singapore","position":{"lat":1.29027,"lng":103.851959},"status":"surplus"},{"frame_index":1046,"name":"ports_18","capacity":10000,"empty":131,"full":257,"shortage":0,"booking":13,"fulfillment":13,"port_name":"Sydney","position":{"lat":-33.865143,"lng":151.2099},"status":"surplus"},{"frame_index":1046,"name":"ports_19","capacity":10000,"empty":530,"full":183,"shortage":0,"booking":17,"fulfillment":17,"port_name":"Vancouver","position":{"lat":49.246292,"lng":-123.116226},"status":"surplus"},{"frame_index":1046,"name":"ports_20","capacity":10000,"empty":180,"full":706,"shortage":0,"booking":62,"fulfillment":62,"port_name":"Yantian","position":{"lat":26.8533,"lng":119.8575},"status":"demand"},{"frame_index":1046,"name":"ports_21","capacity":10000,"empty":0,"full":386,"shortage":55,"booking":55,"fulfillment":0,"port_name":"Yokohama","position":{"lat":35.443707,"lng":139.638031},"status":"demand"}]