[{"frame_index":960,"name":"ports_0","capacity":10000,"empty":603,"full":574,"shortage":0,"booking":73,"fulfillment":73,"port_name":"Bremerhaven","position":{"lat":53.549999,"lng":8.583333},"status":"surplus"},{"frame_index":960,"name":"ports_1","capacity":10000,"empty":360,"full":79,"shortage":0,"booking":4,"fulfillment":4,"port_name":"Durban","position":{"lat":-29.8579,"lng":31.0292},"status":"surplus"},{"frame_index":960,"name":"ports_2","capacity":10000,"empty":182,"full":386,"shortage":0,"booking":5,"fulfillment":5,"port_name":"Itagual","position":{"lat":-22.85222,"lng":-43.77528},"status":"surplus"},{"frame_index":960,"name":"ports_3","capacity":10000,"empty":403,"full":951,"shortage":0,"booking":25,"fulfillment":25,"port_name":"LeHavre","position":{"lat":49.490002,"lng":0.1},"status":"surplus"},{"frame_index":960,"name":"ports_4","capacity":10000,"empty":1290,"full":672,"shortage":0,"booking":21,"fulfillment":21,"port_name":"Los Angeles","position":{"lat":34.052235,"lng":-118.243683},"status":"surplus"},{"frame_index":960,"name":"ports_5","capacity":10000,"empty":0,"full":282,"shortage":23,"booking":23,"fulfillment":0,"port_name":"Manzanillo","position":{"lat":19.11695,"lng":-104.34214},"status":"demand"},{"frame_index":960,"name":"ports_6","capacity":10000,"empty":0,"full":299,"shortage":7,"booking":7,"fulfillment":0,"port_name":"Melbourne","position":{"lat":-37.840935,"lng":144.946457},"status":"balance"},{"frame_index":960,"name":"ports_7","capacity":10000,"empty":2239,"full":41,"shortage":0,"booking":7,"fulfillment":7,"port_name":"Montreal","position":{"lat":45.516136,"lng":-73.65683},"status":"surplus"},{"frame_index":960,"name":"ports_8","capacity":10000,"empty":16375,"full":894,"shortage":0,"booking":12,"fulfillment":12,"port_name":"New York","position":{"lat":40.73061,"lng":-73.935242},"status":"surplus"},{"frame_index":960,"name":"ports_9","capacity":10000,"empty":1771,"full":1068,"shortage":0,"booking":12,"fulfillment":12,"port_name":"Oakland","position":{"lat":37.804363,"lng":-122.271111},"status":"surplus"},{"frame_index":960,"name":"ports_10","capacity":10000,"empty":1023,"full":133,"shortage":0,"booking":7,"fulfillment":7,"port_name":"Prince Rupert","position":{"lat":54.312519,"lng":-130.305405},"status":"surplus"},{"frame_index":960,"name":"ports_11","capacity":10000,"empty":678,"full":1188,"shortage":0,"booking":25,"fulfillment":25,"port_name":"Pusan","position":{"lat":35.166668,"lng":129.066666},"status":"surplus"},{"frame_index":960,"name":"ports_12","capacity":10000,"empty":686,"full":531,"shortage":0,"booking":30,"fulfillment":30,"port_name":"Qingdao","position":{"lat":36.066898,"lng":120.382698},"status":"surplus"},{"frame_index":960,"name":"ports_13","capacity":10000,"empty":922,"full":345,"shortage":0,"booking":4,"fulfillment":4,"port_name":"San Antonio","position":{"lat":29.424349,"lng":-98.491142},"status":"surplus"},{"frame_index":960,"name":"ports_14","capacity":10000,"empty":675,"full":108,"shortage":0,"booking":4,"fulfillment":4,"port_name":"Santos","position":{"lat":-23.96083,"lng":-46.33361},"status":"surplus"},{"frame_index":960,"name":"ports_15","capacity":10000,"empty":1238,"full":41,"shortage":0,"booking":28,"fulfillment":28,"port_name":"Seattle","position":{"lat":47.608013,"lng":-122.335167},"status":"surplus"},{"frame_index":960,"name":"ports_16","capacity":10000,"empty":0,"full":343,"shortage":46,"booking":46,"fulfillment":0,"port_name":"Shanghai","position":{"lat":31.224361,"lng":121.46917},"status":"demand"},{"frame_index":960,"name":"ports_17","capacity":10000,"empty":183,"full":320,"shortage":0,"booking":16,"fulfillment":16,"port_name":"Singapore","position":{"lat":1.29027,"lng":103.851959},"status":"surplus"},{"frame_index":960,"name":"ports_18","capacity":10000,"empty":66,"full":143,"shortage":0,"booking":7,"fulfillment":7,"port_name":"Sydney","position":{"lat":-33.865143,"lng":151.2099},"status":"balance"},{"frame_index":960,"name":"ports_19","capacity":10000,"empty":0,"full":411,"shortage":8,"booking":8,"fulfillment":0,"port_name":"Vancouver","position":{"lat":49.246292,"lng":-123.116226},"status":"balance"},{"frame_index":960,"name":"ports_20","capacity":10000,"empty":1011,"full":1022,"shortage":0,"booking":26,"fulfillment":26,"port_name":"Yantian","position":{"lat":26.8533,"lng":119.8575},"status":"surplus"},{"frame_index":960,"name":"ports_21","capacity":10000,"empty":0,"full":1017,"shortage":21,"booking":21,"fulfillment":0,"port_name":"Yokohama","position":{"lat":35.443707,"lng":139.638031},"status":"demand"}]