[{"frame_index":58,"name":"ports_0","capacity":10000,"empty":8578,"full":3731,"shortage":0,"booking":302,"fulfillment":302,"port_name":"Bremerhaven","position":{"lat":53.549999,"lng":8.583333},"status":"surplus"},{"frame_index":58,"name":"ports_1","capacity":10000,"empty":669,"full":258,"shortage":0,"booking":18,"fulfillment":18,"port_name":"Durban","position":{"lat":-29.8579,"lng":31.0292},"status":"surplus"},{"frame_index":58,"name":"ports_2","capacity":10000,"empty":399,"full":128,"shortage":0,"booking":17,"fulfillment":17,"port_name":"Itagual","position":{"lat":-22.85222,"lng":-43.77528},"status":"surplus"},{"frame_index":58,"name":"ports_3","capacity":10000,"empty":0,"full":534,"shortage":108,"booking":108,"fulfillment":0,"port_name":"LeHavre","position":{"lat":49.490002,"lng":0.1},"status":"demand"},{"frame_index":58,"name":"ports_4","capacity":10000,"empty":0,"full":432,"shortage":88,"booking":88,"fulfillment":0,"port_name":"Los Angeles","position":{"lat":34.052235,"lng":-118.243683},"status":"demand"},{"frame_index":58,"name":"ports_5","capacity":10000,"empty":2678,"full":356,"shortage":0,"booking":92,"fulfillment":92,"port_name":"Manzanillo","position":{"lat":19.11695,"lng":-104.34214},"status":"surplus"},{"frame_index":58,"name":"ports_6","capacity":10000,"empty":515,"full":565,"shortage":0,"booking":27,"fulfillment":27,"port_name":"Melbourne","position":{"lat":-37.840935,"lng":144.946457},"status":"surplus"},{"frame_index":58,"name":"ports_7","capacity":10000,"empty":694,"full":499,"shortage":0,"booking":27,"fulfillment":27,"port_name":"Montreal","position":{"lat":45.516136,"lng":-73.65683},"status":"surplus"},{"frame_index":58,"name":"ports_8","capacity":10000,"empty":1938,"full":290,"shortage":0,"booking":51,"fulfillment":51,"port_name":"New York","position":{"lat":40.73061,"lng":-73.935242},"status":"surplus"},{"frame_index":58,"name":"ports_9","capacity":10000,"empty":834,"full":652,"shortage":0,"booking":48,"fulfillment":48,"port_name":"Oakland","position":{"lat":37.804363,"lng":-122.271111},"status":"surplus"},{"frame_index":58,"name":"ports_10","capacity":10000,"empty":513,"full":173,"shortage":0,"booking":29,"fulfillment":29,"port_name":"Prince Rupert","position":{"lat":54.312519,"lng":-130.305405},"status":"surplus"},{"frame_index":58,"name":"ports_11","capacity":10000,"empty":3325,"full":1671,"shortage":0,"booking":104,"fulfillment":104,"port_name":"Pusan","position":{"lat":35.166668,"lng":129.066666},"status":"surplus"},{"frame_index":58,"name":"ports_12","capacity":10000,"empty":1329,"full":748,"shortage":0,"booking":143,"fulfillment":143,"port_name":"Qingdao","position":{"lat":36.066898,"lng":120.382698},"status":"surplus"},{"frame_index":58,"name":"ports_13","capacity":10000,"empty":0,"full":38,"shortage":17,"booking":17,"fulfillment":0,"port_name":"San Antonio","position":{"lat":29.424349,"lng":-98.491142},"status":"demand"},{"frame_index":58,"name":"ports_14","capacity":10000,"empty":497,"full":62,"shortage":0,"booking":15,"fulfillment":15,"port_name":"Santos","position":{"lat":-23.96083,"lng":-46.33361},"status":"surplus"},{"frame_index":58,"name":"ports_15","capacity":10000,"empty":4555,"full":1506,"shortage":0,"booking":122,"fulfillment":122,"port_name":"Seattle","position":{"lat":47.608013,"lng":-122.335167},"status":"surplus"},{"frame_index":58,"name":"ports_16","capacity":10000,"empty":0,"full":664,"shortage":164,"booking":164,"fulfillment":0,"port_name":"Shanghai","position":{"lat":31.224361,"lng":121.46917},"status":"demand"},{"frame_index":58,"name":"ports_17","capacity":10000,"empty":607,"full":681,"shortage":0,"booking":71,"fulfillment":71,"port_name":"Singapore","position":{"lat":1.29027,"lng":103.851959},"status":"surplus"},{"frame_index":58,"name":"ports_18","capacity":10000,"empty":532,"full":293,"shortage":0,"booking":27,"fulfillment":27,"port_name":"Sydney","position":{"lat":-33.865143,"lng":151.2099},"status":"surplus"},{"frame_index":58,"name":"ports_19","capacity":10000,"empty":0,"full":149,"shortage":36,"booking":36,"fulfillment":0,"port_name":"Vancouver","position":{"lat":49.246292,"lng":-123.116226},"status":"demand"},{"frame_index":58,"name":"ports_20","capacity":10000,"empty":0,"full":98,"shortage":112,"booking":112,"fulfillment":0,"port_name":"Yantian","position":{"lat":26.8533,"lng":119.8575},"status":"demand"},{"frame_index":58,"name":"ports_21","capacity":10000,"empty":1146,"full":761,"shortage":0,"booking":130,"fulfillment":130,"port_name":"Yokohama","position":{"lat":35.443707,"lng":139.638031},"status":"surplus"}]