[{"frame_index":927,"name":"ports_0","capacity":10000,"empty":0,"full":1189,"shortage":214,"booking":214,"fulfillment":0,"port_name":"Bremerhaven","position":{"lat":53.549999,"lng":8.583333},"status":"demand"},{"frame_index":927,"name":"ports_1","capacity":10000,"empty":579,"full":23,"shortage":0,"booking":15,"fulfillment":15,"port_name":"Durban","position":{"lat":-29.8579,"lng":31.0292},"status":"surplus"},{"frame_index":927,"name":"ports_2","capacity":10000,"empty":819,"full":126,"shortage":0,"booking":13,"fulfillment":13,"port_name":"Itagual","position":{"lat":-22.85222,"lng":-43.77528},"status":"surplus"},{"frame_index":927,"name":"ports_3","capacity":10000,"empty":1593,"full":1627,"shortage":0,"booking":80,"fulfillment":80,"port_name":"LeHavre","position":{"lat":49.490002,"lng":0.1},"status":"surplus"},{"frame_index":927,"name":"ports_4","capacity":10000,"empty":1800,"full":176,"shortage":0,"booking":66,"fulfillment":66,"port_name":"Los Angeles","position":{"lat":34.052235,"lng":-118.243683},"status":"surplus"},{"frame_index":927,"name":"ports_5","capacity":10000,"empty":340,"full":594,"shortage":0,"booking":68,"fulfillment":68,"port_name":"Manzanillo","position":{"lat":19.11695,"lng":-104.34214},"status":"balance"},{"frame_index":927,"name":"ports_6","capacity":10000,"empty":192,"full":61,"shortage":0,"booking":20,"fulfillment":20,"port_name":"Melbourne","position":{"lat":-37.840935,"lng":144.946457},"status":"surplus"},{"frame_index":927,"name":"ports_7","capacity":10000,"empty":2098,"full":214,"shortage":0,"booking":20,"fulfillment":20,"port_name":"Montreal","position":{"lat":45.516136,"lng":-73.65683},"status":"surplus"},{"frame_index":927,"name":"ports_8","capacity":10000,"empty":13578,"full":349,"shortage":0,"booking":42,"fulfillment":42,"port_name":"New York","position":{"lat":40.73061,"lng":-73.935242},"status":"surplus"},{"frame_index":927,"name":"ports_9","capacity":10000,"empty":1468,"full":458,"shortage":0,"booking":43,"fulfillment":43,"port_name":"Oakland","position":{"lat":37.804363,"lng":-122.271111},"status":"surplus"},{"frame_index":927,"name":"ports_10","capacity":10000,"empty":3417,"full":315,"shortage":0,"booking":17,"fulfillment":17,"port_name":"Prince Rupert","position":{"lat":54.312519,"lng":-130.305405},"status":"surplus"},{"frame_index":927,"name":"ports_11","capacity":10000,"empty":0,"full":513,"shortage":77,"booking":77,"fulfillment":0,"port_name":"Pusan","position":{"lat":35.166668,"lng":129.066666},"status":"demand"},{"frame_index":927,"name":"ports_12","capacity":10000,"empty":13,"full":422,"shortage":0,"booking":98,"fulfillment":98,"port_name":"Qingdao","position":{"lat":36.066898,"lng":120.382698},"status":"demand"},{"frame_index":927,"name":"ports_13","capacity":10000,"empty":360,"full":102,"shortage":0,"booking":14,"fulfillment":14,"port_name":"San Antonio","position":{"lat":29.424349,"lng":-98.491142},"status":"surplus"},{"frame_index":927,"name":"ports_14","capacity":10000,"empty":475,"full":176,"shortage":0,"booking":11,"fulfillment":11,"port_name":"Santos","position":{"lat":-23.96083,"lng":-46.33361},"status":"surplus"},{"frame_index":927,"name":"ports_15","capacity":10000,"empty":1428,"full":1250,"shortage":0,"booking":88,"fulfillment":88,"port_name":"Seattle","position":{"lat":47.608013,"lng":-122.335167},"status":"surplus"},{"frame_index":927,"name":"ports_16","capacity":10000,"empty":0,"full":502,"shortage":113,"booking":113,"fulfillment":0,"port_name":"Shanghai","position":{"lat":31.224361,"lng":121.46917},"status":"demand"},{"frame_index":927,"name":"ports_17","capacity":10000,"empty":1069,"full":431,"shortage":0,"booking":51,"fulfillment":51,"port_name":"Singapore","position":{"lat":1.29027,"lng":103.851959},"status":"surplus"},{"frame_index":927,"name":"ports_18","capacity":10000,"empty":0,"full":200,"shortage":19,"booking":19,"fulfillment":0,"port_name":"Sydney","position":{"lat":-33.865143,"lng":151.2099},"status":"demand"},{"frame_index":927,"name":"ports_19","capacity":10000,"empty":36,"full":336,"shortage":0,"booking":27,"fulfillment":27,"port_name":"Vancouver","position":{"lat":49.246292,"lng":-123.116226},"status":"demand"},{"frame_index":927,"name":"ports_20","capacity":10000,"empty":0,"full":1537,"shortage":69,"booking":92,"fulfillment":23,"port_name":"Yantian","position":{"lat":26.8533,"lng":119.8575},"status":"demand"},{"frame_index":927,"name":"ports_21","capacity":10000,"empty":545,"full":91,"shortage":0,"booking":91,"fulfillment":91,"port_name":"Yokohama","position":{"lat":35.443707,"lng":139.638031},"status":"surplus"}]