[{"frame_index":495,"name":"ports_0","capacity":10000,"empty":2976,"full":3995,"shortage":0,"booking":184,"fulfillment":184,"port_name":"Bremerhaven","position":{"lat":53.549999,"lng":8.583333},"status":"surplus"},{"frame_index":495,"name":"ports_1","capacity":10000,"empty":610,"full":40,"shortage":0,"booking":14,"fulfillment":14,"port_name":"Durban","position":{"lat":-29.8579,"lng":31.0292},"status":"surplus"},{"frame_index":495,"name":"ports_2","capacity":10000,"empty":335,"full":285,"shortage":0,"booking":11,"fulfillment":11,"port_name":"Itagual","position":{"lat":-22.85222,"lng":-43.77528},"status":"surplus"},{"frame_index":495,"name":"ports_3","capacity":10000,"empty":169,"full":649,"shortage":0,"booking":72,"fulfillment":72,"port_name":"LeHavre","position":{"lat":49.490002,"lng":0.1},"status":"demand"},{"frame_index":495,"name":"ports_4","capacity":10000,"empty":32,"full":1112,"shortage":0,"booking":59,"fulfillment":59,"port_name":"Los Angeles","position":{"lat":34.052235,"lng":-118.243683},"status":"demand"},{"frame_index":495,"name":"ports_5","capacity":10000,"empty":702,"full":592,"shortage":0,"booking":62,"fulfillment":62,"port_name":"Manzanillo","position":{"lat":19.11695,"lng":-104.34214},"status":"surplus"},{"frame_index":495,"name":"ports_6","capacity":10000,"empty":250,"full":63,"shortage":0,"booking":19,"fulfillment":19,"port_name":"Melbourne","position":{"lat":-37.840935,"lng":144.946457},"status":"surplus"},{"frame_index":495,"name":"ports_7","capacity":10000,"empty":2698,"full":199,"shortage":0,"booking":18,"fulfillment":18,"port_name":"Montreal","position":{"lat":45.516136,"lng":-73.65683},"status":"surplus"},{"frame_index":495,"name":"ports_8","capacity":10000,"empty":7040,"full":635,"shortage":0,"booking":35,"fulfillment":35,"port_name":"New York","position":{"lat":40.73061,"lng":-73.935242},"status":"surplus"},{"frame_index":495,"name":"ports_9","capacity":10000,"empty":5101,"full":199,"shortage":0,"booking":35,"fulfillment":35,"port_name":"Oakland","position":{"lat":37.804363,"lng":-122.271111},"status":"surplus"},{"frame_index":495,"name":"ports_10","capacity":10000,"empty":2782,"full":532,"shortage":0,"booking":20,"fulfillment":20,"port_name":"Prince Rupert","position":{"lat":54.312519,"lng":-130.305405},"status":"surplus"},{"frame_index":495,"name":"ports_11","capacity":10000,"empty":0,"full":648,"shortage":74,"booking":74,"fulfillment":0,"port_name":"Pusan","position":{"lat":35.166668,"lng":129.066666},"status":"demand"},{"frame_index":495,"name":"ports_12","capacity":10000,"empty":2334,"full":1704,"shortage":0,"booking":97,"fulfillment":97,"port_name":"Qingdao","position":{"lat":36.066898,"lng":120.382698},"status":"surplus"},{"frame_index":495,"name":"ports_13","capacity":10000,"empty":281,"full":155,"shortage":0,"booking":12,"fulfillment":12,"port_name":"San Antonio","position":{"lat":29.424349,"lng":-98.491142},"status":"surplus"},{"frame_index":495,"name":"ports_14","capacity":10000,"empty":0,"full":340,"shortage":13,"booking":13,"fulfillment":0,"port_name":"Santos","position":{"lat":-23.96083,"lng":-46.33361},"status":"demand"},{"frame_index":495,"name":"ports_15","capacity":10000,"empty":0,"full":800,"shortage":84,"booking":84,"fulfillment":0,"port_name":"Seattle","position":{"lat":47.608013,"lng":-122.335167},"status":"demand"},{"frame_index":495,"name":"ports_16","capacity":10000,"empty":109,"full":810,"shortage":0,"booking":134,"fulfillment":134,"port_name":"Shanghai","position":{"lat":31.224361,"lng":121.46917},"status":"demand"},{"frame_index":495,"name":"ports_17","capacity":10000,"empty":0,"full":335,"shortage":26,"booking":49,"fulfillment":23,"port_name":"Singapore","position":{"lat":1.29027,"lng":103.851959},"status":"demand"},{"frame_index":495,"name":"ports_18","capacity":10000,"empty":0,"full":237,"shortage":18,"booking":18,"fulfillment":0,"port_name":"Sydney","position":{"lat":-33.865143,"lng":151.2099},"status":"demand"},{"frame_index":495,"name":"ports_19","capacity":10000,"empty":126,"full":476,"shortage":0,"booking":25,"fulfillment":25,"port_name":"Vancouver","position":{"lat":49.246292,"lng":-123.116226},"status":"balance"},{"frame_index":495,"name":"ports_20","capacity":10000,"empty":0,"full":654,"shortage":75,"booking":75,"fulfillment":0,"port_name":"Yantian","position":{"lat":26.8533,"lng":119.8575},"status":"demand"},{"frame_index":495,"name":"ports_21","capacity":10000,"empty":0,"full":1041,"shortage":86,"booking":86,"fulfillment":0,"port_name":"Yokohama","position":{"lat":35.443707,"lng":139.638031},"status":"demand"}]