[{"frame_index":191,"name":"ports_0","capacity":10000,"empty":688,"full":971,"shortage":0,"booking":116,"fulfillment":116,"port_name":"Bremerhaven","position":{"lat":53.549999,"lng":8.583333},"status":"surplus"},{"frame_index":191,"name":"ports_1","capacity":10000,"empty":397,"full":520,"shortage":0,"booking":7,"fulfillment":7,"port_name":"Durban","position":{"lat":-29.8579,"lng":31.0292},"status":"surplus"},{"frame_index":191,"name":"ports_2","capacity":10000,"empty":31,"full":7,"shortage":0,"booking":7,"fulfillment":7,"port_name":"Itagual","position":{"lat":-22.85222,"lng":-43.77528},"status":"balance"},{"frame_index":191,"name":"ports_3","capacity":10000,"empty":1364,"full":1717,"shortage":0,"booking":41,"fulfillment":41,"port_name":"LeHavre","position":{"lat":49.490002,"lng":0.1},"status":"surplus"},{"frame_index":191,"name":"ports_4","capacity":10000,"empty":1154,"full":900,"shortage":0,"booking":35,"fulfillment":35,"port_name":"Los Angeles","position":{"lat":34.052235,"lng":-118.243683},"status":"surplus"},{"frame_index":191,"name":"ports_5","capacity":10000,"empty":899,"full":214,"shortage":0,"booking":35,"fulfillment":35,"port_name":"Manzanillo","position":{"lat":19.11695,"lng":-104.34214},"status":"surplus"},{"frame_index":191,"name":"ports_6","capacity":10000,"empty":0,"full":200,"shortage":11,"booking":11,"fulfillment":0,"port_name":"Melbourne","position":{"lat":-37.840935,"lng":144.946457},"status":"demand"},{"frame_index":191,"name":"ports_7","capacity":10000,"empty":154,"full":237,"shortage":0,"booking":11,"fulfillment":11,"port_name":"Montreal","position":{"lat":45.516136,"lng":-73.65683},"status":"surplus"},{"frame_index":191,"name":"ports_8","capacity":10000,"empty":6977,"full":996,"shortage":0,"booking":21,"fulfillment":21,"port_name":"New York","position":{"lat":40.73061,"lng":-73.935242},"status":"surplus"},{"frame_index":191,"name":"ports_9","capacity":10000,"empty":729,"full":0,"shortage":22,"booking":22,"fulfillment":0,"port_name":"Oakland","position":{"lat":37.804363,"lng":-122.271111},"status":"surplus"},{"frame_index":191,"name":"ports_10","capacity":10000,"empty":542,"full":407,"shortage":0,"booking":12,"fulfillment":12,"port_name":"Prince Rupert","position":{"lat":54.312519,"lng":-130.305405},"status":"surplus"},{"frame_index":191,"name":"ports_11","capacity":10000,"empty":2846,"full":848,"shortage":0,"booking":42,"fulfillment":42,"port_name":"Pusan","position":{"lat":35.166668,"lng":129.066666},"status":"surplus"},{"frame_index":191,"name":"ports_12","capacity":10000,"empty":0,"full":1570,"shortage":49,"booking":49,"fulfillment":0,"port_name":"Qingdao","position":{"lat":36.066898,"lng":120.382698},"status":"demand"},{"frame_index":191,"name":"ports_13","capacity":10000,"empty":1047,"full":0,"shortage":0,"booking":8,"fulfillment":8,"port_name":"San Antonio","position":{"lat":29.424349,"lng":-98.491142},"status":"surplus"},{"frame_index":191,"name":"ports_14","capacity":10000,"empty":0,"full":74,"shortage":9,"booking":9,"fulfillment":0,"port_name":"Santos","position":{"lat":-23.96083,"lng":-46.33361},"status":"balance"},{"frame_index":191,"name":"ports_15","capacity":10000,"empty":314,"full":1828,"shortage":0,"booking":47,"fulfillment":47,"port_name":"Seattle","position":{"lat":47.608013,"lng":-122.335167},"status":"surplus"},{"frame_index":191,"name":"ports_16","capacity":10000,"empty":642,"full":620,"shortage":0,"booking":67,"fulfillment":67,"port_name":"Shanghai","position":{"lat":31.224361,"lng":121.46917},"status":"surplus"},{"frame_index":191,"name":"ports_17","capacity":10000,"empty":126,"full":600,"shortage":0,"booking":28,"fulfillment":28,"port_name":"Singapore","position":{"lat":1.29027,"lng":103.851959},"status":"balance"},{"frame_index":191,"name":"ports_18","capacity":10000,"empty":464,"full":191,"shortage":0,"booking":10,"fulfillment":10,"port_name":"Sydney","position":{"lat":-33.865143,"lng":151.2099},"status":"surplus"},{"frame_index":191,"name":"ports_19","capacity":10000,"empty":1072,"full":94,"shortage":0,"booking":13,"fulfillment":13,"port_name":"Vancouver","position":{"lat":49.246292,"lng":-123.116226},"status":"surplus"},{"frame_index":191,"name":"ports_20","capacity":10000,"empty":550,"full":330,"shortage":0,"booking":53,"fulfillment":53,"port_name":"Yantian","position":{"lat":26.8533,"lng":119.8575},"status":"surplus"},{"frame_index":191,"name":"ports_21","capacity":10000,"empty":0,"full":659,"shortage":45,"booking":45,"fulfillment":0,"port_name":"Yokohama","position":{"lat":35.443707,"lng":139.638031},"status":"demand"}]