[{"frame_index":163,"name":"ports_0","capacity":10000,"empty":0,"full":884,"shortage":88,"booking":88,"fulfillment":0,"port_name":"Bremerhaven","position":{"lat":53.549999,"lng":8.583333},"status":"demand"},{"frame_index":163,"name":"ports_1","capacity":10000,"empty":752,"full":168,"shortage":0,"booking":5,"fulfillment":5,"port_name":"Durban","position":{"lat":-29.8579,"lng":31.0292},"status":"surplus"},{"frame_index":163,"name":"ports_2","capacity":10000,"empty":282,"full":16,"shortage":0,"booking":5,"fulfillment":5,"port_name":"Itagual","position":{"lat":-22.85222,"lng":-43.77528},"status":"surplus"},{"frame_index":163,"name":"ports_3","capacity":10000,"empty":825,"full":649,"shortage":0,"booking":30,"fulfillment":30,"port_name":"LeHavre","position":{"lat":49.490002,"lng":0.1},"status":"surplus"},{"frame_index":163,"name":"ports_4","capacity":10000,"empty":0,"full":1656,"shortage":25,"booking":25,"fulfillment":0,"port_name":"Los Angeles","position":{"lat":34.052235,"lng":-118.243683},"status":"demand"},{"frame_index":163,"name":"ports_5","capacity":10000,"empty":1095,"full":28,"shortage":0,"booking":26,"fulfillment":26,"port_name":"Manzanillo","position":{"lat":19.11695,"lng":-104.34214},"status":"surplus"},{"frame_index":163,"name":"ports_6","capacity":10000,"empty":0,"full":175,"shortage":8,"booking":8,"fulfillment":0,"port_name":"Melbourne","position":{"lat":-37.840935,"lng":144.946457},"status":"balance"},{"frame_index":163,"name":"ports_7","capacity":10000,"empty":422,"full":338,"shortage":0,"booking":8,"fulfillment":8,"port_name":"Montreal","position":{"lat":45.516136,"lng":-73.65683},"status":"surplus"},{"frame_index":163,"name":"ports_8","capacity":10000,"empty":5513,"full":1147,"shortage":0,"booking":16,"fulfillment":16,"port_name":"New York","position":{"lat":40.73061,"lng":-73.935242},"status":"surplus"},{"frame_index":163,"name":"ports_9","capacity":10000,"empty":97,"full":992,"shortage":0,"booking":16,"fulfillment":16,"port_name":"Oakland","position":{"lat":37.804363,"lng":-122.271111},"status":"balance"},{"frame_index":163,"name":"ports_10","capacity":10000,"empty":1127,"full":277,"shortage":0,"booking":9,"fulfillment":9,"port_name":"Prince Rupert","position":{"lat":54.312519,"lng":-130.305405},"status":"surplus"},{"frame_index":163,"name":"ports_11","capacity":10000,"empty":4997,"full":974,"shortage":0,"booking":31,"fulfillment":31,"port_name":"Pusan","position":{"lat":35.166668,"lng":129.066666},"status":"surplus"},{"frame_index":163,"name":"ports_12","capacity":10000,"empty":1389,"full":1173,"shortage":0,"booking":42,"fulfillment":42,"port_name":"Qingdao","position":{"lat":36.066898,"lng":120.382698},"status":"surplus"},{"frame_index":163,"name":"ports_13","capacity":10000,"empty":1379,"full":417,"shortage":0,"booking":5,"fulfillment":5,"port_name":"San Antonio","position":{"lat":29.424349,"lng":-98.491142},"status":"surplus"},{"frame_index":163,"name":"ports_14","capacity":10000,"empty":0,"full":74,"shortage":6,"booking":6,"fulfillment":0,"port_name":"Santos","position":{"lat":-23.96083,"lng":-46.33361},"status":"balance"},{"frame_index":163,"name":"ports_15","capacity":10000,"empty":909,"full":1560,"shortage":0,"booking":36,"fulfillment":36,"port_name":"Seattle","position":{"lat":47.608013,"lng":-122.335167},"status":"surplus"},{"frame_index":163,"name":"ports_16","capacity":10000,"empty":209,"full":1276,"shortage":0,"booking":44,"fulfillment":44,"port_name":"Shanghai","position":{"lat":31.224361,"lng":121.46917},"status":"balance"},{"frame_index":163,"name":"ports_17","capacity":10000,"empty":0,"full":663,"shortage":20,"booking":20,"fulfillment":0,"port_name":"Singapore","position":{"lat":1.29027,"lng":103.851959},"status":"demand"},{"frame_index":163,"name":"ports_18","capacity":10000,"empty":744,"full":344,"shortage":0,"booking":8,"fulfillment":8,"port_name":"Sydney","position":{"lat":-33.865143,"lng":151.2099},"status":"surplus"},{"frame_index":163,"name":"ports_19","capacity":10000,"empty":761,"full":427,"shortage":0,"booking":10,"fulfillment":10,"port_name":"Vancouver","position":{"lat":49.246292,"lng":-123.116226},"status":"surplus"},{"frame_index":163,"name":"ports_20","capacity":10000,"empty":0,"full":419,"shortage":20,"booking":35,"fulfillment":15,"port_name":"Yantian","position":{"lat":26.8533,"lng":119.8575},"status":"demand"},{"frame_index":163,"name":"ports_21","capacity":10000,"empty":0,"full":703,"shortage":31,"booking":31,"fulfillment":0,"port_name":"Yokohama","position":{"lat":35.443707,"lng":139.638031},"status":"demand"}]