[{"frame_index":118,"name":"ports_0","capacity":10000,"empty":240,"full":2802,"shortage":0,"booking":50,"fulfillment":50,"port_name":"Bremerhaven","position":{"lat":53.549999,"lng":8.583333},"status":"balance"},{"frame_index":118,"name":"ports_1","capacity":10000,"empty":737,"full":156,"shortage":0,"booking":4,"fulfillment":4,"port_name":"Durban","position":{"lat":-29.8579,"lng":31.0292},"status":"surplus"},{"frame_index":118,"name":"ports_2","capacity":10000,"empty":0,"full":550,"shortage":3,"booking":3,"fulfillment":0,"port_name":"Itagual","position":{"lat":-22.85222,"lng":-43.77528},"status":"balance"},{"frame_index":118,"name":"ports_3","capacity":10000,"empty":1170,"full":1034,"shortage":0,"booking":18,"fulfillment":18,"port_name":"LeHavre","position":{"lat":49.490002,"lng":0.1},"status":"surplus"},{"frame_index":118,"name":"ports_4","capacity":10000,"empty":1499,"full":131,"shortage":0,"booking":15,"fulfillment":15,"port_name":"Los Angeles","position":{"lat":34.052235,"lng":-118.243683},"status":"surplus"},{"frame_index":118,"name":"ports_5","capacity":10000,"empty":1469,"full":495,"shortage":0,"booking":17,"fulfillment":17,"port_name":"Manzanillo","position":{"lat":19.11695,"lng":-104.34214},"status":"surplus"},{"frame_index":118,"name":"ports_6","capacity":10000,"empty":234,"full":141,"shortage":0,"booking":5,"fulfillment":5,"port_name":"Melbourne","position":{"lat":-37.840935,"lng":144.946457},"status":"surplus"},{"frame_index":118,"name":"ports_7","capacity":10000,"empty":736,"full":288,"shortage":0,"booking":5,"fulfillment":5,"port_name":"Montreal","position":{"lat":45.516136,"lng":-73.65683},"status":"surplus"},{"frame_index":118,"name":"ports_8","capacity":10000,"empty":6572,"full":91,"shortage":0,"booking":9,"fulfillment":9,"port_name":"New York","position":{"lat":40.73061,"lng":-73.935242},"status":"surplus"},{"frame_index":118,"name":"ports_9","capacity":10000,"empty":1177,"full":278,"shortage":0,"booking":9,"fulfillment":9,"port_name":"Oakland","position":{"lat":37.804363,"lng":-122.271111},"status":"surplus"},{"frame_index":118,"name":"ports_10","capacity":10000,"empty":217,"full":266,"shortage":0,"booking":5,"fulfillment":5,"port_name":"Prince Rupert","position":{"lat":54.312519,"lng":-130.305405},"status":"surplus"},{"frame_index":118,"name":"ports_11","capacity":10000,"empty":1927,"full":733,"shortage":0,"booking":18,"fulfillment":18,"port_name":"Pusan","position":{"lat":35.166668,"lng":129.066666},"status":"surplus"},{"frame_index":118,"name":"ports_12","capacity":10000,"empty":3016,"full":468,"shortage":0,"booking":26,"fulfillment":26,"port_name":"Qingdao","position":{"lat":36.066898,"lng":120.382698},"status":"surplus"},{"frame_index":118,"name":"ports_13","capacity":10000,"empty":1755,"full":42,"shortage":0,"booking":3,"fulfillment":3,"port_name":"San Antonio","position":{"lat":29.424349,"lng":-98.491142},"status":"surplus"},{"frame_index":118,"name":"ports_14","capacity":10000,"empty":59,"full":9,"shortage":0,"booking":3,"fulfillment":3,"port_name":"Santos","position":{"lat":-23.96083,"lng":-46.33361},"status":"balance"},{"frame_index":118,"name":"ports_15","capacity":10000,"empty":3858,"full":360,"shortage":0,"booking":21,"fulfillment":21,"port_name":"Seattle","position":{"lat":47.608013,"lng":-122.335167},"status":"surplus"},{"frame_index":118,"name":"ports_16","capacity":10000,"empty":19,"full":654,"shortage":0,"booking":29,"fulfillment":29,"port_name":"Shanghai","position":{"lat":31.224361,"lng":121.46917},"status":"demand"},{"frame_index":118,"name":"ports_17","capacity":10000,"empty":1578,"full":109,"shortage":0,"booking":12,"fulfillment":12,"port_name":"Singapore","position":{"lat":1.29027,"lng":103.851959},"status":"surplus"},{"frame_index":118,"name":"ports_18","capacity":10000,"empty":734,"full":51,"shortage":0,"booking":5,"fulfillment":5,"port_name":"Sydney","position":{"lat":-33.865143,"lng":151.2099},"status":"surplus"},{"frame_index":118,"name":"ports_19","capacity":10000,"empty":120,"full":237,"shortage":0,"booking":6,"fulfillment":6,"port_name":"Vancouver","position":{"lat":49.246292,"lng":-123.116226},"status":"surplus"},{"frame_index":118,"name":"ports_20","capacity":10000,"empty":702,"full":189,"shortage":0,"booking":23,"fulfillment":23,"port_name":"Yantian","position":{"lat":26.8533,"lng":119.8575},"status":"surplus"},{"frame_index":118,"name":"ports_21","capacity":10000,"empty":124,"full":157,"shortage":0,"booking":11,"fulfillment":11,"port_name":"Yokohama","position":{"lat":35.443707,"lng":139.638031},"status":"surplus"}]