[{"frame_index":855,"name":"ports_0","capacity":10000,"empty":3596,"full":1180,"shortage":0,"booking":258,"fulfillment":258,"port_name":"Bremerhaven","position":{"lat":53.549999,"lng":8.583333},"status":"surplus"},{"frame_index":855,"name":"ports_1","capacity":10000,"empty":187,"full":107,"shortage":0,"booking":20,"fulfillment":20,"port_name":"Durban","position":{"lat":-29.8579,"lng":31.0292},"status":"surplus"},{"frame_index":855,"name":"ports_2","capacity":10000,"empty":335,"full":130,"shortage":0,"booking":19,"fulfillment":19,"port_name":"Itagual","position":{"lat":-22.85222,"lng":-43.77528},"status":"surplus"},{"frame_index":855,"name":"ports_3","capacity":10000,"empty":0,"full":1083,"shortage":107,"booking":107,"fulfillment":0,"port_name":"LeHavre","position":{"lat":49.490002,"lng":0.1},"status":"demand"},{"frame_index":855,"name":"ports_4","capacity":10000,"empty":776,"full":1555,"shortage":0,"booking":91,"fulfillment":91,"port_name":"Los Angeles","position":{"lat":34.052235,"lng":-118.243683},"status":"surplus"},{"frame_index":855,"name":"ports_5","capacity":10000,"empty":0,"full":454,"shortage":85,"booking":85,"fulfillment":0,"port_name":"Manzanillo","position":{"lat":19.11695,"lng":-104.34214},"status":"demand"},{"frame_index":855,"name":"ports_6","capacity":10000,"empty":0,"full":85,"shortage":27,"booking":27,"fulfillment":0,"port_name":"Melbourne","position":{"lat":-37.840935,"lng":144.946457},"status":"demand"},{"frame_index":855,"name":"ports_7","capacity":10000,"empty":1903,"full":116,"shortage":0,"booking":27,"fulfillment":27,"port_name":"Montreal","position":{"lat":45.516136,"lng":-73.65683},"status":"surplus"},{"frame_index":855,"name":"ports_8","capacity":10000,"empty":10805,"full":191,"shortage":0,"booking":58,"fulfillment":58,"port_name":"New York","position":{"lat":40.73061,"lng":-73.935242},"status":"surplus"},{"frame_index":855,"name":"ports_9","capacity":10000,"empty":590,"full":601,"shortage":0,"booking":50,"fulfillment":50,"port_name":"Oakland","position":{"lat":37.804363,"lng":-122.271111},"status":"surplus"},{"frame_index":855,"name":"ports_10","capacity":10000,"empty":3389,"full":61,"shortage":0,"booking":26,"fulfillment":26,"port_name":"Prince Rupert","position":{"lat":54.312519,"lng":-130.305405},"status":"surplus"},{"frame_index":855,"name":"ports_11","capacity":10000,"empty":0,"full":659,"shortage":76,"booking":103,"fulfillment":27,"port_name":"Pusan","position":{"lat":35.166668,"lng":129.066666},"status":"demand"},{"frame_index":855,"name":"ports_12","capacity":10000,"empty":291,"full":2279,"shortage":0,"booking":157,"fulfillment":157,"port_name":"Qingdao","position":{"lat":36.066898,"lng":120.382698},"status":"demand"},{"frame_index":855,"name":"ports_13","capacity":10000,"empty":1277,"full":106,"shortage":0,"booking":19,"fulfillment":19,"port_name":"San Antonio","position":{"lat":29.424349,"lng":-98.491142},"status":"surplus"},{"frame_index":855,"name":"ports_14","capacity":10000,"empty":139,"full":314,"shortage":0,"booking":17,"fulfillment":17,"port_name":"Santos","position":{"lat":-23.96083,"lng":-46.33361},"status":"surplus"},{"frame_index":855,"name":"ports_15","capacity":10000,"empty":0,"full":635,"shortage":88,"booking":127,"fulfillment":39,"port_name":"Seattle","position":{"lat":47.608013,"lng":-122.335167},"status":"demand"},{"frame_index":855,"name":"ports_16","capacity":10000,"empty":727,"full":1782,"shortage":0,"booking":165,"fulfillment":165,"port_name":"Shanghai","position":{"lat":31.224361,"lng":121.46917},"status":"demand"},{"frame_index":855,"name":"ports_17","capacity":10000,"empty":446,"full":822,"shortage":0,"booking":71,"fulfillment":71,"port_name":"Singapore","position":{"lat":1.29027,"lng":103.851959},"status":"surplus"},{"frame_index":855,"name":"ports_18","capacity":10000,"empty":0,"full":287,"shortage":30,"booking":30,"fulfillment":0,"port_name":"Sydney","position":{"lat":-33.865143,"lng":151.2099},"status":"demand"},{"frame_index":855,"name":"ports_19","capacity":10000,"empty":0,"full":175,"shortage":33,"booking":33,"fulfillment":0,"port_name":"Vancouver","position":{"lat":49.246292,"lng":-123.116226},"status":"demand"},{"frame_index":855,"name":"ports_20","capacity":10000,"empty":0,"full":623,"shortage":120,"booking":120,"fulfillment":0,"port_name":"Yantian","position":{"lat":26.8533,"lng":119.8575},"status":"demand"},{"frame_index":855,"name":"ports_21","capacity":10000,"empty":0,"full":524,"shortage":136,"booking":136,"fulfillment":0,"port_name":"Yokohama","position":{"lat":35.443707,"lng":139.638031},"status":"demand"}]