[{"frame_index":711,"name":"ports_0","capacity":10000,"empty":832,"full":2342,"shortage":0,"booking":175,"fulfillment":175,"port_name":"Bremerhaven","position":{"lat":53.549999,"lng":8.583333},"status":"balance"},{"frame_index":711,"name":"ports_1","capacity":10000,"empty":181,"full":12,"shortage":0,"booking":12,"fulfillment":12,"port_name":"Durban","position":{"lat":-29.8579,"lng":31.0292},"status":"surplus"},{"frame_index":711,"name":"ports_2","capacity":10000,"empty":410,"full":341,"shortage":0,"booking":12,"fulfillment":12,"port_name":"Itagual","position":{"lat":-22.85222,"lng":-43.77528},"status":"surplus"},{"frame_index":711,"name":"ports_3","capacity":10000,"empty":1995,"full":396,"shortage":0,"booking":69,"fulfillment":69,"port_name":"LeHavre","position":{"lat":49.490002,"lng":0.1},"status":"surplus"},{"frame_index":711,"name":"ports_4","capacity":10000,"empty":1440,"full":632,"shortage":0,"booking":57,"fulfillment":57,"port_name":"Los Angeles","position":{"lat":34.052235,"lng":-118.243683},"status":"surplus"},{"frame_index":711,"name":"ports_5","capacity":10000,"empty":318,"full":665,"shortage":0,"booking":53,"fulfillment":53,"port_name":"Manzanillo","position":{"lat":19.11695,"lng":-104.34214},"status":"surplus"},{"frame_index":711,"name":"ports_6","capacity":10000,"empty":44,"full":176,"shortage":0,"booking":18,"fulfillment":18,"port_name":"Melbourne","position":{"lat":-37.840935,"lng":144.946457},"status":"balance"},{"frame_index":711,"name":"ports_7","capacity":10000,"empty":2427,"full":24,"shortage":0,"booking":17,"fulfillment":17,"port_name":"Montreal","position":{"lat":45.516136,"lng":-73.65683},"status":"surplus"},{"frame_index":711,"name":"ports_8","capacity":10000,"empty":11921,"full":771,"shortage":0,"booking":34,"fulfillment":34,"port_name":"New York","position":{"lat":40.73061,"lng":-73.935242},"status":"surplus"},{"frame_index":711,"name":"ports_9","capacity":10000,"empty":882,"full":397,"shortage":0,"booking":39,"fulfillment":39,"port_name":"Oakland","position":{"lat":37.804363,"lng":-122.271111},"status":"surplus"},{"frame_index":711,"name":"ports_10","capacity":10000,"empty":2803,"full":191,"shortage":0,"booking":16,"fulfillment":16,"port_name":"Prince Rupert","position":{"lat":54.312519,"lng":-130.305405},"status":"surplus"},{"frame_index":711,"name":"ports_11","capacity":10000,"empty":89,"full":1046,"shortage":0,"booking":71,"fulfillment":71,"port_name":"Pusan","position":{"lat":35.166668,"lng":129.066666},"status":"demand"},{"frame_index":711,"name":"ports_12","capacity":10000,"empty":375,"full":1748,"shortage":0,"booking":97,"fulfillment":97,"port_name":"Qingdao","position":{"lat":36.066898,"lng":120.382698},"status":"demand"},{"frame_index":711,"name":"ports_13","capacity":10000,"empty":6051,"full":24,"shortage":0,"booking":11,"fulfillment":11,"port_name":"San Antonio","position":{"lat":29.424349,"lng":-98.491142},"status":"surplus"},{"frame_index":711,"name":"ports_14","capacity":10000,"empty":578,"full":67,"shortage":0,"booking":11,"fulfillment":11,"port_name":"Santos","position":{"lat":-23.96083,"lng":-46.33361},"status":"surplus"},{"frame_index":711,"name":"ports_15","capacity":10000,"empty":110,"full":1222,"shortage":0,"booking":82,"fulfillment":82,"port_name":"Seattle","position":{"lat":47.608013,"lng":-122.335167},"status":"demand"},{"frame_index":711,"name":"ports_16","capacity":10000,"empty":139,"full":1483,"shortage":0,"booking":106,"fulfillment":106,"port_name":"Shanghai","position":{"lat":31.224361,"lng":121.46917},"status":"demand"},{"frame_index":711,"name":"ports_17","capacity":10000,"empty":255,"full":158,"shortage":0,"booking":45,"fulfillment":45,"port_name":"Singapore","position":{"lat":1.29027,"lng":103.851959},"status":"balance"},{"frame_index":711,"name":"ports_18","capacity":10000,"empty":116,"full":99,"shortage":0,"booking":17,"fulfillment":17,"port_name":"Sydney","position":{"lat":-33.865143,"lng":151.2099},"status":"balance"},{"frame_index":711,"name":"ports_19","capacity":10000,"empty":46,"full":145,"shortage":0,"booking":22,"fulfillment":22,"port_name":"Vancouver","position":{"lat":49.246292,"lng":-123.116226},"status":"demand"},{"frame_index":711,"name":"ports_20","capacity":10000,"empty":0,"full":663,"shortage":88,"booking":88,"fulfillment":0,"port_name":"Yantian","position":{"lat":26.8533,"lng":119.8575},"status":"demand"},{"frame_index":711,"name":"ports_21","capacity":10000,"empty":374,"full":86,"shortage":0,"booking":78,"fulfillment":78,"port_name":"Yokohama","position":{"lat":35.443707,"lng":139.638031},"status":"balance"}]