[{"frame_index":453,"name":"ports_0","capacity":10000,"empty":5373,"full":2028,"shortage":0,"booking":77,"fulfillment":77,"port_name":"Bremerhaven","position":{"lat":53.549999,"lng":8.583333},"status":"surplus"},{"frame_index":453,"name":"ports_1","capacity":10000,"empty":830,"full":96,"shortage":0,"booking":5,"fulfillment":5,"port_name":"Durban","position":{"lat":-29.8579,"lng":31.0292},"status":"surplus"},{"frame_index":453,"name":"ports_2","capacity":10000,"empty":2,"full":649,"shortage":0,"booking":5,"fulfillment":5,"port_name":"Itagual","position":{"lat":-22.85222,"lng":-43.77528},"status":"balance"},{"frame_index":453,"name":"ports_3","capacity":10000,"empty":2664,"full":486,"shortage":0,"booking":27,"fulfillment":27,"port_name":"LeHavre","position":{"lat":49.490002,"lng":0.1},"status":"surplus"},{"frame_index":453,"name":"ports_4","capacity":10000,"empty":3469,"full":38,"shortage":0,"booking":23,"fulfillment":23,"port_name":"Los Angeles","position":{"lat":34.052235,"lng":-118.243683},"status":"surplus"},{"frame_index":453,"name":"ports_5","capacity":10000,"empty":704,"full":1144,"shortage":0,"booking":23,"fulfillment":23,"port_name":"Manzanillo","position":{"lat":19.11695,"lng":-104.34214},"status":"surplus"},{"frame_index":453,"name":"ports_6","capacity":10000,"empty":0,"full":252,"shortage":7,"booking":7,"fulfillment":0,"port_name":"Melbourne","position":{"lat":-37.840935,"lng":144.946457},"status":"balance"},{"frame_index":453,"name":"ports_7","capacity":10000,"empty":1748,"full":228,"shortage":0,"booking":7,"fulfillment":7,"port_name":"Montreal","position":{"lat":45.516136,"lng":-73.65683},"status":"surplus"},{"frame_index":453,"name":"ports_8","capacity":10000,"empty":6168,"full":37,"shortage":0,"booking":14,"fulfillment":14,"port_name":"New York","position":{"lat":40.73061,"lng":-73.935242},"status":"surplus"},{"frame_index":453,"name":"ports_9","capacity":10000,"empty":3851,"full":1596,"shortage":0,"booking":12,"fulfillment":12,"port_name":"Oakland","position":{"lat":37.804363,"lng":-122.271111},"status":"surplus"},{"frame_index":453,"name":"ports_10","capacity":10000,"empty":3289,"full":45,"shortage":0,"booking":7,"fulfillment":7,"port_name":"Prince Rupert","position":{"lat":54.312519,"lng":-130.305405},"status":"surplus"},{"frame_index":453,"name":"ports_11","capacity":10000,"empty":2018,"full":194,"shortage":0,"booking":28,"fulfillment":28,"port_name":"Pusan","position":{"lat":35.166668,"lng":129.066666},"status":"surplus"},{"frame_index":453,"name":"ports_12","capacity":10000,"empty":566,"full":620,"shortage":0,"booking":39,"fulfillment":39,"port_name":"Qingdao","position":{"lat":36.066898,"lng":120.382698},"status":"surplus"},{"frame_index":453,"name":"ports_13","capacity":10000,"empty":377,"full":31,"shortage":0,"booking":5,"fulfillment":5,"port_name":"San Antonio","position":{"lat":29.424349,"lng":-98.491142},"status":"surplus"},{"frame_index":453,"name":"ports_14","capacity":10000,"empty":328,"full":9,"shortage":0,"booking":6,"fulfillment":6,"port_name":"Santos","position":{"lat":-23.96083,"lng":-46.33361},"status":"surplus"},{"frame_index":453,"name":"ports_15","capacity":10000,"empty":614,"full":924,"shortage":0,"booking":33,"fulfillment":33,"port_name":"Seattle","position":{"lat":47.608013,"lng":-122.335167},"status":"surplus"},{"frame_index":453,"name":"ports_16","capacity":10000,"empty":0,"full":306,"shortage":45,"booking":45,"fulfillment":0,"port_name":"Shanghai","position":{"lat":31.224361,"lng":121.46917},"status":"demand"},{"frame_index":453,"name":"ports_17","capacity":10000,"empty":147,"full":116,"shortage":0,"booking":18,"fulfillment":18,"port_name":"Singapore","position":{"lat":1.29027,"lng":103.851959},"status":"surplus"},{"frame_index":453,"name":"ports_18","capacity":10000,"empty":0,"full":400,"shortage":7,"booking":7,"fulfillment":0,"port_name":"Sydney","position":{"lat":-33.865143,"lng":151.2099},"status":"balance"},{"frame_index":453,"name":"ports_19","capacity":10000,"empty":672,"full":61,"shortage":0,"booking":10,"fulfillment":10,"port_name":"Vancouver","position":{"lat":49.246292,"lng":-123.116226},"status":"surplus"},{"frame_index":453,"name":"ports_20","capacity":10000,"empty":149,"full":251,"shortage":0,"booking":29,"fulfillment":29,"port_name":"Yantian","position":{"lat":26.8533,"lng":119.8575},"status":"balance"},{"frame_index":453,"name":"ports_21","capacity":10000,"empty":0,"full":495,"shortage":24,"booking":24,"fulfillment":0,"port_name":"Yokohama","position":{"lat":35.443707,"lng":139.638031},"status":"demand"}]