[{"frame_index":42,"name":"ports_0","capacity":10000,"empty":11877,"full":2628,"shortage":0,"booking":281,"fulfillment":281,"port_name":"Bremerhaven","position":{"lat":53.549999,"lng":8.583333},"status":"surplus"},{"frame_index":42,"name":"ports_1","capacity":10000,"empty":894,"full":37,"shortage":0,"booking":18,"fulfillment":18,"port_name":"Durban","position":{"lat":-29.8579,"lng":31.0292},"status":"surplus"},{"frame_index":42,"name":"ports_2","capacity":10000,"empty":571,"full":82,"shortage":0,"booking":19,"fulfillment":19,"port_name":"Itagual","position":{"lat":-22.85222,"lng":-43.77528},"status":"surplus"},{"frame_index":42,"name":"ports_3","capacity":10000,"empty":0,"full":0,"shortage":107,"booking":107,"fulfillment":0,"port_name":"LeHavre","position":{"lat":49.490002,"lng":0.1},"status":"demand"},{"frame_index":42,"name":"ports_4","capacity":10000,"empty":0,"full":432,"shortage":90,"booking":90,"fulfillment":0,"port_name":"Los Angeles","position":{"lat":34.052235,"lng":-118.243683},"status":"demand"},{"frame_index":42,"name":"ports_5","capacity":10000,"empty":3544,"full":91,"shortage":0,"booking":76,"fulfillment":76,"port_name":"Manzanillo","position":{"lat":19.11695,"lng":-104.34214},"status":"surplus"},{"frame_index":42,"name":"ports_6","capacity":10000,"empty":846,"full":245,"shortage":0,"booking":27,"fulfillment":27,"port_name":"Melbourne","position":{"lat":-37.840935,"lng":144.946457},"status":"surplus"},{"frame_index":42,"name":"ports_7","capacity":10000,"empty":1024,"full":161,"shortage":0,"booking":27,"fulfillment":27,"port_name":"Montreal","position":{"lat":45.516136,"lng":-73.65683},"status":"surplus"},{"frame_index":42,"name":"ports_8","capacity":10000,"empty":2000,"full":126,"shortage":0,"booking":56,"fulfillment":56,"port_name":"New York","position":{"lat":40.73061,"lng":-73.935242},"status":"surplus"},{"frame_index":42,"name":"ports_9","capacity":10000,"empty":1455,"full":24,"shortage":0,"booking":46,"fulfillment":46,"port_name":"Oakland","position":{"lat":37.804363,"lng":-122.271111},"status":"surplus"},{"frame_index":42,"name":"ports_10","capacity":10000,"empty":1092,"full":371,"shortage":0,"booking":26,"fulfillment":26,"port_name":"Prince Rupert","position":{"lat":54.312519,"lng":-130.305405},"status":"surplus"},{"frame_index":42,"name":"ports_11","capacity":10000,"empty":5229,"full":598,"shortage":0,"booking":103,"fulfillment":103,"port_name":"Pusan","position":{"lat":35.166668,"lng":129.066666},"status":"surplus"},{"frame_index":42,"name":"ports_12","capacity":10000,"empty":0,"full":776,"shortage":135,"booking":135,"fulfillment":0,"port_name":"Qingdao","position":{"lat":36.066898,"lng":120.382698},"status":"demand"},{"frame_index":42,"name":"ports_13","capacity":10000,"empty":0,"full":38,"shortage":18,"booking":18,"fulfillment":0,"port_name":"San Antonio","position":{"lat":29.424349,"lng":-98.491142},"status":"demand"},{"frame_index":42,"name":"ports_14","capacity":10000,"empty":710,"full":271,"shortage":0,"booking":15,"fulfillment":15,"port_name":"Santos","position":{"lat":-23.96083,"lng":-46.33361},"status":"surplus"},{"frame_index":42,"name":"ports_15","capacity":10000,"empty":6190,"full":174,"shortage":0,"booking":123,"fulfillment":123,"port_name":"Seattle","position":{"lat":47.608013,"lng":-122.335167},"status":"surplus"},{"frame_index":42,"name":"ports_16","capacity":10000,"empty":298,"full":756,"shortage":0,"booking":180,"fulfillment":180,"port_name":"Shanghai","position":{"lat":31.224361,"lng":121.46917},"status":"demand"},{"frame_index":42,"name":"ports_17","capacity":10000,"empty":3967,"full":340,"shortage":0,"booking":70,"fulfillment":70,"port_name":"Singapore","position":{"lat":1.29027,"lng":103.851959},"status":"surplus"},{"frame_index":42,"name":"ports_18","capacity":10000,"empty":1087,"full":32,"shortage":0,"booking":26,"fulfillment":26,"port_name":"Sydney","position":{"lat":-33.865143,"lng":151.2099},"status":"surplus"},{"frame_index":42,"name":"ports_19","capacity":10000,"empty":0,"full":144,"shortage":36,"booking":36,"fulfillment":0,"port_name":"Vancouver","position":{"lat":49.246292,"lng":-123.116226},"status":"demand"},{"frame_index":42,"name":"ports_20","capacity":10000,"empty":0,"full":352,"shortage":131,"booking":131,"fulfillment":0,"port_name":"Yantian","position":{"lat":26.8533,"lng":119.8575},"status":"demand"},{"frame_index":42,"name":"ports_21","capacity":10000,"empty":6305,"full":1494,"shortage":0,"booking":133,"fulfillment":133,"port_name":"Yokohama","position":{"lat":35.443707,"lng":139.638031},"status":"surplus"}]