[{"frame_index":821,"name":"ports_0","capacity":10000,"empty":0,"full":2639,"shortage":112,"booking":112,"fulfillment":0,"port_name":"Bremerhaven","position":{"lat":53.549999,"lng":8.583333},"status":"demand"},{"frame_index":821,"name":"ports_1","capacity":10000,"empty":145,"full":0,"shortage":6,"booking":7,"fulfillment":1,"port_name":"Durban","position":{"lat":-29.8579,"lng":31.0292},"status":"surplus"},{"frame_index":821,"name":"ports_2","capacity":10000,"empty":64,"full":275,"shortage":0,"booking":7,"fulfillment":7,"port_name":"Itagual","position":{"lat":-22.85222,"lng":-43.77528},"status":"balance"},{"frame_index":821,"name":"ports_3","capacity":10000,"empty":660,"full":278,"shortage":0,"booking":42,"fulfillment":42,"port_name":"LeHavre","position":{"lat":49.490002,"lng":0.1},"status":"surplus"},{"frame_index":821,"name":"ports_4","capacity":10000,"empty":104,"full":1282,"shortage":0,"booking":35,"fulfillment":35,"port_name":"Los Angeles","position":{"lat":34.052235,"lng":-118.243683},"status":"demand"},{"frame_index":821,"name":"ports_5","capacity":10000,"empty":253,"full":429,"shortage":0,"booking":36,"fulfillment":36,"port_name":"Manzanillo","position":{"lat":19.11695,"lng":-104.34214},"status":"surplus"},{"frame_index":821,"name":"ports_6","capacity":10000,"empty":0,"full":312,"shortage":10,"booking":10,"fulfillment":0,"port_name":"Melbourne","position":{"lat":-37.840935,"lng":144.946457},"status":"balance"},{"frame_index":821,"name":"ports_7","capacity":10000,"empty":2287,"full":355,"shortage":0,"booking":11,"fulfillment":11,"port_name":"Montreal","position":{"lat":45.516136,"lng":-73.65683},"status":"surplus"},{"frame_index":821,"name":"ports_8","capacity":10000,"empty":12075,"full":587,"shortage":0,"booking":20,"fulfillment":20,"port_name":"New York","position":{"lat":40.73061,"lng":-73.935242},"status":"surplus"},{"frame_index":821,"name":"ports_9","capacity":10000,"empty":517,"full":478,"shortage":0,"booking":17,"fulfillment":17,"port_name":"Oakland","position":{"lat":37.804363,"lng":-122.271111},"status":"surplus"},{"frame_index":821,"name":"ports_10","capacity":10000,"empty":2513,"full":287,"shortage":0,"booking":11,"fulfillment":11,"port_name":"Prince Rupert","position":{"lat":54.312519,"lng":-130.305405},"status":"surplus"},{"frame_index":821,"name":"ports_11","capacity":10000,"empty":0,"full":609,"shortage":43,"booking":43,"fulfillment":0,"port_name":"Pusan","position":{"lat":35.166668,"lng":129.066666},"status":"demand"},{"frame_index":821,"name":"ports_12","capacity":10000,"empty":2350,"full":1071,"shortage":0,"booking":50,"fulfillment":50,"port_name":"Qingdao","position":{"lat":36.066898,"lng":120.382698},"status":"surplus"},{"frame_index":821,"name":"ports_13","capacity":10000,"empty":927,"full":0,"shortage":0,"booking":6,"fulfillment":6,"port_name":"San Antonio","position":{"lat":29.424349,"lng":-98.491142},"status":"surplus"},{"frame_index":821,"name":"ports_14","capacity":10000,"empty":330,"full":260,"shortage":0,"booking":7,"fulfillment":7,"port_name":"Santos","position":{"lat":-23.96083,"lng":-46.33361},"status":"surplus"},{"frame_index":821,"name":"ports_15","capacity":10000,"empty":0,"full":835,"shortage":49,"booking":49,"fulfillment":0,"port_name":"Seattle","position":{"lat":47.608013,"lng":-122.335167},"status":"demand"},{"frame_index":821,"name":"ports_16","capacity":10000,"empty":0,"full":1378,"shortage":13,"booking":79,"fulfillment":66,"port_name":"Shanghai","position":{"lat":31.224361,"lng":121.46917},"status":"demand"},{"frame_index":821,"name":"ports_17","capacity":10000,"empty":1393,"full":405,"shortage":0,"booking":27,"fulfillment":27,"port_name":"Singapore","position":{"lat":1.29027,"lng":103.851959},"status":"surplus"},{"frame_index":821,"name":"ports_18","capacity":10000,"empty":156,"full":120,"shortage":0,"booking":10,"fulfillment":10,"port_name":"Sydney","position":{"lat":-33.865143,"lng":151.2099},"status":"surplus"},{"frame_index":821,"name":"ports_19","capacity":10000,"empty":0,"full":222,"shortage":15,"booking":15,"fulfillment":0,"port_name":"Vancouver","position":{"lat":49.246292,"lng":-123.116226},"status":"demand"},{"frame_index":821,"name":"ports_20","capacity":10000,"empty":210,"full":669,"shortage":0,"booking":46,"fulfillment":46,"port_name":"Yantian","position":{"lat":26.8533,"lng":119.8575},"status":"balance"},{"frame_index":821,"name":"ports_21","capacity":10000,"empty":384,"full":335,"shortage":0,"booking":45,"fulfillment":45,"port_name":"Yokohama","position":{"lat":35.443707,"lng":139.638031},"status":"surplus"}]