[{"frame_index":532,"name":"ports_0","capacity":10000,"empty":5485,"full":2646,"shortage":0,"booking":182,"fulfillment":182,"port_name":"Bremerhaven","position":{"lat":53.549999,"lng":8.583333},"status":"surplus"},{"frame_index":532,"name":"ports_1","capacity":10000,"empty":285,"full":34,"shortage":0,"booking":12,"fulfillment":12,"port_name":"Durban","position":{"lat":-29.8579,"lng":31.0292},"status":"surplus"},{"frame_index":532,"name":"ports_2","capacity":10000,"empty":148,"full":428,"shortage":0,"booking":11,"fulfillment":11,"port_name":"Itagual","position":{"lat":-22.85222,"lng":-43.77528},"status":"surplus"},{"frame_index":532,"name":"ports_3","capacity":10000,"empty":233,"full":655,"shortage":0,"booking":67,"fulfillment":67,"port_name":"LeHavre","position":{"lat":49.490002,"lng":0.1},"status":"demand"},{"frame_index":532,"name":"ports_4","capacity":10000,"empty":3225,"full":31,"shortage":0,"booking":56,"fulfillment":56,"port_name":"Los Angeles","position":{"lat":34.052235,"lng":-118.243683},"status":"surplus"},{"frame_index":532,"name":"ports_5","capacity":10000,"empty":44,"full":16,"shortage":0,"booking":63,"fulfillment":63,"port_name":"Manzanillo","position":{"lat":19.11695,"lng":-104.34214},"status":"demand"},{"frame_index":532,"name":"ports_6","capacity":10000,"empty":0,"full":401,"shortage":17,"booking":17,"fulfillment":0,"port_name":"Melbourne","position":{"lat":-37.840935,"lng":144.946457},"status":"demand"},{"frame_index":532,"name":"ports_7","capacity":10000,"empty":2458,"full":88,"shortage":0,"booking":18,"fulfillment":18,"port_name":"Montreal","position":{"lat":45.516136,"lng":-73.65683},"status":"surplus"},{"frame_index":532,"name":"ports_8","capacity":10000,"empty":6820,"full":1136,"shortage":0,"booking":36,"fulfillment":36,"port_name":"New York","position":{"lat":40.73061,"lng":-73.935242},"status":"surplus"},{"frame_index":532,"name":"ports_9","capacity":10000,"empty":3803,"full":1486,"shortage":0,"booking":38,"fulfillment":38,"port_name":"Oakland","position":{"lat":37.804363,"lng":-122.271111},"status":"surplus"},{"frame_index":532,"name":"ports_10","capacity":10000,"empty":1131,"full":325,"shortage":0,"booking":19,"fulfillment":19,"port_name":"Prince Rupert","position":{"lat":54.312519,"lng":-130.305405},"status":"surplus"},{"frame_index":532,"name":"ports_11","capacity":10000,"empty":0,"full":850,"shortage":68,"booking":68,"fulfillment":0,"port_name":"Pusan","position":{"lat":35.166668,"lng":129.066666},"status":"demand"},{"frame_index":532,"name":"ports_12","capacity":10000,"empty":1381,"full":160,"shortage":10,"booking":92,"fulfillment":82,"port_name":"Qingdao","position":{"lat":36.066898,"lng":120.382698},"status":"surplus"},{"frame_index":532,"name":"ports_13","capacity":10000,"empty":63,"full":75,"shortage":0,"booking":13,"fulfillment":13,"port_name":"San Antonio","position":{"lat":29.424349,"lng":-98.491142},"status":"balance"},{"frame_index":532,"name":"ports_14","capacity":10000,"empty":310,"full":277,"shortage":0,"booking":10,"fulfillment":10,"port_name":"Santos","position":{"lat":-23.96083,"lng":-46.33361},"status":"surplus"},{"frame_index":532,"name":"ports_15","capacity":10000,"empty":0,"full":984,"shortage":77,"booking":77,"fulfillment":0,"port_name":"Seattle","position":{"lat":47.608013,"lng":-122.335167},"status":"demand"},{"frame_index":532,"name":"ports_16","capacity":10000,"empty":0,"full":1204,"shortage":105,"booking":105,"fulfillment":0,"port_name":"Shanghai","position":{"lat":31.224361,"lng":121.46917},"status":"demand"},{"frame_index":532,"name":"ports_17","capacity":10000,"empty":228,"full":247,"shortage":0,"booking":47,"fulfillment":47,"port_name":"Singapore","position":{"lat":1.29027,"lng":103.851959},"status":"balance"},{"frame_index":532,"name":"ports_18","capacity":10000,"empty":89,"full":34,"shortage":0,"booking":16,"fulfillment":16,"port_name":"Sydney","position":{"lat":-33.865143,"lng":151.2099},"status":"balance"},{"frame_index":532,"name":"ports_19","capacity":10000,"empty":143,"full":95,"shortage":0,"booking":25,"fulfillment":25,"port_name":"Vancouver","position":{"lat":49.246292,"lng":-123.116226},"status":"balance"},{"frame_index":532,"name":"ports_20","capacity":10000,"empty":0,"full":1001,"shortage":89,"booking":89,"fulfillment":0,"port_name":"Yantian","position":{"lat":26.8533,"lng":119.8575},"status":"demand"},{"frame_index":532,"name":"ports_21","capacity":10000,"empty":742,"full":502,"shortage":0,"booking":80,"fulfillment":80,"port_name":"Yokohama","position":{"lat":35.443707,"lng":139.638031},"status":"surplus"}]