[{"frame_index":826,"name":"ports_0","capacity":10000,"empty":0,"full":2639,"shortage":241,"booking":241,"fulfillment":0,"port_name":"Bremerhaven","position":{"lat":53.549999,"lng":8.583333},"status":"demand"},{"frame_index":826,"name":"ports_1","capacity":10000,"empty":281,"full":49,"shortage":0,"booking":14,"fulfillment":14,"port_name":"Durban","position":{"lat":-29.8579,"lng":31.0292},"status":"surplus"},{"frame_index":826,"name":"ports_2","capacity":10000,"empty":2,"full":326,"shortage":0,"booking":15,"fulfillment":15,"port_name":"Itagual","position":{"lat":-22.85222,"lng":-43.77528},"status":"demand"},{"frame_index":826,"name":"ports_3","capacity":10000,"empty":64,"full":390,"shortage":0,"booking":96,"fulfillment":96,"port_name":"LeHavre","position":{"lat":49.490002,"lng":0.1},"status":"demand"},{"frame_index":826,"name":"ports_4","capacity":10000,"empty":1388,"full":592,"shortage":0,"booking":80,"fulfillment":80,"port_name":"Los Angeles","position":{"lat":34.052235,"lng":-118.243683},"status":"surplus"},{"frame_index":826,"name":"ports_5","capacity":10000,"empty":0,"full":681,"shortage":72,"booking":83,"fulfillment":11,"port_name":"Manzanillo","position":{"lat":19.11695,"lng":-104.34214},"status":"demand"},{"frame_index":826,"name":"ports_6","capacity":10000,"empty":69,"full":123,"shortage":0,"booking":24,"fulfillment":24,"port_name":"Melbourne","position":{"lat":-37.840935,"lng":144.946457},"status":"demand"},{"frame_index":826,"name":"ports_7","capacity":10000,"empty":2191,"full":426,"shortage":0,"booking":24,"fulfillment":24,"port_name":"Montreal","position":{"lat":45.516136,"lng":-73.65683},"status":"surplus"},{"frame_index":826,"name":"ports_8","capacity":10000,"empty":10884,"full":109,"shortage":0,"booking":49,"fulfillment":49,"port_name":"New York","position":{"lat":40.73061,"lng":-73.935242},"status":"surplus"},{"frame_index":826,"name":"ports_9","capacity":10000,"empty":332,"full":620,"shortage":0,"booking":39,"fulfillment":39,"port_name":"Oakland","position":{"lat":37.804363,"lng":-122.271111},"status":"surplus"},{"frame_index":826,"name":"ports_10","capacity":10000,"empty":2413,"full":359,"shortage":0,"booking":23,"fulfillment":23,"port_name":"Prince Rupert","position":{"lat":54.312519,"lng":-130.305405},"status":"surplus"},{"frame_index":826,"name":"ports_11","capacity":10000,"empty":0,"full":609,"shortage":94,"booking":94,"fulfillment":0,"port_name":"Pusan","position":{"lat":35.166668,"lng":129.066666},"status":"demand"},{"frame_index":826,"name":"ports_12","capacity":10000,"empty":1850,"full":1427,"shortage":0,"booking":118,"fulfillment":118,"port_name":"Qingdao","position":{"lat":36.066898,"lng":120.382698},"status":"surplus"},{"frame_index":826,"name":"ports_13","capacity":10000,"empty":1116,"full":50,"shortage":0,"booking":15,"fulfillment":15,"port_name":"San Antonio","position":{"lat":29.424349,"lng":-98.491142},"status":"surplus"},{"frame_index":826,"name":"ports_14","capacity":10000,"empty":267,"full":303,"shortage":0,"booking":18,"fulfillment":18,"port_name":"Santos","position":{"lat":-23.96083,"lng":-46.33361},"status":"surplus"},{"frame_index":826,"name":"ports_15","capacity":10000,"empty":0,"full":835,"shortage":106,"booking":106,"fulfillment":0,"port_name":"Seattle","position":{"lat":47.608013,"lng":-122.335167},"status":"demand"},{"frame_index":826,"name":"ports_16","capacity":10000,"empty":478,"full":1023,"shortage":0,"booking":151,"fulfillment":151,"port_name":"Shanghai","position":{"lat":31.224361,"lng":121.46917},"status":"demand"},{"frame_index":826,"name":"ports_17","capacity":10000,"empty":1638,"full":365,"shortage":0,"booking":65,"fulfillment":65,"port_name":"Singapore","position":{"lat":1.29027,"lng":103.851959},"status":"surplus"},{"frame_index":826,"name":"ports_18","capacity":10000,"empty":57,"full":179,"shortage":0,"booking":27,"fulfillment":27,"port_name":"Sydney","position":{"lat":-33.865143,"lng":151.2099},"status":"demand"},{"frame_index":826,"name":"ports_19","capacity":10000,"empty":274,"full":13,"shortage":0,"booking":30,"fulfillment":30,"port_name":"Vancouver","position":{"lat":49.246292,"lng":-123.116226},"status":"surplus"},{"frame_index":826,"name":"ports_20","capacity":10000,"empty":0,"full":655,"shortage":106,"booking":114,"fulfillment":8,"port_name":"Yantian","position":{"lat":26.8533,"lng":119.8575},"status":"demand"},{"frame_index":826,"name":"ports_21","capacity":10000,"empty":0,"full":654,"shortage":66,"booking":114,"fulfillment":48,"port_name":"Yokohama","position":{"lat":35.443707,"lng":139.638031},"status":"demand"}]