[{"frame_index":193,"name":"ports_0","capacity":10000,"empty":446,"full":1222,"shortage":0,"booking":124,"fulfillment":124,"port_name":"Bremerhaven","position":{"lat":53.549999,"lng":8.583333},"status":"demand"},{"frame_index":193,"name":"ports_1","capacity":10000,"empty":494,"full":37,"shortage":0,"booking":9,"fulfillment":9,"port_name":"Durban","position":{"lat":-29.8579,"lng":31.0292},"status":"surplus"},{"frame_index":193,"name":"ports_2","capacity":10000,"empty":69,"full":22,"shortage":0,"booking":8,"fulfillment":8,"port_name":"Itagual","position":{"lat":-22.85222,"lng":-43.77528},"status":"balance"},{"frame_index":193,"name":"ports_3","capacity":10000,"empty":1277,"full":1780,"shortage":0,"booking":49,"fulfillment":49,"port_name":"LeHavre","position":{"lat":49.490002,"lng":0.1},"status":"surplus"},{"frame_index":193,"name":"ports_4","capacity":10000,"empty":1081,"full":953,"shortage":0,"booking":41,"fulfillment":41,"port_name":"Los Angeles","position":{"lat":34.052235,"lng":-118.243683},"status":"surplus"},{"frame_index":193,"name":"ports_5","capacity":10000,"empty":734,"full":0,"shortage":0,"booking":48,"fulfillment":48,"port_name":"Manzanillo","position":{"lat":19.11695,"lng":-104.34214},"status":"surplus"},{"frame_index":193,"name":"ports_6","capacity":10000,"empty":0,"full":200,"shortage":13,"booking":13,"fulfillment":0,"port_name":"Melbourne","position":{"lat":-37.840935,"lng":144.946457},"status":"demand"},{"frame_index":193,"name":"ports_7","capacity":10000,"empty":131,"full":260,"shortage":0,"booking":13,"fulfillment":13,"port_name":"Montreal","position":{"lat":45.516136,"lng":-73.65683},"status":"surplus"},{"frame_index":193,"name":"ports_8","capacity":10000,"empty":6931,"full":1046,"shortage":0,"booking":27,"fulfillment":27,"port_name":"New York","position":{"lat":40.73061,"lng":-73.935242},"status":"surplus"},{"frame_index":193,"name":"ports_9","capacity":10000,"empty":2216,"full":7,"shortage":0,"booking":27,"fulfillment":27,"port_name":"Oakland","position":{"lat":37.804363,"lng":-122.271111},"status":"surplus"},{"frame_index":193,"name":"ports_10","capacity":10000,"empty":515,"full":433,"shortage":0,"booking":15,"fulfillment":15,"port_name":"Prince Rupert","position":{"lat":54.312519,"lng":-130.305405},"status":"surplus"},{"frame_index":193,"name":"ports_11","capacity":10000,"empty":2759,"full":918,"shortage":0,"booking":49,"fulfillment":49,"port_name":"Pusan","position":{"lat":35.166668,"lng":129.066666},"status":"surplus"},{"frame_index":193,"name":"ports_12","capacity":10000,"empty":0,"full":1570,"shortage":60,"booking":60,"fulfillment":0,"port_name":"Qingdao","position":{"lat":36.066898,"lng":120.382698},"status":"demand"},{"frame_index":193,"name":"ports_13","capacity":10000,"empty":1184,"full":11,"shortage":0,"booking":9,"fulfillment":9,"port_name":"San Antonio","position":{"lat":29.424349,"lng":-98.491142},"status":"surplus"},{"frame_index":193,"name":"ports_14","capacity":10000,"empty":0,"full":74,"shortage":8,"booking":8,"fulfillment":0,"port_name":"Santos","position":{"lat":-23.96083,"lng":-46.33361},"status":"balance"},{"frame_index":193,"name":"ports_15","capacity":10000,"empty":210,"full":1923,"shortage":0,"booking":59,"fulfillment":59,"port_name":"Seattle","position":{"lat":47.608013,"lng":-122.335167},"status":"demand"},{"frame_index":193,"name":"ports_16","capacity":10000,"empty":494,"full":760,"shortage":0,"booking":79,"fulfillment":79,"port_name":"Shanghai","position":{"lat":31.224361,"lng":121.46917},"status":"surplus"},{"frame_index":193,"name":"ports_17","capacity":10000,"empty":67,"full":645,"shortage":0,"booking":33,"fulfillment":33,"port_name":"Singapore","position":{"lat":1.29027,"lng":103.851959},"status":"demand"},{"frame_index":193,"name":"ports_18","capacity":10000,"empty":442,"full":208,"shortage":0,"booking":12,"fulfillment":12,"port_name":"Sydney","position":{"lat":-33.865143,"lng":151.2099},"status":"surplus"},{"frame_index":193,"name":"ports_19","capacity":10000,"empty":1042,"full":119,"shortage":0,"booking":18,"fulfillment":18,"port_name":"Vancouver","position":{"lat":49.246292,"lng":-123.116226},"status":"surplus"},{"frame_index":193,"name":"ports_20","capacity":10000,"empty":949,"full":422,"shortage":0,"booking":63,"fulfillment":63,"port_name":"Yantian","position":{"lat":26.8533,"lng":119.8575},"status":"surplus"},{"frame_index":193,"name":"ports_21","capacity":10000,"empty":0,"full":659,"shortage":55,"booking":55,"fulfillment":0,"port_name":"Yokohama","position":{"lat":35.443707,"lng":139.638031},"status":"demand"}]