[{"frame_index":822,"name":"ports_0","capacity":10000,"empty":0,"full":2639,"shortage":160,"booking":160,"fulfillment":0,"port_name":"Bremerhaven","position":{"lat":53.549999,"lng":8.583333},"status":"demand"},{"frame_index":822,"name":"ports_1","capacity":10000,"empty":293,"full":0,"shortage":0,"booking":9,"fulfillment":9,"port_name":"Durban","position":{"lat":-29.8579,"lng":31.0292},"status":"surplus"},{"frame_index":822,"name":"ports_2","capacity":10000,"empty":54,"full":278,"shortage":0,"booking":10,"fulfillment":10,"port_name":"Itagual","position":{"lat":-22.85222,"lng":-43.77528},"status":"balance"},{"frame_index":822,"name":"ports_3","capacity":10000,"empty":60,"full":104,"shortage":0,"booking":57,"fulfillment":57,"port_name":"LeHavre","position":{"lat":49.490002,"lng":0.1},"status":"demand"},{"frame_index":822,"name":"ports_4","capacity":10000,"empty":56,"full":1309,"shortage":0,"booking":48,"fulfillment":48,"port_name":"Los Angeles","position":{"lat":34.052235,"lng":-118.243683},"status":"demand"},{"frame_index":822,"name":"ports_5","capacity":10000,"empty":207,"full":438,"shortage":0,"booking":46,"fulfillment":46,"port_name":"Manzanillo","position":{"lat":19.11695,"lng":-104.34214},"status":"balance"},{"frame_index":822,"name":"ports_6","capacity":10000,"empty":0,"full":312,"shortage":15,"booking":15,"fulfillment":0,"port_name":"Melbourne","position":{"lat":-37.840935,"lng":144.946457},"status":"demand"},{"frame_index":822,"name":"ports_7","capacity":10000,"empty":2272,"full":360,"shortage":0,"booking":15,"fulfillment":15,"port_name":"Montreal","position":{"lat":45.516136,"lng":-73.65683},"status":"surplus"},{"frame_index":822,"name":"ports_8","capacity":10000,"empty":12046,"full":610,"shortage":0,"booking":29,"fulfillment":29,"port_name":"New York","position":{"lat":40.73061,"lng":-73.935242},"status":"surplus"},{"frame_index":822,"name":"ports_9","capacity":10000,"empty":488,"full":496,"shortage":0,"booking":29,"fulfillment":29,"port_name":"Oakland","position":{"lat":37.804363,"lng":-122.271111},"status":"surplus"},{"frame_index":822,"name":"ports_10","capacity":10000,"empty":2499,"full":293,"shortage":0,"booking":14,"fulfillment":14,"port_name":"Prince Rupert","position":{"lat":54.312519,"lng":-130.305405},"status":"surplus"},{"frame_index":822,"name":"ports_11","capacity":10000,"empty":0,"full":609,"shortage":58,"booking":58,"fulfillment":0,"port_name":"Pusan","position":{"lat":35.166668,"lng":129.066666},"status":"demand"},{"frame_index":822,"name":"ports_12","capacity":10000,"empty":2275,"full":1087,"shortage":0,"booking":75,"fulfillment":75,"port_name":"Qingdao","position":{"lat":36.066898,"lng":120.382698},"status":"surplus"},{"frame_index":822,"name":"ports_13","capacity":10000,"empty":1111,"full":5,"shortage":0,"booking":11,"fulfillment":11,"port_name":"San Antonio","position":{"lat":29.424349,"lng":-98.491142},"status":"surplus"},{"frame_index":822,"name":"ports_14","capacity":10000,"empty":321,"full":262,"shortage":0,"booking":9,"fulfillment":9,"port_name":"Santos","position":{"lat":-23.96083,"lng":-46.33361},"status":"surplus"},{"frame_index":822,"name":"ports_15","capacity":10000,"empty":0,"full":835,"shortage":69,"booking":69,"fulfillment":0,"port_name":"Seattle","position":{"lat":47.608013,"lng":-122.335167},"status":"demand"},{"frame_index":822,"name":"ports_16","capacity":10000,"empty":0,"full":1426,"shortage":90,"booking":90,"fulfillment":0,"port_name":"Shanghai","position":{"lat":31.224361,"lng":121.46917},"status":"demand"},{"frame_index":822,"name":"ports_17","capacity":10000,"empty":1139,"full":424,"shortage":0,"booking":38,"fulfillment":38,"port_name":"Singapore","position":{"lat":1.29027,"lng":103.851959},"status":"surplus"},{"frame_index":822,"name":"ports_18","capacity":10000,"empty":143,"full":127,"shortage":0,"booking":13,"fulfillment":13,"port_name":"Sydney","position":{"lat":-33.865143,"lng":151.2099},"status":"surplus"},{"frame_index":822,"name":"ports_19","capacity":10000,"empty":0,"full":222,"shortage":19,"booking":19,"fulfillment":0,"port_name":"Vancouver","position":{"lat":49.246292,"lng":-123.116226},"status":"demand"},{"frame_index":822,"name":"ports_20","capacity":10000,"empty":82,"full":455,"shortage":0,"booking":73,"fulfillment":73,"port_name":"Yantian","position":{"lat":26.8533,"lng":119.8575},"status":"demand"},{"frame_index":822,"name":"ports_21","capacity":10000,"empty":319,"full":365,"shortage":0,"booking":65,"fulfillment":65,"port_name":"Yokohama","position":{"lat":35.443707,"lng":139.638031},"status":"balance"}]