[{"frame_index":309,"name":"ports_0","capacity":10000,"empty":1641,"full":3116,"shortage":0,"booking":163,"fulfillment":163,"port_name":"Bremerhaven","position":{"lat":53.549999,"lng":8.583333},"status":"surplus"},{"frame_index":309,"name":"ports_1","capacity":10000,"empty":892,"full":126,"shortage":0,"booking":13,"fulfillment":13,"port_name":"Durban","position":{"lat":-29.8579,"lng":31.0292},"status":"surplus"},{"frame_index":309,"name":"ports_2","capacity":10000,"empty":0,"full":186,"shortage":12,"booking":12,"fulfillment":0,"port_name":"Itagual","position":{"lat":-22.85222,"lng":-43.77528},"status":"demand"},{"frame_index":309,"name":"ports_3","capacity":10000,"empty":641,"full":903,"shortage":0,"booking":73,"fulfillment":73,"port_name":"LeHavre","position":{"lat":49.490002,"lng":0.1},"status":"surplus"},{"frame_index":309,"name":"ports_4","capacity":10000,"empty":782,"full":1467,"shortage":0,"booking":61,"fulfillment":61,"port_name":"Los Angeles","position":{"lat":34.052235,"lng":-118.243683},"status":"surplus"},{"frame_index":309,"name":"ports_5","capacity":10000,"empty":97,"full":0,"shortage":0,"booking":57,"fulfillment":57,"port_name":"Manzanillo","position":{"lat":19.11695,"lng":-104.34214},"status":"demand"},{"frame_index":309,"name":"ports_6","capacity":10000,"empty":0,"full":317,"shortage":19,"booking":19,"fulfillment":0,"port_name":"Melbourne","position":{"lat":-37.840935,"lng":144.946457},"status":"demand"},{"frame_index":309,"name":"ports_7","capacity":10000,"empty":549,"full":177,"shortage":0,"booking":18,"fulfillment":18,"port_name":"Montreal","position":{"lat":45.516136,"lng":-73.65683},"status":"surplus"},{"frame_index":309,"name":"ports_8","capacity":10000,"empty":5942,"full":568,"shortage":0,"booking":38,"fulfillment":38,"port_name":"New York","position":{"lat":40.73061,"lng":-73.935242},"status":"surplus"},{"frame_index":309,"name":"ports_9","capacity":10000,"empty":1850,"full":475,"shortage":0,"booking":31,"fulfillment":31,"port_name":"Oakland","position":{"lat":37.804363,"lng":-122.271111},"status":"surplus"},{"frame_index":309,"name":"ports_10","capacity":10000,"empty":1647,"full":955,"shortage":0,"booking":20,"fulfillment":20,"port_name":"Prince Rupert","position":{"lat":54.312519,"lng":-130.305405},"status":"surplus"},{"frame_index":309,"name":"ports_11","capacity":10000,"empty":1117,"full":863,"shortage":0,"booking":75,"fulfillment":75,"port_name":"Pusan","position":{"lat":35.166668,"lng":129.066666},"status":"surplus"},{"frame_index":309,"name":"ports_12","capacity":10000,"empty":463,"full":542,"shortage":0,"booking":88,"fulfillment":88,"port_name":"Qingdao","position":{"lat":36.066898,"lng":120.382698},"status":"balance"},{"frame_index":309,"name":"ports_13","capacity":10000,"empty":0,"full":0,"shortage":13,"booking":13,"fulfillment":0,"port_name":"San Antonio","position":{"lat":29.424349,"lng":-98.491142},"status":"demand"},{"frame_index":309,"name":"ports_14","capacity":10000,"empty":438,"full":620,"shortage":0,"booking":14,"fulfillment":14,"port_name":"Santos","position":{"lat":-23.96083,"lng":-46.33361},"status":"surplus"},{"frame_index":309,"name":"ports_15","capacity":10000,"empty":0,"full":1358,"shortage":80,"booking":80,"fulfillment":0,"port_name":"Seattle","position":{"lat":47.608013,"lng":-122.335167},"status":"demand"},{"frame_index":309,"name":"ports_16","capacity":10000,"empty":0,"full":1320,"shortage":93,"booking":135,"fulfillment":42,"port_name":"Shanghai","position":{"lat":31.224361,"lng":121.46917},"status":"demand"},{"frame_index":309,"name":"ports_17","capacity":10000,"empty":546,"full":661,"shortage":0,"booking":48,"fulfillment":48,"port_name":"Singapore","position":{"lat":1.29027,"lng":103.851959},"status":"surplus"},{"frame_index":309,"name":"ports_18","capacity":10000,"empty":134,"full":33,"shortage":0,"booking":17,"fulfillment":17,"port_name":"Sydney","position":{"lat":-33.865143,"lng":151.2099},"status":"balance"},{"frame_index":309,"name":"ports_19","capacity":10000,"empty":99,"full":457,"shortage":0,"booking":26,"fulfillment":26,"port_name":"Vancouver","position":{"lat":49.246292,"lng":-123.116226},"status":"balance"},{"frame_index":309,"name":"ports_20","capacity":10000,"empty":725,"full":371,"shortage":0,"booking":90,"fulfillment":90,"port_name":"Yantian","position":{"lat":26.8533,"lng":119.8575},"status":"surplus"},{"frame_index":309,"name":"ports_21","capacity":10000,"empty":387,"full":498,"shortage":82,"booking":82,"fulfillment":0,"port_name":"Yokohama","position":{"lat":35.443707,"lng":139.638031},"status":"balance"}]