[{"frame_index":720,"name":"ports_0","capacity":10000,"empty":1248,"full":3317,"shortage":0,"booking":113,"fulfillment":113,"port_name":"Bremerhaven","position":{"lat":53.549999,"lng":8.583333},"status":"surplus"},{"frame_index":720,"name":"ports_1","capacity":10000,"empty":43,"full":158,"shortage":0,"booking":8,"fulfillment":8,"port_name":"Durban","position":{"lat":-29.8579,"lng":31.0292},"status":"balance"},{"frame_index":720,"name":"ports_2","capacity":10000,"empty":279,"full":106,"shortage":0,"booking":9,"fulfillment":9,"port_name":"Itagual","position":{"lat":-22.85222,"lng":-43.77528},"status":"surplus"},{"frame_index":720,"name":"ports_3","capacity":10000,"empty":973,"full":831,"shortage":0,"booking":46,"fulfillment":46,"port_name":"LeHavre","position":{"lat":49.490002,"lng":0.1},"status":"surplus"},{"frame_index":720,"name":"ports_4","capacity":10000,"empty":800,"full":1285,"shortage":0,"booking":39,"fulfillment":39,"port_name":"Los Angeles","position":{"lat":34.052235,"lng":-118.243683},"status":"surplus"},{"frame_index":720,"name":"ports_5","capacity":10000,"empty":0,"full":1050,"shortage":37,"booking":37,"fulfillment":0,"port_name":"Manzanillo","position":{"lat":19.11695,"lng":-104.34214},"status":"demand"},{"frame_index":720,"name":"ports_6","capacity":10000,"empty":0,"full":238,"shortage":12,"booking":12,"fulfillment":0,"port_name":"Melbourne","position":{"lat":-37.840935,"lng":144.946457},"status":"demand"},{"frame_index":720,"name":"ports_7","capacity":10000,"empty":2232,"full":222,"shortage":0,"booking":12,"fulfillment":12,"port_name":"Montreal","position":{"lat":45.516136,"lng":-73.65683},"status":"surplus"},{"frame_index":720,"name":"ports_8","capacity":10000,"empty":12513,"full":132,"shortage":0,"booking":24,"fulfillment":24,"port_name":"New York","position":{"lat":40.73061,"lng":-73.935242},"status":"surplus"},{"frame_index":720,"name":"ports_9","capacity":10000,"empty":918,"full":200,"shortage":0,"booking":24,"fulfillment":24,"port_name":"Oakland","position":{"lat":37.804363,"lng":-122.271111},"status":"surplus"},{"frame_index":720,"name":"ports_10","capacity":10000,"empty":2603,"full":397,"shortage":0,"booking":12,"fulfillment":12,"port_name":"Prince Rupert","position":{"lat":54.312519,"lng":-130.305405},"status":"surplus"},{"frame_index":720,"name":"ports_11","capacity":10000,"empty":0,"full":1222,"shortage":46,"booking":46,"fulfillment":0,"port_name":"Pusan","position":{"lat":35.166668,"lng":129.066666},"status":"demand"},{"frame_index":720,"name":"ports_12","capacity":10000,"empty":1058,"full":1266,"shortage":0,"booking":60,"fulfillment":60,"port_name":"Qingdao","position":{"lat":36.066898,"lng":120.382698},"status":"surplus"},{"frame_index":720,"name":"ports_13","capacity":10000,"empty":5915,"full":160,"shortage":0,"booking":9,"fulfillment":9,"port_name":"San Antonio","position":{"lat":29.424349,"lng":-98.491142},"status":"surplus"},{"frame_index":720,"name":"ports_14","capacity":10000,"empty":445,"full":201,"shortage":0,"booking":9,"fulfillment":9,"port_name":"Santos","position":{"lat":-23.96083,"lng":-46.33361},"status":"surplus"},{"frame_index":720,"name":"ports_15","capacity":10000,"empty":167,"full":1179,"shortage":0,"booking":53,"fulfillment":53,"port_name":"Seattle","position":{"lat":47.608013,"lng":-122.335167},"status":"demand"},{"frame_index":720,"name":"ports_16","capacity":10000,"empty":40,"full":2149,"shortage":69,"booking":69,"fulfillment":0,"port_name":"Shanghai","position":{"lat":31.224361,"lng":121.46917},"status":"demand"},{"frame_index":720,"name":"ports_17","capacity":10000,"empty":0,"full":369,"shortage":31,"booking":31,"fulfillment":0,"port_name":"Singapore","position":{"lat":1.29027,"lng":103.851959},"status":"demand"},{"frame_index":720,"name":"ports_18","capacity":10000,"empty":0,"full":232,"shortage":13,"booking":13,"fulfillment":0,"port_name":"Sydney","position":{"lat":-33.865143,"lng":151.2099},"status":"demand"},{"frame_index":720,"name":"ports_19","capacity":10000,"empty":0,"full":220,"shortage":16,"booking":16,"fulfillment":0,"port_name":"Vancouver","position":{"lat":49.246292,"lng":-123.116226},"status":"demand"},{"frame_index":720,"name":"ports_20","capacity":10000,"empty":0,"full":608,"shortage":56,"booking":56,"fulfillment":0,"port_name":"Yantian","position":{"lat":26.8533,"lng":119.8575},"status":"demand"},{"frame_index":720,"name":"ports_21","capacity":10000,"empty":0,"full":551,"shortage":49,"booking":49,"fulfillment":0,"port_name":"Yokohama","position":{"lat":35.443707,"lng":139.638031},"status":"demand"}]