[{"frame_index":807,"name":"ports_0","capacity":10000,"empty":1002,"full":2466,"shortage":0,"booking":85,"fulfillment":85,"port_name":"Bremerhaven","position":{"lat":53.549999,"lng":8.583333},"status":"surplus"},{"frame_index":807,"name":"ports_1","capacity":10000,"empty":121,"full":76,"shortage":0,"booking":6,"fulfillment":6,"port_name":"Durban","position":{"lat":-29.8579,"lng":31.0292},"status":"surplus"},{"frame_index":807,"name":"ports_2","capacity":10000,"empty":191,"full":148,"shortage":0,"booking":6,"fulfillment":6,"port_name":"Itagual","position":{"lat":-22.85222,"lng":-43.77528},"status":"surplus"},{"frame_index":807,"name":"ports_3","capacity":10000,"empty":2066,"full":255,"shortage":0,"booking":31,"fulfillment":31,"port_name":"LeHavre","position":{"lat":49.490002,"lng":0.1},"status":"surplus"},{"frame_index":807,"name":"ports_4","capacity":10000,"empty":698,"full":677,"shortage":0,"booking":27,"fulfillment":27,"port_name":"Los Angeles","position":{"lat":34.052235,"lng":-118.243683},"status":"surplus"},{"frame_index":807,"name":"ports_5","capacity":10000,"empty":2320,"full":168,"shortage":0,"booking":26,"fulfillment":26,"port_name":"Manzanillo","position":{"lat":19.11695,"lng":-104.34214},"status":"surplus"},{"frame_index":807,"name":"ports_6","capacity":10000,"empty":15,"full":289,"shortage":0,"booking":8,"fulfillment":8,"port_name":"Melbourne","position":{"lat":-37.840935,"lng":144.946457},"status":"balance"},{"frame_index":807,"name":"ports_7","capacity":10000,"empty":2472,"full":168,"shortage":0,"booking":8,"fulfillment":8,"port_name":"Montreal","position":{"lat":45.516136,"lng":-73.65683},"status":"surplus"},{"frame_index":807,"name":"ports_8","capacity":10000,"empty":12439,"full":216,"shortage":0,"booking":15,"fulfillment":15,"port_name":"New York","position":{"lat":40.73061,"lng":-73.935242},"status":"surplus"},{"frame_index":807,"name":"ports_9","capacity":10000,"empty":873,"full":114,"shortage":0,"booking":14,"fulfillment":14,"port_name":"Oakland","position":{"lat":37.804363,"lng":-122.271111},"status":"surplus"},{"frame_index":807,"name":"ports_10","capacity":10000,"empty":2708,"full":94,"shortage":0,"booking":7,"fulfillment":7,"port_name":"Prince Rupert","position":{"lat":54.312519,"lng":-130.305405},"status":"surplus"},{"frame_index":807,"name":"ports_11","capacity":10000,"empty":301,"full":260,"shortage":0,"booking":30,"fulfillment":30,"port_name":"Pusan","position":{"lat":35.166668,"lng":129.066666},"status":"surplus"},{"frame_index":807,"name":"ports_12","capacity":10000,"empty":3064,"full":995,"shortage":0,"booking":41,"fulfillment":41,"port_name":"Qingdao","position":{"lat":36.066898,"lng":120.382698},"status":"surplus"},{"frame_index":807,"name":"ports_13","capacity":10000,"empty":1448,"full":86,"shortage":0,"booking":6,"fulfillment":6,"port_name":"San Antonio","position":{"lat":29.424349,"lng":-98.491142},"status":"surplus"},{"frame_index":807,"name":"ports_14","capacity":10000,"empty":465,"full":120,"shortage":0,"booking":6,"fulfillment":6,"port_name":"Santos","position":{"lat":-23.96083,"lng":-46.33361},"status":"surplus"},{"frame_index":807,"name":"ports_15","capacity":10000,"empty":768,"full":273,"shortage":0,"booking":38,"fulfillment":38,"port_name":"Seattle","position":{"lat":47.608013,"lng":-122.335167},"status":"surplus"},{"frame_index":807,"name":"ports_16","capacity":10000,"empty":852,"full":437,"shortage":0,"booking":47,"fulfillment":47,"port_name":"Shanghai","position":{"lat":31.224361,"lng":121.46917},"status":"surplus"},{"frame_index":807,"name":"ports_17","capacity":10000,"empty":1223,"full":241,"shortage":0,"booking":21,"fulfillment":21,"port_name":"Singapore","position":{"lat":1.29027,"lng":103.851959},"status":"surplus"},{"frame_index":807,"name":"ports_18","capacity":10000,"empty":53,"full":136,"shortage":0,"booking":7,"fulfillment":7,"port_name":"Sydney","position":{"lat":-33.865143,"lng":151.2099},"status":"balance"},{"frame_index":807,"name":"ports_19","capacity":10000,"empty":133,"full":91,"shortage":0,"booking":10,"fulfillment":10,"port_name":"Vancouver","position":{"lat":49.246292,"lng":-123.116226},"status":"surplus"},{"frame_index":807,"name":"ports_20","capacity":10000,"empty":494,"full":377,"shortage":0,"booking":41,"fulfillment":41,"port_name":"Yantian","position":{"lat":26.8533,"lng":119.8575},"status":"surplus"},{"frame_index":807,"name":"ports_21","capacity":10000,"empty":67,"full":1087,"shortage":0,"booking":32,"fulfillment":32,"port_name":"Yokohama","position":{"lat":35.443707,"lng":139.638031},"status":"demand"}]