[{"frame_index":90,"name":"ports_0","capacity":10000,"empty":1020,"full":1684,"shortage":0,"booking":69,"fulfillment":69,"port_name":"Bremerhaven","position":{"lat":53.549999,"lng":8.583333},"status":"surplus"},{"frame_index":90,"name":"ports_1","capacity":10000,"empty":556,"full":38,"shortage":0,"booking":5,"fulfillment":5,"port_name":"Durban","position":{"lat":-29.8579,"lng":31.0292},"status":"surplus"},{"frame_index":90,"name":"ports_2","capacity":10000,"empty":62,"full":479,"shortage":0,"booking":5,"fulfillment":5,"port_name":"Itagual","position":{"lat":-22.85222,"lng":-43.77528},"status":"balance"},{"frame_index":90,"name":"ports_3","capacity":10000,"empty":0,"full":1380,"shortage":31,"booking":31,"fulfillment":0,"port_name":"LeHavre","position":{"lat":49.490002,"lng":0.1},"status":"demand"},{"frame_index":90,"name":"ports_4","capacity":10000,"empty":178,"full":507,"shortage":0,"booking":27,"fulfillment":27,"port_name":"Los Angeles","position":{"lat":34.052235,"lng":-118.243683},"status":"balance"},{"frame_index":90,"name":"ports_5","capacity":10000,"empty":1861,"full":693,"shortage":0,"booking":28,"fulfillment":28,"port_name":"Manzanillo","position":{"lat":19.11695,"lng":-104.34214},"status":"surplus"},{"frame_index":90,"name":"ports_6","capacity":10000,"empty":0,"full":274,"shortage":7,"booking":8,"fulfillment":1,"port_name":"Melbourne","position":{"lat":-37.840935,"lng":144.946457},"status":"balance"},{"frame_index":90,"name":"ports_7","capacity":10000,"empty":909,"full":115,"shortage":0,"booking":8,"fulfillment":8,"port_name":"Montreal","position":{"lat":45.516136,"lng":-73.65683},"status":"surplus"},{"frame_index":90,"name":"ports_8","capacity":10000,"empty":946,"full":1342,"shortage":0,"booking":15,"fulfillment":15,"port_name":"New York","position":{"lat":40.73061,"lng":-73.935242},"status":"surplus"},{"frame_index":90,"name":"ports_9","capacity":10000,"empty":0,"full":1563,"shortage":15,"booking":15,"fulfillment":0,"port_name":"Oakland","position":{"lat":37.804363,"lng":-122.271111},"status":"demand"},{"frame_index":90,"name":"ports_10","capacity":10000,"empty":392,"full":92,"shortage":0,"booking":9,"fulfillment":9,"port_name":"Prince Rupert","position":{"lat":54.312519,"lng":-130.305405},"status":"surplus"},{"frame_index":90,"name":"ports_11","capacity":10000,"empty":1837,"full":889,"shortage":0,"booking":31,"fulfillment":31,"port_name":"Pusan","position":{"lat":35.166668,"lng":129.066666},"status":"surplus"},{"frame_index":90,"name":"ports_12","capacity":10000,"empty":0,"full":1245,"shortage":45,"booking":45,"fulfillment":0,"port_name":"Qingdao","position":{"lat":36.066898,"lng":120.382698},"status":"demand"},{"frame_index":90,"name":"ports_13","capacity":10000,"empty":0,"full":124,"shortage":5,"booking":5,"fulfillment":0,"port_name":"San Antonio","position":{"lat":29.424349,"lng":-98.491142},"status":"balance"},{"frame_index":90,"name":"ports_14","capacity":10000,"empty":0,"full":38,"shortage":5,"booking":5,"fulfillment":0,"port_name":"Santos","position":{"lat":-23.96083,"lng":-46.33361},"status":"balance"},{"frame_index":90,"name":"ports_15","capacity":10000,"empty":2265,"full":3886,"shortage":0,"booking":36,"fulfillment":36,"port_name":"Seattle","position":{"lat":47.608013,"lng":-122.335167},"status":"surplus"},{"frame_index":90,"name":"ports_16","capacity":10000,"empty":0,"full":888,"shortage":57,"booking":57,"fulfillment":0,"port_name":"Shanghai","position":{"lat":31.224361,"lng":121.46917},"status":"demand"},{"frame_index":90,"name":"ports_17","capacity":10000,"empty":2558,"full":626,"shortage":0,"booking":21,"fulfillment":21,"port_name":"Singapore","position":{"lat":1.29027,"lng":103.851959},"status":"surplus"},{"frame_index":90,"name":"ports_18","capacity":10000,"empty":222,"full":381,"shortage":0,"booking":9,"fulfillment":9,"port_name":"Sydney","position":{"lat":-33.865143,"lng":151.2099},"status":"surplus"},{"frame_index":90,"name":"ports_19","capacity":10000,"empty":0,"full":139,"shortage":11,"booking":11,"fulfillment":0,"port_name":"Vancouver","position":{"lat":49.246292,"lng":-123.116226},"status":"demand"},{"frame_index":90,"name":"ports_20","capacity":10000,"empty":366,"full":462,"shortage":0,"booking":40,"fulfillment":40,"port_name":"Yantian","position":{"lat":26.8533,"lng":119.8575},"status":"surplus"},{"frame_index":90,"name":"ports_21","capacity":10000,"empty":0,"full":437,"shortage":31,"booking":31,"fulfillment":0,"port_name":"Yokohama","position":{"lat":35.443707,"lng":139.638031},"status":"demand"}]