[{"frame_index":46,"name":"ports_0","capacity":10000,"empty":10871,"full":3718,"shortage":0,"booking":233,"fulfillment":233,"port_name":"Bremerhaven","position":{"lat":53.549999,"lng":8.583333},"status":"surplus"},{"frame_index":46,"name":"ports_1","capacity":10000,"empty":830,"full":105,"shortage":0,"booking":14,"fulfillment":14,"port_name":"Durban","position":{"lat":-29.8579,"lng":31.0292},"status":"surplus"},{"frame_index":46,"name":"ports_2","capacity":10000,"empty":507,"full":149,"shortage":0,"booking":14,"fulfillment":14,"port_name":"Itagual","position":{"lat":-22.85222,"lng":-43.77528},"status":"surplus"},{"frame_index":46,"name":"ports_3","capacity":10000,"empty":944,"full":0,"shortage":83,"booking":83,"fulfillment":0,"port_name":"LeHavre","position":{"lat":49.490002,"lng":0.1},"status":"surplus"},{"frame_index":46,"name":"ports_4","capacity":10000,"empty":0,"full":432,"shortage":67,"booking":67,"fulfillment":0,"port_name":"Los Angeles","position":{"lat":34.052235,"lng":-118.243683},"status":"demand"},{"frame_index":46,"name":"ports_5","capacity":10000,"empty":3200,"full":481,"shortage":0,"booking":76,"fulfillment":76,"port_name":"Manzanillo","position":{"lat":19.11695,"lng":-104.34214},"status":"surplus"},{"frame_index":46,"name":"ports_6","capacity":10000,"empty":747,"full":339,"shortage":0,"booking":21,"fulfillment":21,"port_name":"Melbourne","position":{"lat":-37.840935,"lng":144.946457},"status":"surplus"},{"frame_index":46,"name":"ports_7","capacity":10000,"empty":928,"full":274,"shortage":0,"booking":20,"fulfillment":20,"port_name":"Montreal","position":{"lat":45.516136,"lng":-73.65683},"status":"surplus"},{"frame_index":46,"name":"ports_8","capacity":10000,"empty":1800,"full":313,"shortage":0,"booking":43,"fulfillment":43,"port_name":"New York","position":{"lat":40.73061,"lng":-73.935242},"status":"surplus"},{"frame_index":46,"name":"ports_9","capacity":10000,"empty":1284,"full":237,"shortage":0,"booking":42,"fulfillment":42,"port_name":"Oakland","position":{"lat":37.804363,"lng":-122.271111},"status":"surplus"},{"frame_index":46,"name":"ports_10","capacity":10000,"empty":680,"full":12,"shortage":0,"booking":20,"fulfillment":20,"port_name":"Prince Rupert","position":{"lat":54.312519,"lng":-130.305405},"status":"surplus"},{"frame_index":46,"name":"ports_11","capacity":10000,"empty":4227,"full":770,"shortage":0,"booking":77,"fulfillment":77,"port_name":"Pusan","position":{"lat":35.166668,"lng":129.066666},"status":"surplus"},{"frame_index":46,"name":"ports_12","capacity":10000,"empty":0,"full":776,"shortage":96,"booking":96,"fulfillment":0,"port_name":"Qingdao","position":{"lat":36.066898,"lng":120.382698},"status":"demand"},{"frame_index":46,"name":"ports_13","capacity":10000,"empty":0,"full":38,"shortage":15,"booking":15,"fulfillment":0,"port_name":"San Antonio","position":{"lat":29.424349,"lng":-98.491142},"status":"demand"},{"frame_index":46,"name":"ports_14","capacity":10000,"empty":649,"full":328,"shortage":0,"booking":15,"fulfillment":15,"port_name":"Santos","position":{"lat":-23.96083,"lng":-46.33361},"status":"surplus"},{"frame_index":46,"name":"ports_15","capacity":10000,"empty":5625,"full":421,"shortage":0,"booking":95,"fulfillment":95,"port_name":"Seattle","position":{"lat":47.608013,"lng":-122.335167},"status":"surplus"},{"frame_index":46,"name":"ports_16","capacity":10000,"empty":0,"full":1313,"shortage":151,"booking":151,"fulfillment":0,"port_name":"Shanghai","position":{"lat":31.224361,"lng":121.46917},"status":"demand"},{"frame_index":46,"name":"ports_17","capacity":10000,"empty":3708,"full":607,"shortage":0,"booking":54,"fulfillment":54,"port_name":"Singapore","position":{"lat":1.29027,"lng":103.851959},"status":"surplus"},{"frame_index":46,"name":"ports_18","capacity":10000,"empty":770,"full":77,"shortage":0,"booking":22,"fulfillment":22,"port_name":"Sydney","position":{"lat":-33.865143,"lng":151.2099},"status":"surplus"},{"frame_index":46,"name":"ports_19","capacity":10000,"empty":0,"full":149,"shortage":25,"booking":25,"fulfillment":0,"port_name":"Vancouver","position":{"lat":49.246292,"lng":-123.116226},"status":"demand"},{"frame_index":46,"name":"ports_20","capacity":10000,"empty":0,"full":340,"shortage":96,"booking":96,"fulfillment":0,"port_name":"Yantian","position":{"lat":26.8533,"lng":119.8575},"status":"demand"},{"frame_index":46,"name":"ports_21","capacity":10000,"empty":5839,"full":1984,"shortage":0,"booking":96,"fulfillment":96,"port_name":"Yokohama","position":{"lat":35.443707,"lng":139.638031},"status":"surplus"}]