[{"frame_index":19,"name":"ports_0","capacity":10000,"empty":14830,"full":1007,"shortage":0,"booking":97,"fulfillment":97,"port_name":"Bremerhaven","position":{"lat":53.549999,"lng":8.583333},"status":"surplus"},{"frame_index":19,"name":"ports_1","capacity":10000,"empty":917,"full":35,"shortage":0,"booking":6,"fulfillment":6,"port_name":"Durban","position":{"lat":-29.8579,"lng":31.0292},"status":"surplus"},{"frame_index":19,"name":"ports_2","capacity":10000,"empty":919,"full":31,"shortage":0,"booking":6,"fulfillment":6,"port_name":"Itagual","position":{"lat":-22.85222,"lng":-43.77528},"status":"surplus"},{"frame_index":19,"name":"ports_3","capacity":10000,"empty":0,"full":99,"shortage":36,"booking":36,"fulfillment":0,"port_name":"LeHavre","position":{"lat":49.490002,"lng":0.1},"status":"demand"},{"frame_index":19,"name":"ports_4","capacity":10000,"empty":2794,"full":281,"shortage":0,"booking":30,"fulfillment":30,"port_name":"Los Angeles","position":{"lat":34.052235,"lng":-118.243683},"status":"surplus"},{"frame_index":19,"name":"ports_5","capacity":10000,"empty":4613,"full":252,"shortage":0,"booking":27,"fulfillment":27,"port_name":"Manzanillo","position":{"lat":19.11695,"lng":-104.34214},"status":"surplus"},{"frame_index":19,"name":"ports_6","capacity":10000,"empty":1382,"full":104,"shortage":0,"booking":9,"fulfillment":9,"port_name":"Melbourne","position":{"lat":-37.840935,"lng":144.946457},"status":"surplus"},{"frame_index":19,"name":"ports_7","capacity":10000,"empty":1383,"full":100,"shortage":0,"booking":9,"fulfillment":9,"port_name":"Montreal","position":{"lat":45.516136,"lng":-73.65683},"status":"surplus"},{"frame_index":19,"name":"ports_8","capacity":10000,"empty":2770,"full":202,"shortage":0,"booking":18,"fulfillment":18,"port_name":"New York","position":{"lat":40.73061,"lng":-73.935242},"status":"surplus"},{"frame_index":19,"name":"ports_9","capacity":10000,"empty":2761,"full":207,"shortage":0,"booking":20,"fulfillment":20,"port_name":"Oakland","position":{"lat":37.804363,"lng":-122.271111},"status":"surplus"},{"frame_index":19,"name":"ports_10","capacity":10000,"empty":1381,"full":106,"shortage":0,"booking":9,"fulfillment":9,"port_name":"Prince Rupert","position":{"lat":54.312519,"lng":-130.305405},"status":"surplus"},{"frame_index":19,"name":"ports_11","capacity":10000,"empty":4156,"full":348,"shortage":0,"booking":37,"fulfillment":37,"port_name":"Pusan","position":{"lat":35.166668,"lng":129.066666},"status":"surplus"},{"frame_index":19,"name":"ports_12","capacity":10000,"empty":3732,"full":376,"shortage":0,"booking":43,"fulfillment":43,"port_name":"Qingdao","position":{"lat":36.066898,"lng":120.382698},"status":"surplus"},{"frame_index":19,"name":"ports_13","capacity":10000,"empty":919,"full":74,"shortage":0,"booking":6,"fulfillment":6,"port_name":"San Antonio","position":{"lat":29.424349,"lng":-98.491142},"status":"surplus"},{"frame_index":19,"name":"ports_14","capacity":10000,"empty":915,"full":74,"shortage":0,"booking":7,"fulfillment":7,"port_name":"Santos","position":{"lat":-23.96083,"lng":-46.33361},"status":"surplus"},{"frame_index":19,"name":"ports_15","capacity":10000,"empty":5461,"full":349,"shortage":0,"booking":43,"fulfillment":43,"port_name":"Seattle","position":{"lat":47.608013,"lng":-122.335167},"status":"surplus"},{"frame_index":19,"name":"ports_16","capacity":10000,"empty":6020,"full":429,"shortage":0,"booking":51,"fulfillment":51,"port_name":"Shanghai","position":{"lat":31.224361,"lng":121.46917},"status":"surplus"},{"frame_index":19,"name":"ports_17","capacity":10000,"empty":0,"full":36,"shortage":24,"booking":24,"fulfillment":0,"port_name":"Singapore","position":{"lat":1.29027,"lng":103.851959},"status":"demand"},{"frame_index":19,"name":"ports_18","capacity":10000,"empty":1382,"full":101,"shortage":0,"booking":9,"fulfillment":9,"port_name":"Sydney","position":{"lat":-33.865143,"lng":151.2099},"status":"surplus"},{"frame_index":19,"name":"ports_19","capacity":10000,"empty":0,"full":40,"shortage":12,"booking":12,"fulfillment":0,"port_name":"Vancouver","position":{"lat":49.246292,"lng":-123.116226},"status":"demand"},{"frame_index":19,"name":"ports_20","capacity":10000,"empty":5984,"full":380,"shortage":0,"booking":39,"fulfillment":39,"port_name":"Yantian","position":{"lat":26.8533,"lng":119.8575},"status":"surplus"},{"frame_index":19,"name":"ports_21","capacity":10000,"empty":7609,"full":330,"shortage":0,"booking":40,"fulfillment":40,"port_name":"Yokohama","position":{"lat":35.443707,"lng":139.638031},"status":"surplus"}]