[{"frame_index":630,"name":"ports_0","capacity":10000,"empty":2395,"full":3286,"shortage":0,"booking":235,"fulfillment":235,"port_name":"Bremerhaven","position":{"lat":53.549999,"lng":8.583333},"status":"surplus"},{"frame_index":630,"name":"ports_1","capacity":10000,"empty":0,"full":400,"shortage":14,"booking":19,"fulfillment":5,"port_name":"Durban","position":{"lat":-29.8579,"lng":31.0292},"status":"demand"},{"frame_index":630,"name":"ports_2","capacity":10000,"empty":576,"full":66,"shortage":0,"booking":17,"fulfillment":17,"port_name":"Itagual","position":{"lat":-22.85222,"lng":-43.77528},"status":"surplus"},{"frame_index":630,"name":"ports_3","capacity":10000,"empty":0,"full":784,"shortage":99,"booking":99,"fulfillment":0,"port_name":"LeHavre","position":{"lat":49.490002,"lng":0.1},"status":"demand"},{"frame_index":630,"name":"ports_4","capacity":10000,"empty":2280,"full":1544,"shortage":0,"booking":83,"fulfillment":83,"port_name":"Los Angeles","position":{"lat":34.052235,"lng":-118.243683},"status":"surplus"},{"frame_index":630,"name":"ports_5","capacity":10000,"empty":0,"full":711,"shortage":73,"booking":73,"fulfillment":0,"port_name":"Manzanillo","position":{"lat":19.11695,"lng":-104.34214},"status":"demand"},{"frame_index":630,"name":"ports_6","capacity":10000,"empty":138,"full":72,"shortage":0,"booking":25,"fulfillment":25,"port_name":"Melbourne","position":{"lat":-37.840935,"lng":144.946457},"status":"balance"},{"frame_index":630,"name":"ports_7","capacity":10000,"empty":1709,"full":384,"shortage":0,"booking":25,"fulfillment":25,"port_name":"Montreal","position":{"lat":45.516136,"lng":-73.65683},"status":"surplus"},{"frame_index":630,"name":"ports_8","capacity":10000,"empty":8980,"full":1107,"shortage":0,"booking":49,"fulfillment":49,"port_name":"New York","position":{"lat":40.73061,"lng":-73.935242},"status":"surplus"},{"frame_index":630,"name":"ports_9","capacity":10000,"empty":161,"full":54,"shortage":0,"booking":49,"fulfillment":49,"port_name":"Oakland","position":{"lat":37.804363,"lng":-122.271111},"status":"demand"},{"frame_index":630,"name":"ports_10","capacity":10000,"empty":276,"full":406,"shortage":0,"booking":29,"fulfillment":29,"port_name":"Prince Rupert","position":{"lat":54.312519,"lng":-130.305405},"status":"surplus"},{"frame_index":630,"name":"ports_11","capacity":10000,"empty":4243,"full":533,"shortage":0,"booking":101,"fulfillment":101,"port_name":"Pusan","position":{"lat":35.166668,"lng":129.066666},"status":"surplus"},{"frame_index":630,"name":"ports_12","capacity":10000,"empty":0,"full":931,"shortage":134,"booking":134,"fulfillment":0,"port_name":"Qingdao","position":{"lat":36.066898,"lng":120.382698},"status":"demand"},{"frame_index":630,"name":"ports_13","capacity":10000,"empty":188,"full":61,"shortage":0,"booking":15,"fulfillment":15,"port_name":"San Antonio","position":{"lat":29.424349,"lng":-98.491142},"status":"surplus"},{"frame_index":630,"name":"ports_14","capacity":10000,"empty":270,"full":419,"shortage":0,"booking":14,"fulfillment":14,"port_name":"Santos","position":{"lat":-23.96083,"lng":-46.33361},"status":"surplus"},{"frame_index":630,"name":"ports_15","capacity":10000,"empty":0,"full":369,"shortage":112,"booking":112,"fulfillment":0,"port_name":"Seattle","position":{"lat":47.608013,"lng":-122.335167},"status":"demand"},{"frame_index":630,"name":"ports_16","capacity":10000,"empty":0,"full":667,"shortage":150,"booking":150,"fulfillment":0,"port_name":"Shanghai","position":{"lat":31.224361,"lng":121.46917},"status":"demand"},{"frame_index":630,"name":"ports_17","capacity":10000,"empty":560,"full":252,"shortage":0,"booking":65,"fulfillment":65,"port_name":"Singapore","position":{"lat":1.29027,"lng":103.851959},"status":"surplus"},{"frame_index":630,"name":"ports_18","capacity":10000,"empty":0,"full":174,"shortage":26,"booking":26,"fulfillment":0,"port_name":"Sydney","position":{"lat":-33.865143,"lng":151.2099},"status":"demand"},{"frame_index":630,"name":"ports_19","capacity":10000,"empty":0,"full":350,"shortage":32,"booking":32,"fulfillment":0,"port_name":"Vancouver","position":{"lat":49.246292,"lng":-123.116226},"status":"demand"},{"frame_index":630,"name":"ports_20","capacity":10000,"empty":32,"full":788,"shortage":0,"booking":127,"fulfillment":127,"port_name":"Yantian","position":{"lat":26.8533,"lng":119.8575},"status":"demand"},{"frame_index":630,"name":"ports_21","capacity":10000,"empty":0,"full":796,"shortage":124,"booking":124,"fulfillment":0,"port_name":"Yokohama","position":{"lat":35.443707,"lng":139.638031},"status":"demand"}]