[{"frame_index":768,"name":"ports_0","capacity":10000,"empty":0,"full":1812,"shortage":100,"booking":100,"fulfillment":0,"port_name":"Bremerhaven","position":{"lat":53.549999,"lng":8.583333},"status":"demand"},{"frame_index":768,"name":"ports_1","capacity":10000,"empty":46,"full":209,"shortage":0,"booking":6,"fulfillment":6,"port_name":"Durban","position":{"lat":-29.8579,"lng":31.0292},"status":"balance"},{"frame_index":768,"name":"ports_2","capacity":10000,"empty":0,"full":191,"shortage":7,"booking":7,"fulfillment":0,"port_name":"Itagual","position":{"lat":-22.85222,"lng":-43.77528},"status":"balance"},{"frame_index":768,"name":"ports_3","capacity":10000,"empty":1186,"full":1248,"shortage":0,"booking":34,"fulfillment":34,"port_name":"LeHavre","position":{"lat":49.490002,"lng":0.1},"status":"surplus"},{"frame_index":768,"name":"ports_4","capacity":10000,"empty":2652,"full":1220,"shortage":0,"booking":29,"fulfillment":29,"port_name":"Los Angeles","position":{"lat":34.052235,"lng":-118.243683},"status":"surplus"},{"frame_index":768,"name":"ports_5","capacity":10000,"empty":1354,"full":578,"shortage":0,"booking":25,"fulfillment":25,"port_name":"Manzanillo","position":{"lat":19.11695,"lng":-104.34214},"status":"surplus"},{"frame_index":768,"name":"ports_6","capacity":10000,"empty":284,"full":11,"shortage":0,"booking":9,"fulfillment":9,"port_name":"Melbourne","position":{"lat":-37.840935,"lng":144.946457},"status":"surplus"},{"frame_index":768,"name":"ports_7","capacity":10000,"empty":1947,"full":700,"shortage":0,"booking":9,"fulfillment":9,"port_name":"Montreal","position":{"lat":45.516136,"lng":-73.65683},"status":"surplus"},{"frame_index":768,"name":"ports_8","capacity":10000,"empty":11365,"full":1130,"shortage":0,"booking":18,"fulfillment":18,"port_name":"New York","position":{"lat":40.73061,"lng":-73.935242},"status":"surplus"},{"frame_index":768,"name":"ports_9","capacity":10000,"empty":687,"full":569,"shortage":0,"booking":19,"fulfillment":19,"port_name":"Oakland","position":{"lat":37.804363,"lng":-122.271111},"status":"surplus"},{"frame_index":768,"name":"ports_10","capacity":10000,"empty":4194,"full":93,"shortage":0,"booking":7,"fulfillment":7,"port_name":"Prince Rupert","position":{"lat":54.312519,"lng":-130.305405},"status":"surplus"},{"frame_index":768,"name":"ports_11","capacity":10000,"empty":671,"full":298,"shortage":0,"booking":35,"fulfillment":35,"port_name":"Pusan","position":{"lat":35.166668,"lng":129.066666},"status":"surplus"},{"frame_index":768,"name":"ports_12","capacity":10000,"empty":1838,"full":1092,"shortage":0,"booking":42,"fulfillment":42,"port_name":"Qingdao","position":{"lat":36.066898,"lng":120.382698},"status":"surplus"},{"frame_index":768,"name":"ports_13","capacity":10000,"empty":5416,"full":663,"shortage":0,"booking":6,"fulfillment":6,"port_name":"San Antonio","position":{"lat":29.424349,"lng":-98.491142},"status":"surplus"},{"frame_index":768,"name":"ports_14","capacity":10000,"empty":0,"full":661,"shortage":6,"booking":6,"fulfillment":0,"port_name":"Santos","position":{"lat":-23.96083,"lng":-46.33361},"status":"balance"},{"frame_index":768,"name":"ports_15","capacity":10000,"empty":0,"full":1415,"shortage":40,"booking":40,"fulfillment":0,"port_name":"Seattle","position":{"lat":47.608013,"lng":-122.335167},"status":"demand"},{"frame_index":768,"name":"ports_16","capacity":10000,"empty":278,"full":731,"shortage":0,"booking":58,"fulfillment":58,"port_name":"Shanghai","position":{"lat":31.224361,"lng":121.46917},"status":"balance"},{"frame_index":768,"name":"ports_17","capacity":10000,"empty":626,"full":599,"shortage":0,"booking":23,"fulfillment":23,"port_name":"Singapore","position":{"lat":1.29027,"lng":103.851959},"status":"surplus"},{"frame_index":768,"name":"ports_18","capacity":10000,"empty":0,"full":98,"shortage":8,"booking":8,"fulfillment":0,"port_name":"Sydney","position":{"lat":-33.865143,"lng":151.2099},"status":"balance"},{"frame_index":768,"name":"ports_19","capacity":10000,"empty":0,"full":419,"shortage":13,"booking":13,"fulfillment":0,"port_name":"Vancouver","position":{"lat":49.246292,"lng":-123.116226},"status":"demand"},{"frame_index":768,"name":"ports_20","capacity":10000,"empty":1011,"full":137,"shortage":0,"booking":44,"fulfillment":44,"port_name":"Yantian","position":{"lat":26.8533,"lng":119.8575},"status":"surplus"},{"frame_index":768,"name":"ports_21","capacity":10000,"empty":478,"full":774,"shortage":0,"booking":33,"fulfillment":33,"port_name":"Yokohama","position":{"lat":35.443707,"lng":139.638031},"status":"surplus"}]