[{"frame_index":935,"name":"ports_0","capacity":10000,"empty":0,"full":811,"shortage":126,"booking":126,"fulfillment":0,"port_name":"Bremerhaven","position":{"lat":53.549999,"lng":8.583333},"status":"demand"},{"frame_index":935,"name":"ports_1","capacity":10000,"empty":513,"full":94,"shortage":0,"booking":9,"fulfillment":9,"port_name":"Durban","position":{"lat":-29.8579,"lng":31.0292},"status":"surplus"},{"frame_index":935,"name":"ports_2","capacity":10000,"empty":507,"full":59,"shortage":0,"booking":9,"fulfillment":9,"port_name":"Itagual","position":{"lat":-22.85222,"lng":-43.77528},"status":"surplus"},{"frame_index":935,"name":"ports_3","capacity":10000,"empty":1706,"full":1494,"shortage":0,"booking":55,"fulfillment":55,"port_name":"LeHavre","position":{"lat":49.490002,"lng":0.1},"status":"surplus"},{"frame_index":935,"name":"ports_4","capacity":10000,"empty":1650,"full":516,"shortage":0,"booking":44,"fulfillment":44,"port_name":"Los Angeles","position":{"lat":34.052235,"lng":-118.243683},"status":"surplus"},{"frame_index":935,"name":"ports_5","capacity":10000,"empty":0,"full":168,"shortage":43,"booking":43,"fulfillment":0,"port_name":"Manzanillo","position":{"lat":19.11695,"lng":-104.34214},"status":"demand"},{"frame_index":935,"name":"ports_6","capacity":10000,"empty":107,"full":170,"shortage":0,"booking":13,"fulfillment":13,"port_name":"Melbourne","position":{"lat":-37.840935,"lng":144.946457},"status":"balance"},{"frame_index":935,"name":"ports_7","capacity":10000,"empty":2004,"full":308,"shortage":0,"booking":14,"fulfillment":14,"port_name":"Montreal","position":{"lat":45.516136,"lng":-73.65683},"status":"surplus"},{"frame_index":935,"name":"ports_8","capacity":10000,"empty":13395,"full":563,"shortage":0,"booking":25,"fulfillment":25,"port_name":"New York","position":{"lat":40.73061,"lng":-73.935242},"status":"surplus"},{"frame_index":935,"name":"ports_9","capacity":10000,"empty":2767,"full":57,"shortage":0,"booking":26,"fulfillment":26,"port_name":"Oakland","position":{"lat":37.804363,"lng":-122.271111},"status":"surplus"},{"frame_index":935,"name":"ports_10","capacity":10000,"empty":2101,"full":63,"shortage":0,"booking":12,"fulfillment":12,"port_name":"Prince Rupert","position":{"lat":54.312519,"lng":-130.305405},"status":"surplus"},{"frame_index":935,"name":"ports_11","capacity":10000,"empty":1030,"full":189,"shortage":0,"booking":56,"fulfillment":56,"port_name":"Pusan","position":{"lat":35.166668,"lng":129.066666},"status":"surplus"},{"frame_index":935,"name":"ports_12","capacity":10000,"empty":76,"full":813,"shortage":0,"booking":77,"fulfillment":77,"port_name":"Qingdao","position":{"lat":36.066898,"lng":120.382698},"status":"demand"},{"frame_index":935,"name":"ports_13","capacity":10000,"empty":1116,"full":0,"shortage":0,"booking":9,"fulfillment":9,"port_name":"San Antonio","position":{"lat":29.424349,"lng":-98.491142},"status":"surplus"},{"frame_index":935,"name":"ports_14","capacity":10000,"empty":412,"full":240,"shortage":0,"booking":8,"fulfillment":8,"port_name":"Santos","position":{"lat":-23.96083,"lng":-46.33361},"status":"surplus"},{"frame_index":935,"name":"ports_15","capacity":10000,"empty":578,"full":1271,"shortage":0,"booking":62,"fulfillment":62,"port_name":"Seattle","position":{"lat":47.608013,"lng":-122.335167},"status":"surplus"},{"frame_index":935,"name":"ports_16","capacity":10000,"empty":0,"full":560,"shortage":92,"booking":92,"fulfillment":0,"port_name":"Shanghai","position":{"lat":31.224361,"lng":121.46917},"status":"demand"},{"frame_index":935,"name":"ports_17","capacity":10000,"empty":827,"full":686,"shortage":0,"booking":36,"fulfillment":36,"port_name":"Singapore","position":{"lat":1.29027,"lng":103.851959},"status":"surplus"},{"frame_index":935,"name":"ports_18","capacity":10000,"empty":0,"full":200,"shortage":13,"booking":13,"fulfillment":0,"port_name":"Sydney","position":{"lat":-33.865143,"lng":151.2099},"status":"demand"},{"frame_index":935,"name":"ports_19","capacity":10000,"empty":0,"full":411,"shortage":20,"booking":20,"fulfillment":0,"port_name":"Vancouver","position":{"lat":49.246292,"lng":-123.116226},"status":"demand"},{"frame_index":935,"name":"ports_20","capacity":10000,"empty":0,"full":353,"shortage":64,"booking":64,"fulfillment":0,"port_name":"Yantian","position":{"lat":26.8533,"lng":119.8575},"status":"demand"},{"frame_index":935,"name":"ports_21","capacity":10000,"empty":30,"full":374,"shortage":0,"booking":60,"fulfillment":60,"port_name":"Yokohama","position":{"lat":35.443707,"lng":139.638031},"status":"demand"}]