[{"frame_index":875,"name":"ports_0","capacity":10000,"empty":1610,"full":993,"shortage":0,"booking":47,"fulfillment":47,"port_name":"Bremerhaven","position":{"lat":53.549999,"lng":8.583333},"status":"surplus"},{"frame_index":875,"name":"ports_1","capacity":10000,"empty":0,"full":322,"shortage":4,"booking":4,"fulfillment":0,"port_name":"Durban","position":{"lat":-29.8579,"lng":31.0292},"status":"balance"},{"frame_index":875,"name":"ports_2","capacity":10000,"empty":142,"full":349,"shortage":0,"booking":4,"fulfillment":4,"port_name":"Itagual","position":{"lat":-22.85222,"lng":-43.77528},"status":"surplus"},{"frame_index":875,"name":"ports_3","capacity":10000,"empty":0,"full":1092,"shortage":21,"booking":21,"fulfillment":0,"port_name":"LeHavre","position":{"lat":49.490002,"lng":0.1},"status":"demand"},{"frame_index":875,"name":"ports_4","capacity":10000,"empty":683,"full":96,"shortage":0,"booking":17,"fulfillment":17,"port_name":"Los Angeles","position":{"lat":34.052235,"lng":-118.243683},"status":"surplus"},{"frame_index":875,"name":"ports_5","capacity":10000,"empty":0,"full":172,"shortage":20,"booking":20,"fulfillment":0,"port_name":"Manzanillo","position":{"lat":19.11695,"lng":-104.34214},"status":"demand"},{"frame_index":875,"name":"ports_6","capacity":10000,"empty":0,"full":85,"shortage":6,"booking":6,"fulfillment":0,"port_name":"Melbourne","position":{"lat":-37.840935,"lng":144.946457},"status":"balance"},{"frame_index":875,"name":"ports_7","capacity":10000,"empty":1615,"full":438,"shortage":0,"booking":6,"fulfillment":6,"port_name":"Montreal","position":{"lat":45.516136,"lng":-73.65683},"status":"surplus"},{"frame_index":875,"name":"ports_8","capacity":10000,"empty":10227,"full":837,"shortage":0,"booking":11,"fulfillment":11,"port_name":"New York","position":{"lat":40.73061,"lng":-73.935242},"status":"surplus"},{"frame_index":875,"name":"ports_9","capacity":10000,"empty":28,"full":1225,"shortage":0,"booking":10,"fulfillment":10,"port_name":"Oakland","position":{"lat":37.804363,"lng":-122.271111},"status":"balance"},{"frame_index":875,"name":"ports_10","capacity":10000,"empty":3098,"full":385,"shortage":0,"booking":6,"fulfillment":6,"port_name":"Prince Rupert","position":{"lat":54.312519,"lng":-130.305405},"status":"surplus"},{"frame_index":875,"name":"ports_11","capacity":10000,"empty":0,"full":775,"shortage":21,"booking":21,"fulfillment":0,"port_name":"Pusan","position":{"lat":35.166668,"lng":129.066666},"status":"demand"},{"frame_index":875,"name":"ports_12","capacity":10000,"empty":1432,"full":2651,"shortage":0,"booking":31,"fulfillment":31,"port_name":"Qingdao","position":{"lat":36.066898,"lng":120.382698},"status":"surplus"},{"frame_index":875,"name":"ports_13","capacity":10000,"empty":1082,"full":316,"shortage":0,"booking":4,"fulfillment":4,"port_name":"San Antonio","position":{"lat":29.424349,"lng":-98.491142},"status":"surplus"},{"frame_index":875,"name":"ports_14","capacity":10000,"empty":0,"full":479,"shortage":4,"booking":4,"fulfillment":0,"port_name":"Santos","position":{"lat":-23.96083,"lng":-46.33361},"status":"balance"},{"frame_index":875,"name":"ports_15","capacity":10000,"empty":1388,"full":979,"shortage":0,"booking":26,"fulfillment":26,"port_name":"Seattle","position":{"lat":47.608013,"lng":-122.335167},"status":"surplus"},{"frame_index":875,"name":"ports_16","capacity":10000,"empty":0,"full":2603,"shortage":27,"booking":35,"fulfillment":8,"port_name":"Shanghai","position":{"lat":31.224361,"lng":121.46917},"status":"demand"},{"frame_index":875,"name":"ports_17","capacity":10000,"empty":2904,"full":1155,"shortage":0,"booking":14,"fulfillment":14,"port_name":"Singapore","position":{"lat":1.29027,"lng":103.851959},"status":"surplus"},{"frame_index":875,"name":"ports_18","capacity":10000,"empty":71,"full":118,"shortage":0,"booking":6,"fulfillment":6,"port_name":"Sydney","position":{"lat":-33.865143,"lng":151.2099},"status":"balance"},{"frame_index":875,"name":"ports_19","capacity":10000,"empty":368,"full":30,"shortage":0,"booking":7,"fulfillment":7,"port_name":"Vancouver","position":{"lat":49.246292,"lng":-123.116226},"status":"surplus"},{"frame_index":875,"name":"ports_20","capacity":10000,"empty":435,"full":1073,"shortage":0,"booking":22,"fulfillment":22,"port_name":"Yantian","position":{"lat":26.8533,"lng":119.8575},"status":"surplus"},{"frame_index":875,"name":"ports_21","capacity":10000,"empty":0,"full":370,"shortage":17,"booking":17,"fulfillment":0,"port_name":"Yokohama","position":{"lat":35.443707,"lng":139.638031},"status":"demand"}]