[{"frame_index":895,"name":"ports_0","capacity":10000,"empty":1064,"full":1394,"shortage":0,"booking":90,"fulfillment":90,"port_name":"Bremerhaven","position":{"lat":53.549999,"lng":8.583333},"status":"surplus"},{"frame_index":895,"name":"ports_1","capacity":10000,"empty":465,"full":24,"shortage":0,"booking":6,"fulfillment":6,"port_name":"Durban","position":{"lat":-29.8579,"lng":31.0292},"status":"surplus"},{"frame_index":895,"name":"ports_2","capacity":10000,"empty":45,"full":442,"shortage":0,"booking":5,"fulfillment":5,"port_name":"Itagual","position":{"lat":-22.85222,"lng":-43.77528},"status":"balance"},{"frame_index":895,"name":"ports_3","capacity":10000,"empty":552,"full":935,"shortage":0,"booking":28,"fulfillment":28,"port_name":"LeHavre","position":{"lat":49.490002,"lng":0.1},"status":"surplus"},{"frame_index":895,"name":"ports_4","capacity":10000,"empty":495,"full":365,"shortage":0,"booking":24,"fulfillment":24,"port_name":"Los Angeles","position":{"lat":34.052235,"lng":-118.243683},"status":"surplus"},{"frame_index":895,"name":"ports_5","capacity":10000,"empty":945,"full":236,"shortage":0,"booking":27,"fulfillment":27,"port_name":"Manzanillo","position":{"lat":19.11695,"lng":-104.34214},"status":"surplus"},{"frame_index":895,"name":"ports_6","capacity":10000,"empty":0,"full":85,"shortage":8,"booking":8,"fulfillment":0,"port_name":"Melbourne","position":{"lat":-37.840935,"lng":144.946457},"status":"balance"},{"frame_index":895,"name":"ports_7","capacity":10000,"empty":2177,"full":30,"shortage":0,"booking":8,"fulfillment":8,"port_name":"Montreal","position":{"lat":45.516136,"lng":-73.65683},"status":"surplus"},{"frame_index":895,"name":"ports_8","capacity":10000,"empty":11991,"full":134,"shortage":0,"booking":15,"fulfillment":15,"port_name":"New York","position":{"lat":40.73061,"lng":-73.935242},"status":"surplus"},{"frame_index":895,"name":"ports_9","capacity":10000,"empty":1486,"full":72,"shortage":0,"booking":15,"fulfillment":15,"port_name":"Oakland","position":{"lat":37.804363,"lng":-122.271111},"status":"surplus"},{"frame_index":895,"name":"ports_10","capacity":10000,"empty":3685,"full":56,"shortage":0,"booking":9,"fulfillment":9,"port_name":"Prince Rupert","position":{"lat":54.312519,"lng":-130.305405},"status":"surplus"},{"frame_index":895,"name":"ports_11","capacity":10000,"empty":6,"full":1036,"shortage":0,"booking":29,"fulfillment":29,"port_name":"Pusan","position":{"lat":35.166668,"lng":129.066666},"status":"demand"},{"frame_index":895,"name":"ports_12","capacity":10000,"empty":1845,"full":574,"shortage":0,"booking":36,"fulfillment":36,"port_name":"Qingdao","position":{"lat":36.066898,"lng":120.382698},"status":"surplus"},{"frame_index":895,"name":"ports_13","capacity":10000,"empty":371,"full":88,"shortage":0,"booking":6,"fulfillment":6,"port_name":"San Antonio","position":{"lat":29.424349,"lng":-98.491142},"status":"surplus"},{"frame_index":895,"name":"ports_14","capacity":10000,"empty":503,"full":24,"shortage":0,"booking":5,"fulfillment":5,"port_name":"Santos","position":{"lat":-23.96083,"lng":-46.33361},"status":"surplus"},{"frame_index":895,"name":"ports_15","capacity":10000,"empty":777,"full":1602,"shortage":0,"booking":34,"fulfillment":34,"port_name":"Seattle","position":{"lat":47.608013,"lng":-122.335167},"status":"surplus"},{"frame_index":895,"name":"ports_16","capacity":10000,"empty":56,"full":1959,"shortage":0,"booking":43,"fulfillment":43,"port_name":"Shanghai","position":{"lat":31.224361,"lng":121.46917},"status":"demand"},{"frame_index":895,"name":"ports_17","capacity":10000,"empty":2965,"full":427,"shortage":0,"booking":19,"fulfillment":19,"port_name":"Singapore","position":{"lat":1.29027,"lng":103.851959},"status":"surplus"},{"frame_index":895,"name":"ports_18","capacity":10000,"empty":126,"full":65,"shortage":0,"booking":8,"fulfillment":8,"port_name":"Sydney","position":{"lat":-33.865143,"lng":151.2099},"status":"surplus"},{"frame_index":895,"name":"ports_19","capacity":10000,"empty":305,"full":172,"shortage":0,"booking":10,"fulfillment":10,"port_name":"Vancouver","position":{"lat":49.246292,"lng":-123.116226},"status":"surplus"},{"frame_index":895,"name":"ports_20","capacity":10000,"empty":344,"full":1140,"shortage":0,"booking":36,"fulfillment":36,"port_name":"Yantian","position":{"lat":26.8533,"lng":119.8575},"status":"surplus"},{"frame_index":895,"name":"ports_21","capacity":10000,"empty":350,"full":88,"shortage":0,"booking":25,"fulfillment":25,"port_name":"Yokohama","position":{"lat":35.443707,"lng":139.638031},"status":"surplus"}]