[{"frame_index":27,"name":"ports_0","capacity":10000,"empty":14130,"full":674,"shortage":0,"booking":115,"fulfillment":115,"port_name":"Bremerhaven","position":{"lat":53.549999,"lng":8.583333},"status":"surplus"},{"frame_index":27,"name":"ports_1","capacity":10000,"empty":1005,"full":35,"shortage":0,"booking":8,"fulfillment":8,"port_name":"Durban","position":{"lat":-29.8579,"lng":31.0292},"status":"surplus"},{"frame_index":27,"name":"ports_2","capacity":10000,"empty":712,"full":17,"shortage":0,"booking":8,"fulfillment":8,"port_name":"Itagual","position":{"lat":-22.85222,"lng":-43.77528},"status":"surplus"},{"frame_index":27,"name":"ports_3","capacity":10000,"empty":0,"full":49,"shortage":44,"booking":48,"fulfillment":4,"port_name":"LeHavre","position":{"lat":49.490002,"lng":0.1},"status":"demand"},{"frame_index":27,"name":"ports_4","capacity":10000,"empty":2576,"full":456,"shortage":0,"booking":38,"fulfillment":38,"port_name":"Los Angeles","position":{"lat":34.052235,"lng":-118.243683},"status":"surplus"},{"frame_index":27,"name":"ports_5","capacity":10000,"empty":4390,"full":96,"shortage":0,"booking":39,"fulfillment":39,"port_name":"Manzanillo","position":{"lat":19.11695,"lng":-104.34214},"status":"surplus"},{"frame_index":27,"name":"ports_6","capacity":10000,"empty":1312,"full":165,"shortage":0,"booking":12,"fulfillment":12,"port_name":"Melbourne","position":{"lat":-37.840935,"lng":144.946457},"status":"surplus"},{"frame_index":27,"name":"ports_7","capacity":10000,"empty":1315,"full":158,"shortage":0,"booking":12,"fulfillment":12,"port_name":"Montreal","position":{"lat":45.516136,"lng":-73.65683},"status":"surplus"},{"frame_index":27,"name":"ports_8","capacity":10000,"empty":2637,"full":328,"shortage":0,"booking":23,"fulfillment":23,"port_name":"New York","position":{"lat":40.73061,"lng":-73.935242},"status":"surplus"},{"frame_index":27,"name":"ports_9","capacity":10000,"empty":2624,"full":339,"shortage":0,"booking":24,"fulfillment":24,"port_name":"Oakland","position":{"lat":37.804363,"lng":-122.271111},"status":"surplus"},{"frame_index":27,"name":"ports_10","capacity":10000,"empty":1313,"full":176,"shortage":0,"booking":11,"fulfillment":11,"port_name":"Prince Rupert","position":{"lat":54.312519,"lng":-130.305405},"status":"surplus"},{"frame_index":27,"name":"ports_11","capacity":10000,"empty":3082,"full":289,"shortage":0,"booking":45,"fulfillment":45,"port_name":"Pusan","position":{"lat":35.166668,"lng":129.066666},"status":"surplus"},{"frame_index":27,"name":"ports_12","capacity":10000,"empty":134,"full":462,"shortage":0,"booking":64,"fulfillment":64,"port_name":"Qingdao","position":{"lat":36.066898,"lng":120.382698},"status":"demand"},{"frame_index":27,"name":"ports_13","capacity":10000,"empty":871,"full":116,"shortage":0,"booking":7,"fulfillment":7,"port_name":"San Antonio","position":{"lat":29.424349,"lng":-98.491142},"status":"surplus"},{"frame_index":27,"name":"ports_14","capacity":10000,"empty":864,"full":121,"shortage":0,"booking":9,"fulfillment":9,"port_name":"Santos","position":{"lat":-23.96083,"lng":-46.33361},"status":"surplus"},{"frame_index":27,"name":"ports_15","capacity":10000,"empty":5156,"full":616,"shortage":0,"booking":56,"fulfillment":56,"port_name":"Seattle","position":{"lat":47.608013,"lng":-122.335167},"status":"surplus"},{"frame_index":27,"name":"ports_16","capacity":10000,"empty":5568,"full":695,"shortage":0,"booking":88,"fulfillment":88,"port_name":"Shanghai","position":{"lat":31.224361,"lng":121.46917},"status":"surplus"},{"frame_index":27,"name":"ports_17","capacity":10000,"empty":302,"full":32,"shortage":32,"booking":32,"fulfillment":0,"port_name":"Singapore","position":{"lat":1.29027,"lng":103.851959},"status":"surplus"},{"frame_index":27,"name":"ports_18","capacity":10000,"empty":1313,"full":169,"shortage":0,"booking":13,"fulfillment":13,"port_name":"Sydney","position":{"lat":-33.865143,"lng":151.2099},"status":"surplus"},{"frame_index":27,"name":"ports_19","capacity":10000,"empty":0,"full":40,"shortage":17,"booking":17,"fulfillment":0,"port_name":"Vancouver","position":{"lat":49.246292,"lng":-123.116226},"status":"demand"},{"frame_index":27,"name":"ports_20","capacity":10000,"empty":583,"full":278,"shortage":0,"booking":59,"fulfillment":59,"port_name":"Yantian","position":{"lat":26.8533,"lng":119.8575},"status":"surplus"},{"frame_index":27,"name":"ports_21","capacity":10000,"empty":7345,"full":562,"shortage":0,"booking":50,"fulfillment":50,"port_name":"Yokohama","position":{"lat":35.443707,"lng":139.638031},"status":"surplus"}]