[{"frame_index":603,"name":"ports_0","capacity":10000,"empty":1448,"full":4058,"shortage":0,"booking":259,"fulfillment":259,"port_name":"Bremerhaven","position":{"lat":53.549999,"lng":8.583333},"status":"surplus"},{"frame_index":603,"name":"ports_1","capacity":10000,"empty":331,"full":60,"shortage":0,"booking":18,"fulfillment":18,"port_name":"Durban","position":{"lat":-29.8579,"lng":31.0292},"status":"surplus"},{"frame_index":603,"name":"ports_2","capacity":10000,"empty":19,"full":227,"shortage":0,"booking":18,"fulfillment":18,"port_name":"Itagual","position":{"lat":-22.85222,"lng":-43.77528},"status":"demand"},{"frame_index":603,"name":"ports_3","capacity":10000,"empty":96,"full":1539,"shortage":0,"booking":115,"fulfillment":115,"port_name":"LeHavre","position":{"lat":49.490002,"lng":0.1},"status":"demand"},{"frame_index":603,"name":"ports_4","capacity":10000,"empty":2499,"full":1144,"shortage":0,"booking":93,"fulfillment":93,"port_name":"Los Angeles","position":{"lat":34.052235,"lng":-118.243683},"status":"surplus"},{"frame_index":603,"name":"ports_5","capacity":10000,"empty":362,"full":395,"shortage":0,"booking":92,"fulfillment":92,"port_name":"Manzanillo","position":{"lat":19.11695,"lng":-104.34214},"status":"demand"},{"frame_index":603,"name":"ports_6","capacity":10000,"empty":0,"full":257,"shortage":29,"booking":29,"fulfillment":0,"port_name":"Melbourne","position":{"lat":-37.840935,"lng":144.946457},"status":"demand"},{"frame_index":603,"name":"ports_7","capacity":10000,"empty":2365,"full":202,"shortage":0,"booking":29,"fulfillment":29,"port_name":"Montreal","position":{"lat":45.516136,"lng":-73.65683},"status":"surplus"},{"frame_index":603,"name":"ports_8","capacity":10000,"empty":9996,"full":113,"shortage":0,"booking":58,"fulfillment":58,"port_name":"New York","position":{"lat":40.73061,"lng":-73.935242},"status":"surplus"},{"frame_index":603,"name":"ports_9","capacity":10000,"empty":3079,"full":277,"shortage":0,"booking":51,"fulfillment":51,"port_name":"Oakland","position":{"lat":37.804363,"lng":-122.271111},"status":"surplus"},{"frame_index":603,"name":"ports_10","capacity":10000,"empty":663,"full":191,"shortage":0,"booking":27,"fulfillment":27,"port_name":"Prince Rupert","position":{"lat":54.312519,"lng":-130.305405},"status":"surplus"},{"frame_index":603,"name":"ports_11","capacity":10000,"empty":16,"full":446,"shortage":0,"booking":119,"fulfillment":119,"port_name":"Pusan","position":{"lat":35.166668,"lng":129.066666},"status":"demand"},{"frame_index":603,"name":"ports_12","capacity":10000,"empty":1827,"full":633,"shortage":0,"booking":147,"fulfillment":147,"port_name":"Qingdao","position":{"lat":36.066898,"lng":120.382698},"status":"surplus"},{"frame_index":603,"name":"ports_13","capacity":10000,"empty":0,"full":174,"shortage":18,"booking":18,"fulfillment":0,"port_name":"San Antonio","position":{"lat":29.424349,"lng":-98.491142},"status":"demand"},{"frame_index":603,"name":"ports_14","capacity":10000,"empty":618,"full":72,"shortage":0,"booking":20,"fulfillment":20,"port_name":"Santos","position":{"lat":-23.96083,"lng":-46.33361},"status":"surplus"},{"frame_index":603,"name":"ports_15","capacity":10000,"empty":0,"full":369,"shortage":133,"booking":133,"fulfillment":0,"port_name":"Seattle","position":{"lat":47.608013,"lng":-122.335167},"status":"demand"},{"frame_index":603,"name":"ports_16","capacity":10000,"empty":252,"full":342,"shortage":0,"booking":177,"fulfillment":177,"port_name":"Shanghai","position":{"lat":31.224361,"lng":121.46917},"status":"demand"},{"frame_index":603,"name":"ports_17","capacity":10000,"empty":98,"full":222,"shortage":0,"booking":76,"fulfillment":76,"port_name":"Singapore","position":{"lat":1.29027,"lng":103.851959},"status":"demand"},{"frame_index":603,"name":"ports_18","capacity":10000,"empty":183,"full":75,"shortage":0,"booking":30,"fulfillment":30,"port_name":"Sydney","position":{"lat":-33.865143,"lng":151.2099},"status":"balance"},{"frame_index":603,"name":"ports_19","capacity":10000,"empty":38,"full":283,"shortage":0,"booking":37,"fulfillment":37,"port_name":"Vancouver","position":{"lat":49.246292,"lng":-123.116226},"status":"demand"},{"frame_index":603,"name":"ports_20","capacity":10000,"empty":116,"full":515,"shortage":129,"booking":133,"fulfillment":4,"port_name":"Yantian","position":{"lat":26.8533,"lng":119.8575},"status":"demand"},{"frame_index":603,"name":"ports_21","capacity":10000,"empty":0,"full":23,"shortage":143,"booking":143,"fulfillment":0,"port_name":"Yokohama","position":{"lat":35.443707,"lng":139.638031},"status":"demand"}]