[{"frame_index":408,"name":"ports_0","capacity":10000,"empty":4539,"full":4016,"shortage":0,"booking":205,"fulfillment":205,"port_name":"Bremerhaven","position":{"lat":53.549999,"lng":8.583333},"status":"surplus"},{"frame_index":408,"name":"ports_1","capacity":10000,"empty":829,"full":226,"shortage":0,"booking":16,"fulfillment":16,"port_name":"Durban","position":{"lat":-29.8579,"lng":31.0292},"status":"surplus"},{"frame_index":408,"name":"ports_2","capacity":10000,"empty":299,"full":338,"shortage":0,"booking":16,"fulfillment":16,"port_name":"Itagual","position":{"lat":-22.85222,"lng":-43.77528},"status":"surplus"},{"frame_index":408,"name":"ports_3","capacity":10000,"empty":0,"full":1411,"shortage":91,"booking":91,"fulfillment":0,"port_name":"LeHavre","position":{"lat":49.490002,"lng":0.1},"status":"demand"},{"frame_index":408,"name":"ports_4","capacity":10000,"empty":0,"full":719,"shortage":75,"booking":75,"fulfillment":0,"port_name":"Los Angeles","position":{"lat":34.052235,"lng":-118.243683},"status":"demand"},{"frame_index":408,"name":"ports_5","capacity":10000,"empty":486,"full":917,"shortage":0,"booking":73,"fulfillment":73,"port_name":"Manzanillo","position":{"lat":19.11695,"lng":-104.34214},"status":"surplus"},{"frame_index":408,"name":"ports_6","capacity":10000,"empty":188,"full":47,"shortage":0,"booking":23,"fulfillment":23,"port_name":"Melbourne","position":{"lat":-37.840935,"lng":144.946457},"status":"surplus"},{"frame_index":408,"name":"ports_7","capacity":10000,"empty":1100,"full":803,"shortage":0,"booking":23,"fulfillment":23,"port_name":"Montreal","position":{"lat":45.516136,"lng":-73.65683},"status":"surplus"},{"frame_index":408,"name":"ports_8","capacity":10000,"empty":4329,"full":458,"shortage":0,"booking":44,"fulfillment":44,"port_name":"New York","position":{"lat":40.73061,"lng":-73.935242},"status":"surplus"},{"frame_index":408,"name":"ports_9","capacity":10000,"empty":4698,"full":679,"shortage":0,"booking":52,"fulfillment":52,"port_name":"Oakland","position":{"lat":37.804363,"lng":-122.271111},"status":"surplus"},{"frame_index":408,"name":"ports_10","capacity":10000,"empty":2239,"full":951,"shortage":0,"booking":19,"fulfillment":19,"port_name":"Prince Rupert","position":{"lat":54.312519,"lng":-130.305405},"status":"surplus"},{"frame_index":408,"name":"ports_11","capacity":10000,"empty":0,"full":266,"shortage":91,"booking":91,"fulfillment":0,"port_name":"Pusan","position":{"lat":35.166668,"lng":129.066666},"status":"demand"},{"frame_index":408,"name":"ports_12","capacity":10000,"empty":3755,"full":949,"shortage":0,"booking":107,"fulfillment":107,"port_name":"Qingdao","position":{"lat":36.066898,"lng":120.382698},"status":"surplus"},{"frame_index":408,"name":"ports_13","capacity":10000,"empty":0,"full":429,"shortage":17,"booking":17,"fulfillment":0,"port_name":"San Antonio","position":{"lat":29.424349,"lng":-98.491142},"status":"demand"},{"frame_index":408,"name":"ports_14","capacity":10000,"empty":598,"full":667,"shortage":0,"booking":15,"fulfillment":15,"port_name":"Santos","position":{"lat":-23.96083,"lng":-46.33361},"status":"surplus"},{"frame_index":408,"name":"ports_15","capacity":10000,"empty":238,"full":704,"shortage":0,"booking":102,"fulfillment":102,"port_name":"Seattle","position":{"lat":47.608013,"lng":-122.335167},"status":"demand"},{"frame_index":408,"name":"ports_16","capacity":10000,"empty":56,"full":2799,"shortage":0,"booking":148,"fulfillment":148,"port_name":"Shanghai","position":{"lat":31.224361,"lng":121.46917},"status":"demand"},{"frame_index":408,"name":"ports_17","capacity":10000,"empty":0,"full":461,"shortage":60,"booking":60,"fulfillment":0,"port_name":"Singapore","position":{"lat":1.29027,"lng":103.851959},"status":"demand"},{"frame_index":408,"name":"ports_18","capacity":10000,"empty":100,"full":255,"shortage":0,"booking":24,"fulfillment":24,"port_name":"Sydney","position":{"lat":-33.865143,"lng":151.2099},"status":"balance"},{"frame_index":408,"name":"ports_19","capacity":10000,"empty":0,"full":564,"shortage":28,"booking":28,"fulfillment":0,"port_name":"Vancouver","position":{"lat":49.246292,"lng":-123.116226},"status":"demand"},{"frame_index":408,"name":"ports_20","capacity":10000,"empty":9,"full":900,"shortage":100,"booking":100,"fulfillment":0,"port_name":"Yantian","position":{"lat":26.8533,"lng":119.8575},"status":"demand"},{"frame_index":408,"name":"ports_21","capacity":10000,"empty":0,"full":128,"shortage":39,"booking":110,"fulfillment":71,"port_name":"Yokohama","position":{"lat":35.443707,"lng":139.638031},"status":"demand"}]