[{"frame_index":525,"name":"ports_0","capacity":10000,"empty":6475,"full":1701,"shortage":0,"booking":109,"fulfillment":109,"port_name":"Bremerhaven","position":{"lat":53.549999,"lng":8.583333},"status":"surplus"},{"frame_index":525,"name":"ports_1","capacity":10000,"empty":167,"full":222,"shortage":0,"booking":7,"fulfillment":7,"port_name":"Durban","position":{"lat":-29.8579,"lng":31.0292},"status":"surplus"},{"frame_index":525,"name":"ports_2","capacity":10000,"empty":211,"full":370,"shortage":0,"booking":7,"fulfillment":7,"port_name":"Itagual","position":{"lat":-22.85222,"lng":-43.77528},"status":"surplus"},{"frame_index":525,"name":"ports_3","capacity":10000,"empty":830,"full":878,"shortage":0,"booking":40,"fulfillment":40,"port_name":"LeHavre","position":{"lat":49.490002,"lng":0.1},"status":"surplus"},{"frame_index":525,"name":"ports_4","capacity":10000,"empty":0,"full":1257,"shortage":34,"booking":34,"fulfillment":0,"port_name":"Los Angeles","position":{"lat":34.052235,"lng":-118.243683},"status":"demand"},{"frame_index":525,"name":"ports_5","capacity":10000,"empty":0,"full":0,"shortage":1,"booking":33,"fulfillment":32,"port_name":"Manzanillo","position":{"lat":19.11695,"lng":-104.34214},"status":"demand"},{"frame_index":525,"name":"ports_6","capacity":10000,"empty":0,"full":401,"shortage":10,"booking":10,"fulfillment":0,"port_name":"Melbourne","position":{"lat":-37.840935,"lng":144.946457},"status":"balance"},{"frame_index":525,"name":"ports_7","capacity":10000,"empty":2140,"full":762,"shortage":0,"booking":10,"fulfillment":10,"port_name":"Montreal","position":{"lat":45.516136,"lng":-73.65683},"status":"surplus"},{"frame_index":525,"name":"ports_8","capacity":10000,"empty":7005,"full":970,"shortage":0,"booking":22,"fulfillment":22,"port_name":"New York","position":{"lat":40.73061,"lng":-73.935242},"status":"surplus"},{"frame_index":525,"name":"ports_9","capacity":10000,"empty":3998,"full":1320,"shortage":0,"booking":22,"fulfillment":22,"port_name":"Oakland","position":{"lat":37.804363,"lng":-122.271111},"status":"surplus"},{"frame_index":525,"name":"ports_10","capacity":10000,"empty":1230,"full":235,"shortage":0,"booking":12,"fulfillment":12,"port_name":"Prince Rupert","position":{"lat":54.312519,"lng":-130.305405},"status":"surplus"},{"frame_index":525,"name":"ports_11","capacity":10000,"empty":37,"full":747,"shortage":0,"booking":40,"fulfillment":40,"port_name":"Pusan","position":{"lat":35.166668,"lng":129.066666},"status":"demand"},{"frame_index":525,"name":"ports_12","capacity":10000,"empty":0,"full":1864,"shortage":50,"booking":50,"fulfillment":0,"port_name":"Qingdao","position":{"lat":36.066898,"lng":120.382698},"status":"demand"},{"frame_index":525,"name":"ports_13","capacity":10000,"empty":126,"full":23,"shortage":0,"booking":7,"fulfillment":7,"port_name":"San Antonio","position":{"lat":29.424349,"lng":-98.491142},"status":"surplus"},{"frame_index":525,"name":"ports_14","capacity":10000,"empty":369,"full":222,"shortage":0,"booking":7,"fulfillment":7,"port_name":"Santos","position":{"lat":-23.96083,"lng":-46.33361},"status":"surplus"},{"frame_index":525,"name":"ports_15","capacity":10000,"empty":0,"full":984,"shortage":45,"booking":45,"fulfillment":0,"port_name":"Seattle","position":{"lat":47.608013,"lng":-122.335167},"status":"demand"},{"frame_index":525,"name":"ports_16","capacity":10000,"empty":35,"full":1169,"shortage":74,"booking":74,"fulfillment":0,"port_name":"Shanghai","position":{"lat":31.224361,"lng":121.46917},"status":"demand"},{"frame_index":525,"name":"ports_17","capacity":10000,"empty":302,"full":205,"shortage":0,"booking":27,"fulfillment":27,"port_name":"Singapore","position":{"lat":1.29027,"lng":103.851959},"status":"surplus"},{"frame_index":525,"name":"ports_18","capacity":10000,"empty":0,"full":237,"shortage":10,"booking":10,"fulfillment":0,"port_name":"Sydney","position":{"lat":-33.865143,"lng":151.2099},"status":"balance"},{"frame_index":525,"name":"ports_19","capacity":10000,"empty":188,"full":170,"shortage":0,"booking":13,"fulfillment":13,"port_name":"Vancouver","position":{"lat":49.246292,"lng":-123.116226},"status":"surplus"},{"frame_index":525,"name":"ports_20","capacity":10000,"empty":216,"full":1216,"shortage":0,"booking":43,"fulfillment":43,"port_name":"Yantian","position":{"lat":26.8533,"lng":119.8575},"status":"balance"},{"frame_index":525,"name":"ports_21","capacity":10000,"empty":1064,"full":286,"shortage":0,"booking":44,"fulfillment":44,"port_name":"Yokohama","position":{"lat":35.443707,"lng":139.638031},"status":"surplus"}]