[{"frame_index":139,"name":"ports_0","capacity":10000,"empty":0,"full":891,"shortage":193,"booking":193,"fulfillment":0,"port_name":"Bremerhaven","position":{"lat":53.549999,"lng":8.583333},"status":"demand"},{"frame_index":139,"name":"ports_1","capacity":10000,"empty":1014,"full":84,"shortage":0,"booking":12,"fulfillment":12,"port_name":"Durban","position":{"lat":-29.8579,"lng":31.0292},"status":"surplus"},{"frame_index":139,"name":"ports_2","capacity":10000,"empty":0,"full":550,"shortage":12,"booking":12,"fulfillment":0,"port_name":"Itagual","position":{"lat":-22.85222,"lng":-43.77528},"status":"demand"},{"frame_index":139,"name":"ports_3","capacity":10000,"empty":492,"full":400,"shortage":0,"booking":66,"fulfillment":66,"port_name":"LeHavre","position":{"lat":49.490002,"lng":0.1},"status":"surplus"},{"frame_index":139,"name":"ports_4","capacity":10000,"empty":940,"full":641,"shortage":0,"booking":53,"fulfillment":53,"port_name":"Los Angeles","position":{"lat":34.052235,"lng":-118.243683},"status":"surplus"},{"frame_index":139,"name":"ports_5","capacity":10000,"empty":374,"full":419,"shortage":0,"booking":46,"fulfillment":46,"port_name":"Manzanillo","position":{"lat":19.11695,"lng":-104.34214},"status":"surplus"},{"frame_index":139,"name":"ports_6","capacity":10000,"empty":419,"full":33,"shortage":0,"booking":17,"fulfillment":17,"port_name":"Melbourne","position":{"lat":-37.840935,"lng":144.946457},"status":"surplus"},{"frame_index":139,"name":"ports_7","capacity":10000,"empty":623,"full":162,"shortage":0,"booking":16,"fulfillment":16,"port_name":"Montreal","position":{"lat":45.516136,"lng":-73.65683},"status":"surplus"},{"frame_index":139,"name":"ports_8","capacity":10000,"empty":6235,"full":393,"shortage":0,"booking":32,"fulfillment":32,"port_name":"New York","position":{"lat":40.73061,"lng":-73.935242},"status":"surplus"},{"frame_index":139,"name":"ports_9","capacity":10000,"empty":823,"full":230,"shortage":0,"booking":37,"fulfillment":37,"port_name":"Oakland","position":{"lat":37.804363,"lng":-122.271111},"status":"surplus"},{"frame_index":139,"name":"ports_10","capacity":10000,"empty":47,"full":417,"shortage":0,"booking":15,"fulfillment":15,"port_name":"Prince Rupert","position":{"lat":54.312519,"lng":-130.305405},"status":"balance"},{"frame_index":139,"name":"ports_11","capacity":10000,"empty":6505,"full":205,"shortage":0,"booking":64,"fulfillment":64,"port_name":"Pusan","position":{"lat":35.166668,"lng":129.066666},"status":"surplus"},{"frame_index":139,"name":"ports_12","capacity":10000,"empty":495,"full":609,"shortage":0,"booking":92,"fulfillment":92,"port_name":"Qingdao","position":{"lat":36.066898,"lng":120.382698},"status":"balance"},{"frame_index":139,"name":"ports_13","capacity":10000,"empty":1635,"full":154,"shortage":0,"booking":11,"fulfillment":11,"port_name":"San Antonio","position":{"lat":29.424349,"lng":-98.491142},"status":"surplus"},{"frame_index":139,"name":"ports_14","capacity":10000,"empty":0,"full":74,"shortage":11,"booking":11,"fulfillment":0,"port_name":"Santos","position":{"lat":-23.96083,"lng":-46.33361},"status":"demand"},{"frame_index":139,"name":"ports_15","capacity":10000,"empty":2183,"full":104,"shortage":0,"booking":78,"fulfillment":78,"port_name":"Seattle","position":{"lat":47.608013,"lng":-122.335167},"status":"surplus"},{"frame_index":139,"name":"ports_16","capacity":10000,"empty":749,"full":257,"shortage":0,"booking":125,"fulfillment":125,"port_name":"Shanghai","position":{"lat":31.224361,"lng":121.46917},"status":"surplus"},{"frame_index":139,"name":"ports_17","capacity":10000,"empty":273,"full":420,"shortage":0,"booking":42,"fulfillment":42,"port_name":"Singapore","position":{"lat":1.29027,"lng":103.851959},"status":"surplus"},{"frame_index":139,"name":"ports_18","capacity":10000,"empty":907,"full":153,"shortage":0,"booking":19,"fulfillment":19,"port_name":"Sydney","position":{"lat":-33.865143,"lng":151.2099},"status":"surplus"},{"frame_index":139,"name":"ports_19","capacity":10000,"empty":0,"full":152,"shortage":20,"booking":20,"fulfillment":0,"port_name":"Vancouver","position":{"lat":49.246292,"lng":-123.116226},"status":"demand"},{"frame_index":139,"name":"ports_20","capacity":10000,"empty":45,"full":412,"shortage":83,"booking":83,"fulfillment":0,"port_name":"Yantian","position":{"lat":26.8533,"lng":119.8575},"status":"demand"},{"frame_index":139,"name":"ports_21","capacity":10000,"empty":0,"full":273,"shortage":74,"booking":74,"fulfillment":0,"port_name":"Yokohama","position":{"lat":35.443707,"lng":139.638031},"status":"demand"}]