[{"frame_index":870,"name":"ports_0","capacity":10000,"empty":2609,"full":2345,"shortage":0,"booking":164,"fulfillment":164,"port_name":"Bremerhaven","position":{"lat":53.549999,"lng":8.583333},"status":"surplus"},{"frame_index":870,"name":"ports_1","capacity":10000,"empty":29,"full":279,"shortage":0,"booking":10,"fulfillment":10,"port_name":"Durban","position":{"lat":-29.8579,"lng":31.0292},"status":"balance"},{"frame_index":870,"name":"ports_2","capacity":10000,"empty":181,"full":298,"shortage":0,"booking":10,"fulfillment":10,"port_name":"Itagual","position":{"lat":-22.85222,"lng":-43.77528},"status":"surplus"},{"frame_index":870,"name":"ports_3","capacity":10000,"empty":0,"full":1092,"shortage":55,"booking":55,"fulfillment":0,"port_name":"LeHavre","position":{"lat":49.490002,"lng":0.1},"status":"demand"},{"frame_index":870,"name":"ports_4","capacity":10000,"empty":72,"full":1288,"shortage":0,"booking":46,"fulfillment":46,"port_name":"Los Angeles","position":{"lat":34.052235,"lng":-118.243683},"status":"demand"},{"frame_index":870,"name":"ports_5","capacity":10000,"empty":0,"full":172,"shortage":40,"booking":40,"fulfillment":0,"port_name":"Manzanillo","position":{"lat":19.11695,"lng":-104.34214},"status":"demand"},{"frame_index":870,"name":"ports_6","capacity":10000,"empty":0,"full":85,"shortage":14,"booking":14,"fulfillment":0,"port_name":"Melbourne","position":{"lat":-37.840935,"lng":144.946457},"status":"demand"},{"frame_index":870,"name":"ports_7","capacity":10000,"empty":1675,"full":382,"shortage":0,"booking":14,"fulfillment":14,"port_name":"Montreal","position":{"lat":45.516136,"lng":-73.65683},"status":"surplus"},{"frame_index":870,"name":"ports_8","capacity":10000,"empty":10344,"full":672,"shortage":0,"booking":26,"fulfillment":26,"port_name":"New York","position":{"lat":40.73061,"lng":-73.935242},"status":"surplus"},{"frame_index":870,"name":"ports_9","capacity":10000,"empty":143,"full":1085,"shortage":0,"booking":25,"fulfillment":25,"port_name":"Oakland","position":{"lat":37.804363,"lng":-122.271111},"status":"balance"},{"frame_index":870,"name":"ports_10","capacity":10000,"empty":3161,"full":310,"shortage":0,"booking":13,"fulfillment":13,"port_name":"Prince Rupert","position":{"lat":54.312519,"lng":-130.305405},"status":"surplus"},{"frame_index":870,"name":"ports_11","capacity":10000,"empty":0,"full":775,"shortage":55,"booking":55,"fulfillment":0,"port_name":"Pusan","position":{"lat":35.166668,"lng":129.066666},"status":"demand"},{"frame_index":870,"name":"ports_12","capacity":10000,"empty":1680,"full":2251,"shortage":0,"booking":71,"fulfillment":71,"port_name":"Qingdao","position":{"lat":36.066898,"lng":120.382698},"status":"surplus"},{"frame_index":870,"name":"ports_13","capacity":10000,"empty":1123,"full":264,"shortage":0,"booking":9,"fulfillment":9,"port_name":"San Antonio","position":{"lat":29.424349,"lng":-98.491142},"status":"surplus"},{"frame_index":870,"name":"ports_14","capacity":10000,"empty":0,"full":479,"shortage":10,"booking":10,"fulfillment":0,"port_name":"Santos","position":{"lat":-23.96083,"lng":-46.33361},"status":"balance"},{"frame_index":870,"name":"ports_15","capacity":10000,"empty":1657,"full":650,"shortage":0,"booking":63,"fulfillment":63,"port_name":"Seattle","position":{"lat":47.608013,"lng":-122.335167},"status":"surplus"},{"frame_index":870,"name":"ports_16","capacity":10000,"empty":0,"full":2520,"shortage":103,"booking":103,"fulfillment":0,"port_name":"Shanghai","position":{"lat":31.224361,"lng":121.46917},"status":"demand"},{"frame_index":870,"name":"ports_17","capacity":10000,"empty":3059,"full":965,"shortage":0,"booking":37,"fulfillment":37,"port_name":"Singapore","position":{"lat":1.29027,"lng":103.851959},"status":"surplus"},{"frame_index":870,"name":"ports_18","capacity":10000,"empty":0,"full":287,"shortage":15,"booking":15,"fulfillment":0,"port_name":"Sydney","position":{"lat":-33.865143,"lng":151.2099},"status":"demand"},{"frame_index":870,"name":"ports_19","capacity":10000,"empty":0,"full":175,"shortage":18,"booking":18,"fulfillment":0,"port_name":"Vancouver","position":{"lat":49.246292,"lng":-123.116226},"status":"demand"},{"frame_index":870,"name":"ports_20","capacity":10000,"empty":555,"full":850,"shortage":67,"booking":67,"fulfillment":0,"port_name":"Yantian","position":{"lat":26.8533,"lng":119.8575},"status":"surplus"},{"frame_index":870,"name":"ports_21","capacity":10000,"empty":0,"full":370,"shortage":63,"booking":63,"fulfillment":0,"port_name":"Yokohama","position":{"lat":35.443707,"lng":139.638031},"status":"demand"}]