[{"frame_index":434,"name":"ports_0","capacity":10000,"empty":4311,"full":3797,"shortage":0,"booking":88,"fulfillment":88,"port_name":"Bremerhaven","position":{"lat":53.549999,"lng":8.583333},"status":"surplus"},{"frame_index":434,"name":"ports_1","capacity":10000,"empty":904,"full":19,"shortage":0,"booking":6,"fulfillment":6,"port_name":"Durban","position":{"lat":-29.8579,"lng":31.0292},"status":"surplus"},{"frame_index":434,"name":"ports_2","capacity":10000,"empty":75,"full":573,"shortage":0,"booking":7,"fulfillment":7,"port_name":"Itagual","position":{"lat":-22.85222,"lng":-43.77528},"status":"balance"},{"frame_index":434,"name":"ports_3","capacity":10000,"empty":1688,"full":457,"shortage":0,"booking":36,"fulfillment":36,"port_name":"LeHavre","position":{"lat":49.490002,"lng":0.1},"status":"surplus"},{"frame_index":434,"name":"ports_4","capacity":10000,"empty":1369,"full":470,"shortage":0,"booking":31,"fulfillment":31,"port_name":"Los Angeles","position":{"lat":34.052235,"lng":-118.243683},"status":"surplus"},{"frame_index":434,"name":"ports_5","capacity":10000,"empty":1037,"full":803,"shortage":0,"booking":26,"fulfillment":26,"port_name":"Manzanillo","position":{"lat":19.11695,"lng":-104.34214},"status":"surplus"},{"frame_index":434,"name":"ports_6","capacity":10000,"empty":63,"full":168,"shortage":0,"booking":9,"fulfillment":9,"port_name":"Melbourne","position":{"lat":-37.840935,"lng":144.946457},"status":"balance"},{"frame_index":434,"name":"ports_7","capacity":10000,"empty":1853,"full":121,"shortage":0,"booking":10,"fulfillment":10,"port_name":"Montreal","position":{"lat":45.516136,"lng":-73.65683},"status":"surplus"},{"frame_index":434,"name":"ports_8","capacity":10000,"empty":4491,"full":416,"shortage":0,"booking":19,"fulfillment":19,"port_name":"New York","position":{"lat":40.73061,"lng":-73.935242},"status":"surplus"},{"frame_index":434,"name":"ports_9","capacity":10000,"empty":4053,"full":1384,"shortage":0,"booking":20,"fulfillment":20,"port_name":"Oakland","position":{"lat":37.804363,"lng":-122.271111},"status":"surplus"},{"frame_index":434,"name":"ports_10","capacity":10000,"empty":2565,"full":97,"shortage":0,"booking":8,"fulfillment":8,"port_name":"Prince Rupert","position":{"lat":54.312519,"lng":-130.305405},"status":"surplus"},{"frame_index":434,"name":"ports_11","capacity":10000,"empty":250,"full":368,"shortage":0,"booking":38,"fulfillment":38,"port_name":"Pusan","position":{"lat":35.166668,"lng":129.066666},"status":"surplus"},{"frame_index":434,"name":"ports_12","capacity":10000,"empty":0,"full":1297,"shortage":44,"booking":44,"fulfillment":0,"port_name":"Qingdao","position":{"lat":36.066898,"lng":120.382698},"status":"demand"},{"frame_index":434,"name":"ports_13","capacity":10000,"empty":0,"full":432,"shortage":7,"booking":7,"fulfillment":0,"port_name":"San Antonio","position":{"lat":29.424349,"lng":-98.491142},"status":"balance"},{"frame_index":434,"name":"ports_14","capacity":10000,"empty":231,"full":36,"shortage":0,"booking":7,"fulfillment":7,"port_name":"Santos","position":{"lat":-23.96083,"lng":-46.33361},"status":"surplus"},{"frame_index":434,"name":"ports_15","capacity":10000,"empty":1295,"full":517,"shortage":0,"booking":45,"fulfillment":45,"port_name":"Seattle","position":{"lat":47.608013,"lng":-122.335167},"status":"surplus"},{"frame_index":434,"name":"ports_16","capacity":10000,"empty":1224,"full":624,"shortage":0,"booking":54,"fulfillment":54,"port_name":"Shanghai","position":{"lat":31.224361,"lng":121.46917},"status":"surplus"},{"frame_index":434,"name":"ports_17","capacity":10000,"empty":441,"full":413,"shortage":0,"booking":25,"fulfillment":25,"port_name":"Singapore","position":{"lat":1.29027,"lng":103.851959},"status":"surplus"},{"frame_index":434,"name":"ports_18","capacity":10000,"empty":0,"full":400,"shortage":9,"booking":9,"fulfillment":0,"port_name":"Sydney","position":{"lat":-33.865143,"lng":151.2099},"status":"balance"},{"frame_index":434,"name":"ports_19","capacity":10000,"empty":0,"full":259,"shortage":13,"booking":13,"fulfillment":0,"port_name":"Vancouver","position":{"lat":49.246292,"lng":-123.116226},"status":"demand"},{"frame_index":434,"name":"ports_20","capacity":10000,"empty":0,"full":654,"shortage":48,"booking":48,"fulfillment":0,"port_name":"Yantian","position":{"lat":26.8533,"lng":119.8575},"status":"demand"},{"frame_index":434,"name":"ports_21","capacity":10000,"empty":0,"full":394,"shortage":38,"booking":38,"fulfillment":0,"port_name":"Yokohama","position":{"lat":35.443707,"lng":139.638031},"status":"demand"}]