[{"frame_index":842,"name":"ports_0","capacity":10000,"empty":3997,"full":2189,"shortage":0,"booking":286,"fulfillment":286,"port_name":"Bremerhaven","position":{"lat":53.549999,"lng":8.583333},"status":"surplus"},{"frame_index":842,"name":"ports_1","capacity":10000,"empty":66,"full":247,"shortage":0,"booking":19,"fulfillment":19,"port_name":"Durban","position":{"lat":-29.8579,"lng":31.0292},"status":"balance"},{"frame_index":842,"name":"ports_2","capacity":10000,"empty":264,"full":91,"shortage":0,"booking":18,"fulfillment":18,"port_name":"Itagual","position":{"lat":-22.85222,"lng":-43.77528},"status":"surplus"},{"frame_index":842,"name":"ports_3","capacity":10000,"empty":310,"full":541,"shortage":0,"booking":116,"fulfillment":116,"port_name":"LeHavre","position":{"lat":49.490002,"lng":0.1},"status":"demand"},{"frame_index":842,"name":"ports_4","capacity":10000,"empty":1554,"full":780,"shortage":0,"booking":96,"fulfillment":96,"port_name":"Los Angeles","position":{"lat":34.052235,"lng":-118.243683},"status":"surplus"},{"frame_index":842,"name":"ports_5","capacity":10000,"empty":0,"full":388,"shortage":88,"booking":88,"fulfillment":0,"port_name":"Manzanillo","position":{"lat":19.11695,"lng":-104.34214},"status":"demand"},{"frame_index":842,"name":"ports_6","capacity":10000,"empty":99,"full":27,"shortage":0,"booking":30,"fulfillment":30,"port_name":"Melbourne","position":{"lat":-37.840935,"lng":144.946457},"status":"demand"},{"frame_index":842,"name":"ports_7","capacity":10000,"empty":2057,"full":270,"shortage":0,"booking":29,"fulfillment":29,"port_name":"Montreal","position":{"lat":45.516136,"lng":-73.65683},"status":"surplus"},{"frame_index":842,"name":"ports_8","capacity":10000,"empty":10246,"full":762,"shortage":0,"booking":55,"fulfillment":55,"port_name":"New York","position":{"lat":40.73061,"lng":-73.935242},"status":"surplus"},{"frame_index":842,"name":"ports_9","capacity":10000,"empty":1053,"full":118,"shortage":0,"booking":60,"fulfillment":60,"port_name":"Oakland","position":{"lat":37.804363,"lng":-122.271111},"status":"surplus"},{"frame_index":842,"name":"ports_10","capacity":10000,"empty":2094,"full":665,"shortage":0,"booking":35,"fulfillment":35,"port_name":"Prince Rupert","position":{"lat":54.312519,"lng":-130.305405},"status":"surplus"},{"frame_index":842,"name":"ports_11","capacity":10000,"empty":0,"full":665,"shortage":115,"booking":115,"fulfillment":0,"port_name":"Pusan","position":{"lat":35.166668,"lng":129.066666},"status":"demand"},{"frame_index":842,"name":"ports_12","capacity":10000,"empty":247,"full":2542,"shortage":0,"booking":147,"fulfillment":147,"port_name":"Qingdao","position":{"lat":36.066898,"lng":120.382698},"status":"demand"},{"frame_index":842,"name":"ports_13","capacity":10000,"empty":1067,"full":54,"shortage":0,"booking":20,"fulfillment":20,"port_name":"San Antonio","position":{"lat":29.424349,"lng":-98.491142},"status":"surplus"},{"frame_index":842,"name":"ports_14","capacity":10000,"empty":295,"full":164,"shortage":0,"booking":20,"fulfillment":20,"port_name":"Santos","position":{"lat":-23.96083,"lng":-46.33361},"status":"surplus"},{"frame_index":842,"name":"ports_15","capacity":10000,"empty":0,"full":835,"shortage":132,"booking":132,"fulfillment":0,"port_name":"Seattle","position":{"lat":47.608013,"lng":-122.335167},"status":"demand"},{"frame_index":842,"name":"ports_16","capacity":10000,"empty":826,"full":880,"shortage":0,"booking":228,"fulfillment":228,"port_name":"Shanghai","position":{"lat":31.224361,"lng":121.46917},"status":"demand"},{"frame_index":842,"name":"ports_17","capacity":10000,"empty":772,"full":950,"shortage":0,"booking":78,"fulfillment":78,"port_name":"Singapore","position":{"lat":1.29027,"lng":103.851959},"status":"surplus"},{"frame_index":842,"name":"ports_18","capacity":10000,"empty":0,"full":287,"shortage":33,"booking":33,"fulfillment":0,"port_name":"Sydney","position":{"lat":-33.865143,"lng":151.2099},"status":"demand"},{"frame_index":842,"name":"ports_19","capacity":10000,"empty":0,"full":175,"shortage":36,"booking":36,"fulfillment":0,"port_name":"Vancouver","position":{"lat":49.246292,"lng":-123.116226},"status":"demand"},{"frame_index":842,"name":"ports_20","capacity":10000,"empty":0,"full":830,"shortage":141,"booking":141,"fulfillment":0,"port_name":"Yantian","position":{"lat":26.8533,"lng":119.8575},"status":"demand"},{"frame_index":842,"name":"ports_21","capacity":10000,"empty":0,"full":621,"shortage":143,"booking":143,"fulfillment":0,"port_name":"Yokohama","position":{"lat":35.443707,"lng":139.638031},"status":"demand"}]