[{"frame_index":395,"name":"ports_0","capacity":10000,"empty":5275,"full":1582,"shortage":0,"booking":243,"fulfillment":243,"port_name":"Bremerhaven","position":{"lat":53.549999,"lng":8.583333},"status":"surplus"},{"frame_index":395,"name":"ports_1","capacity":10000,"empty":988,"full":68,"shortage":0,"booking":16,"fulfillment":16,"port_name":"Durban","position":{"lat":-29.8579,"lng":31.0292},"status":"surplus"},{"frame_index":395,"name":"ports_2","capacity":10000,"empty":460,"full":165,"shortage":0,"booking":17,"fulfillment":17,"port_name":"Itagual","position":{"lat":-22.85222,"lng":-43.77528},"status":"surplus"},{"frame_index":395,"name":"ports_3","capacity":10000,"empty":0,"full":1348,"shortage":73,"booking":101,"fulfillment":28,"port_name":"LeHavre","position":{"lat":49.490002,"lng":0.1},"status":"demand"},{"frame_index":395,"name":"ports_4","capacity":10000,"empty":0,"full":719,"shortage":85,"booking":85,"fulfillment":0,"port_name":"Los Angeles","position":{"lat":34.052235,"lng":-118.243683},"status":"demand"},{"frame_index":395,"name":"ports_5","capacity":10000,"empty":1259,"full":127,"shortage":0,"booking":86,"fulfillment":86,"port_name":"Manzanillo","position":{"lat":19.11695,"lng":-104.34214},"status":"surplus"},{"frame_index":395,"name":"ports_6","capacity":10000,"empty":0,"full":183,"shortage":25,"booking":25,"fulfillment":0,"port_name":"Melbourne","position":{"lat":-37.840935,"lng":144.946457},"status":"demand"},{"frame_index":395,"name":"ports_7","capacity":10000,"empty":1334,"full":539,"shortage":0,"booking":26,"fulfillment":26,"port_name":"Montreal","position":{"lat":45.516136,"lng":-73.65683},"status":"surplus"},{"frame_index":395,"name":"ports_8","capacity":10000,"empty":3047,"full":0,"shortage":0,"booking":48,"fulfillment":48,"port_name":"New York","position":{"lat":40.73061,"lng":-73.935242},"status":"surplus"},{"frame_index":395,"name":"ports_9","capacity":10000,"empty":5183,"full":208,"shortage":0,"booking":48,"fulfillment":48,"port_name":"Oakland","position":{"lat":37.804363,"lng":-122.271111},"status":"surplus"},{"frame_index":395,"name":"ports_10","capacity":10000,"empty":2465,"full":706,"shortage":0,"booking":26,"fulfillment":26,"port_name":"Prince Rupert","position":{"lat":54.312519,"lng":-130.305405},"status":"surplus"},{"frame_index":395,"name":"ports_11","capacity":10000,"empty":0,"full":772,"shortage":97,"booking":97,"fulfillment":0,"port_name":"Pusan","position":{"lat":35.166668,"lng":129.066666},"status":"demand"},{"frame_index":395,"name":"ports_12","capacity":10000,"empty":0,"full":1707,"shortage":135,"booking":135,"fulfillment":0,"port_name":"Qingdao","position":{"lat":36.066898,"lng":120.382698},"status":"demand"},{"frame_index":395,"name":"ports_13","capacity":10000,"empty":132,"full":267,"shortage":0,"booking":19,"fulfillment":19,"port_name":"San Antonio","position":{"lat":29.424349,"lng":-98.491142},"status":"balance"},{"frame_index":395,"name":"ports_14","capacity":10000,"empty":747,"full":512,"shortage":0,"booking":20,"fulfillment":20,"port_name":"Santos","position":{"lat":-23.96083,"lng":-46.33361},"status":"surplus"},{"frame_index":395,"name":"ports_15","capacity":10000,"empty":0,"full":870,"shortage":118,"booking":118,"fulfillment":0,"port_name":"Seattle","position":{"lat":47.608013,"lng":-122.335167},"status":"demand"},{"frame_index":395,"name":"ports_16","capacity":10000,"empty":397,"full":2749,"shortage":0,"booking":149,"fulfillment":149,"port_name":"Shanghai","position":{"lat":31.224361,"lng":121.46917},"status":"demand"},{"frame_index":395,"name":"ports_17","capacity":10000,"empty":0,"full":311,"shortage":68,"booking":68,"fulfillment":0,"port_name":"Singapore","position":{"lat":1.29027,"lng":103.851959},"status":"demand"},{"frame_index":395,"name":"ports_18","capacity":10000,"empty":308,"full":15,"shortage":0,"booking":24,"fulfillment":24,"port_name":"Sydney","position":{"lat":-33.865143,"lng":151.2099},"status":"surplus"},{"frame_index":395,"name":"ports_19","capacity":10000,"empty":382,"full":626,"shortage":0,"booking":34,"fulfillment":34,"port_name":"Vancouver","position":{"lat":49.246292,"lng":-123.116226},"status":"surplus"},{"frame_index":395,"name":"ports_20","capacity":10000,"empty":934,"full":458,"shortage":0,"booking":122,"fulfillment":122,"port_name":"Yantian","position":{"lat":26.8533,"lng":119.8575},"status":"surplus"},{"frame_index":395,"name":"ports_21","capacity":10000,"empty":0,"full":640,"shortage":128,"booking":128,"fulfillment":0,"port_name":"Yokohama","position":{"lat":35.443707,"lng":139.638031},"status":"demand"}]