[{"frame_index":535,"name":"ports_0","capacity":10000,"empty":5060,"full":3147,"shortage":0,"booking":109,"fulfillment":109,"port_name":"Bremerhaven","position":{"lat":53.549999,"lng":8.583333},"status":"surplus"},{"frame_index":535,"name":"ports_1","capacity":10000,"empty":257,"full":69,"shortage":0,"booking":8,"fulfillment":8,"port_name":"Durban","position":{"lat":-29.8579,"lng":31.0292},"status":"surplus"},{"frame_index":535,"name":"ports_2","capacity":10000,"empty":120,"full":460,"shortage":0,"booking":8,"fulfillment":8,"port_name":"Itagual","position":{"lat":-22.85222,"lng":-43.77528},"status":"surplus"},{"frame_index":535,"name":"ports_3","capacity":10000,"empty":340,"full":714,"shortage":0,"booking":49,"fulfillment":49,"port_name":"LeHavre","position":{"lat":49.490002,"lng":0.1},"status":"surplus"},{"frame_index":535,"name":"ports_4","capacity":10000,"empty":3532,"full":163,"shortage":0,"booking":40,"fulfillment":40,"port_name":"Los Angeles","position":{"lat":34.052235,"lng":-118.243683},"status":"surplus"},{"frame_index":535,"name":"ports_5","capacity":10000,"empty":0,"full":72,"shortage":27,"booking":38,"fulfillment":11,"port_name":"Manzanillo","position":{"lat":19.11695,"lng":-104.34214},"status":"demand"},{"frame_index":535,"name":"ports_6","capacity":10000,"empty":0,"full":401,"shortage":12,"booking":12,"fulfillment":0,"port_name":"Melbourne","position":{"lat":-37.840935,"lng":144.946457},"status":"demand"},{"frame_index":535,"name":"ports_7","capacity":10000,"empty":2415,"full":137,"shortage":0,"booking":13,"fulfillment":13,"port_name":"Montreal","position":{"lat":45.516136,"lng":-73.65683},"status":"surplus"},{"frame_index":535,"name":"ports_8","capacity":10000,"empty":6733,"full":1238,"shortage":0,"booking":25,"fulfillment":25,"port_name":"New York","position":{"lat":40.73061,"lng":-73.935242},"status":"surplus"},{"frame_index":535,"name":"ports_9","capacity":10000,"empty":3711,"full":1596,"shortage":0,"booking":27,"fulfillment":27,"port_name":"Oakland","position":{"lat":37.804363,"lng":-122.271111},"status":"surplus"},{"frame_index":535,"name":"ports_10","capacity":10000,"empty":1091,"full":369,"shortage":0,"booking":12,"fulfillment":12,"port_name":"Prince Rupert","position":{"lat":54.312519,"lng":-130.305405},"status":"surplus"},{"frame_index":535,"name":"ports_11","capacity":10000,"empty":0,"full":850,"shortage":49,"booking":49,"fulfillment":0,"port_name":"Pusan","position":{"lat":35.166668,"lng":129.066666},"status":"demand"},{"frame_index":535,"name":"ports_12","capacity":10000,"empty":2464,"full":335,"shortage":0,"booking":69,"fulfillment":69,"port_name":"Qingdao","position":{"lat":36.066898,"lng":120.382698},"status":"surplus"},{"frame_index":535,"name":"ports_13","capacity":10000,"empty":34,"full":117,"shortage":0,"booking":9,"fulfillment":9,"port_name":"San Antonio","position":{"lat":29.424349,"lng":-98.491142},"status":"balance"},{"frame_index":535,"name":"ports_14","capacity":10000,"empty":280,"full":306,"shortage":0,"booking":9,"fulfillment":9,"port_name":"Santos","position":{"lat":-23.96083,"lng":-46.33361},"status":"surplus"},{"frame_index":535,"name":"ports_15","capacity":10000,"empty":0,"full":858,"shortage":38,"booking":55,"fulfillment":17,"port_name":"Seattle","position":{"lat":47.608013,"lng":-122.335167},"status":"demand"},{"frame_index":535,"name":"ports_16","capacity":10000,"empty":0,"full":1090,"shortage":78,"booking":83,"fulfillment":5,"port_name":"Shanghai","position":{"lat":31.224361,"lng":121.46917},"status":"demand"},{"frame_index":535,"name":"ports_17","capacity":10000,"empty":259,"full":316,"shortage":0,"booking":32,"fulfillment":32,"port_name":"Singapore","position":{"lat":1.29027,"lng":103.851959},"status":"surplus"},{"frame_index":535,"name":"ports_18","capacity":10000,"empty":42,"full":93,"shortage":0,"booking":14,"fulfillment":14,"port_name":"Sydney","position":{"lat":-33.865143,"lng":151.2099},"status":"balance"},{"frame_index":535,"name":"ports_19","capacity":10000,"empty":9,"full":85,"shortage":0,"booking":15,"fulfillment":15,"port_name":"Vancouver","position":{"lat":49.246292,"lng":-123.116226},"status":"demand"},{"frame_index":535,"name":"ports_20","capacity":10000,"empty":0,"full":1001,"shortage":63,"booking":63,"fulfillment":0,"port_name":"Yantian","position":{"lat":26.8533,"lng":119.8575},"status":"demand"},{"frame_index":535,"name":"ports_21","capacity":10000,"empty":613,"full":714,"shortage":0,"booking":53,"fulfillment":53,"port_name":"Yokohama","position":{"lat":35.443707,"lng":139.638031},"status":"surplus"}]