[{"frame_index":823,"name":"ports_0","capacity":10000,"empty":0,"full":2639,"shortage":200,"booking":200,"fulfillment":0,"port_name":"Bremerhaven","position":{"lat":53.549999,"lng":8.583333},"status":"demand"},{"frame_index":823,"name":"ports_1","capacity":10000,"empty":322,"full":1,"shortage":0,"booking":12,"fulfillment":12,"port_name":"Durban","position":{"lat":-29.8579,"lng":31.0292},"status":"surplus"},{"frame_index":823,"name":"ports_2","capacity":10000,"empty":43,"full":286,"shortage":0,"booking":11,"fulfillment":11,"port_name":"Itagual","position":{"lat":-22.85222,"lng":-43.77528},"status":"balance"},{"frame_index":823,"name":"ports_3","capacity":10000,"empty":321,"full":171,"shortage":0,"booking":64,"fulfillment":64,"port_name":"LeHavre","position":{"lat":49.490002,"lng":0.1},"status":"balance"},{"frame_index":823,"name":"ports_4","capacity":10000,"empty":3,"full":1345,"shortage":0,"booking":53,"fulfillment":53,"port_name":"Los Angeles","position":{"lat":34.052235,"lng":-118.243683},"status":"demand"},{"frame_index":823,"name":"ports_5","capacity":10000,"empty":150,"full":493,"shortage":0,"booking":57,"fulfillment":57,"port_name":"Manzanillo","position":{"lat":19.11695,"lng":-104.34214},"status":"demand"},{"frame_index":823,"name":"ports_6","capacity":10000,"empty":0,"full":312,"shortage":16,"booking":16,"fulfillment":0,"port_name":"Melbourne","position":{"lat":-37.840935,"lng":144.946457},"status":"demand"},{"frame_index":823,"name":"ports_7","capacity":10000,"empty":2256,"full":375,"shortage":0,"booking":16,"fulfillment":16,"port_name":"Montreal","position":{"lat":45.516136,"lng":-73.65683},"status":"surplus"},{"frame_index":823,"name":"ports_8","capacity":10000,"empty":10560,"full":0,"shortage":0,"booking":31,"fulfillment":31,"port_name":"New York","position":{"lat":40.73061,"lng":-73.935242},"status":"surplus"},{"frame_index":823,"name":"ports_9","capacity":10000,"empty":456,"full":519,"shortage":0,"booking":32,"fulfillment":32,"port_name":"Oakland","position":{"lat":37.804363,"lng":-122.271111},"status":"surplus"},{"frame_index":823,"name":"ports_10","capacity":10000,"empty":2482,"full":311,"shortage":0,"booking":17,"fulfillment":17,"port_name":"Prince Rupert","position":{"lat":54.312519,"lng":-130.305405},"status":"surplus"},{"frame_index":823,"name":"ports_11","capacity":10000,"empty":0,"full":609,"shortage":66,"booking":66,"fulfillment":0,"port_name":"Pusan","position":{"lat":35.166668,"lng":129.066666},"status":"demand"},{"frame_index":823,"name":"ports_12","capacity":10000,"empty":2182,"full":1147,"shortage":0,"booking":93,"fulfillment":93,"port_name":"Qingdao","position":{"lat":36.066898,"lng":120.382698},"status":"surplus"},{"frame_index":823,"name":"ports_13","capacity":10000,"empty":1158,"full":7,"shortage":0,"booking":12,"fulfillment":12,"port_name":"San Antonio","position":{"lat":29.424349,"lng":-98.491142},"status":"surplus"},{"frame_index":823,"name":"ports_14","capacity":10000,"empty":310,"full":273,"shortage":0,"booking":11,"fulfillment":11,"port_name":"Santos","position":{"lat":-23.96083,"lng":-46.33361},"status":"surplus"},{"frame_index":823,"name":"ports_15","capacity":10000,"empty":0,"full":835,"shortage":75,"booking":75,"fulfillment":0,"port_name":"Seattle","position":{"lat":47.608013,"lng":-122.335167},"status":"demand"},{"frame_index":823,"name":"ports_16","capacity":10000,"empty":773,"full":901,"shortage":122,"booking":122,"fulfillment":0,"port_name":"Shanghai","position":{"lat":31.224361,"lng":121.46917},"status":"surplus"},{"frame_index":823,"name":"ports_17","capacity":10000,"empty":1099,"full":446,"shortage":0,"booking":44,"fulfillment":44,"port_name":"Singapore","position":{"lat":1.29027,"lng":103.851959},"status":"surplus"},{"frame_index":823,"name":"ports_18","capacity":10000,"empty":126,"full":135,"shortage":0,"booking":17,"fulfillment":17,"port_name":"Sydney","position":{"lat":-33.865143,"lng":151.2099},"status":"balance"},{"frame_index":823,"name":"ports_19","capacity":10000,"empty":0,"full":222,"shortage":22,"booking":22,"fulfillment":0,"port_name":"Vancouver","position":{"lat":49.246292,"lng":-123.116226},"status":"demand"},{"frame_index":823,"name":"ports_20","capacity":10000,"empty":11,"full":503,"shortage":0,"booking":83,"fulfillment":83,"port_name":"Yantian","position":{"lat":26.8533,"lng":119.8575},"status":"demand"},{"frame_index":823,"name":"ports_21","capacity":10000,"empty":243,"full":416,"shortage":0,"booking":76,"fulfillment":76,"port_name":"Yokohama","position":{"lat":35.443707,"lng":139.638031},"status":"demand"}]