[{"frame_index":850,"name":"ports_0","capacity":10000,"empty":4855,"full":474,"shortage":0,"booking":137,"fulfillment":137,"port_name":"Bremerhaven","position":{"lat":53.549999,"lng":8.583333},"status":"surplus"},{"frame_index":850,"name":"ports_1","capacity":10000,"empty":266,"full":42,"shortage":0,"booking":9,"fulfillment":9,"port_name":"Durban","position":{"lat":-29.8579,"lng":31.0292},"status":"surplus"},{"frame_index":850,"name":"ports_2","capacity":10000,"empty":414,"full":67,"shortage":0,"booking":8,"fulfillment":8,"port_name":"Itagual","position":{"lat":-22.85222,"lng":-43.77528},"status":"surplus"},{"frame_index":850,"name":"ports_3","capacity":10000,"empty":261,"full":768,"shortage":0,"booking":51,"fulfillment":51,"port_name":"LeHavre","position":{"lat":49.490002,"lng":0.1},"status":"balance"},{"frame_index":850,"name":"ports_4","capacity":10000,"empty":1162,"full":1221,"shortage":0,"booking":42,"fulfillment":42,"port_name":"Los Angeles","position":{"lat":34.052235,"lng":-118.243683},"status":"surplus"},{"frame_index":850,"name":"ports_5","capacity":10000,"empty":0,"full":454,"shortage":46,"booking":46,"fulfillment":0,"port_name":"Manzanillo","position":{"lat":19.11695,"lng":-104.34214},"status":"demand"},{"frame_index":850,"name":"ports_6","capacity":10000,"empty":0,"full":85,"shortage":13,"booking":13,"fulfillment":0,"port_name":"Melbourne","position":{"lat":-37.840935,"lng":144.946457},"status":"demand"},{"frame_index":850,"name":"ports_7","capacity":10000,"empty":2019,"full":39,"shortage":0,"booking":13,"fulfillment":13,"port_name":"Montreal","position":{"lat":45.516136,"lng":-73.65683},"status":"surplus"},{"frame_index":850,"name":"ports_8","capacity":10000,"empty":10013,"full":0,"shortage":0,"booking":24,"fulfillment":24,"port_name":"New York","position":{"lat":40.73061,"lng":-73.935242},"status":"surplus"},{"frame_index":850,"name":"ports_9","capacity":10000,"empty":800,"full":438,"shortage":0,"booking":24,"fulfillment":24,"port_name":"Oakland","position":{"lat":37.804363,"lng":-122.271111},"status":"surplus"},{"frame_index":850,"name":"ports_10","capacity":10000,"empty":3195,"full":38,"shortage":0,"booking":14,"fulfillment":14,"port_name":"Prince Rupert","position":{"lat":54.312519,"lng":-130.305405},"status":"surplus"},{"frame_index":850,"name":"ports_11","capacity":10000,"empty":0,"full":642,"shortage":29,"booking":51,"fulfillment":22,"port_name":"Pusan","position":{"lat":35.166668,"lng":129.066666},"status":"demand"},{"frame_index":850,"name":"ports_12","capacity":10000,"empty":0,"full":2019,"shortage":76,"booking":76,"fulfillment":0,"port_name":"Qingdao","position":{"lat":36.066898,"lng":120.382698},"status":"demand"},{"frame_index":850,"name":"ports_13","capacity":10000,"empty":1356,"full":34,"shortage":0,"booking":10,"fulfillment":10,"port_name":"San Antonio","position":{"lat":29.424349,"lng":-98.491142},"status":"surplus"},{"frame_index":850,"name":"ports_14","capacity":10000,"empty":216,"full":248,"shortage":0,"booking":9,"fulfillment":9,"port_name":"Santos","position":{"lat":-23.96083,"lng":-46.33361},"status":"surplus"},{"frame_index":850,"name":"ports_15","capacity":10000,"empty":452,"full":553,"shortage":0,"booking":62,"fulfillment":62,"port_name":"Seattle","position":{"lat":47.608013,"lng":-122.335167},"status":"surplus"},{"frame_index":850,"name":"ports_16","capacity":10000,"empty":1244,"full":1659,"shortage":0,"booking":84,"fulfillment":84,"port_name":"Shanghai","position":{"lat":31.224361,"lng":121.46917},"status":"surplus"},{"frame_index":850,"name":"ports_17","capacity":10000,"empty":406,"full":596,"shortage":0,"booking":34,"fulfillment":34,"port_name":"Singapore","position":{"lat":1.29027,"lng":103.851959},"status":"surplus"},{"frame_index":850,"name":"ports_18","capacity":10000,"empty":0,"full":287,"shortage":12,"booking":12,"fulfillment":0,"port_name":"Sydney","position":{"lat":-33.865143,"lng":151.2099},"status":"demand"},{"frame_index":850,"name":"ports_19","capacity":10000,"empty":0,"full":175,"shortage":18,"booking":18,"fulfillment":0,"port_name":"Vancouver","position":{"lat":49.246292,"lng":-123.116226},"status":"demand"},{"frame_index":850,"name":"ports_20","capacity":10000,"empty":26,"full":528,"shortage":0,"booking":53,"fulfillment":53,"port_name":"Yantian","position":{"lat":26.8533,"lng":119.8575},"status":"demand"},{"frame_index":850,"name":"ports_21","capacity":10000,"empty":1,"full":418,"shortage":0,"booking":58,"fulfillment":58,"port_name":"Yokohama","position":{"lat":35.443707,"lng":139.638031},"status":"demand"}]