[{"frame_index":1023,"name":"ports_0","capacity":10000,"empty":5662,"full":90,"shortage":0,"booking":96,"fulfillment":96,"port_name":"Bremerhaven","position":{"lat":53.549999,"lng":8.583333},"status":"surplus"},{"frame_index":1023,"name":"ports_1","capacity":10000,"empty":68,"full":157,"shortage":0,"booking":8,"fulfillment":8,"port_name":"Durban","position":{"lat":-29.8579,"lng":31.0292},"status":"balance"},{"frame_index":1023,"name":"ports_2","capacity":10000,"empty":0,"full":362,"shortage":8,"booking":8,"fulfillment":0,"port_name":"Itagual","position":{"lat":-22.85222,"lng":-43.77528},"status":"balance"},{"frame_index":1023,"name":"ports_3","capacity":10000,"empty":742,"full":192,"shortage":0,"booking":41,"fulfillment":41,"port_name":"LeHavre","position":{"lat":49.490002,"lng":0.1},"status":"surplus"},{"frame_index":1023,"name":"ports_4","capacity":10000,"empty":348,"full":125,"shortage":0,"booking":34,"fulfillment":34,"port_name":"Los Angeles","position":{"lat":34.052235,"lng":-118.243683},"status":"surplus"},{"frame_index":1023,"name":"ports_5","capacity":10000,"empty":1641,"full":60,"shortage":0,"booking":31,"fulfillment":31,"port_name":"Manzanillo","position":{"lat":19.11695,"lng":-104.34214},"status":"surplus"},{"frame_index":1023,"name":"ports_6","capacity":10000,"empty":63,"full":96,"shortage":0,"booking":10,"fulfillment":10,"port_name":"Melbourne","position":{"lat":-37.840935,"lng":144.946457},"status":"balance"},{"frame_index":1023,"name":"ports_7","capacity":10000,"empty":1964,"full":127,"shortage":0,"booking":10,"fulfillment":10,"port_name":"Montreal","position":{"lat":45.516136,"lng":-73.65683},"status":"surplus"},{"frame_index":1023,"name":"ports_8","capacity":10000,"empty":18227,"full":199,"shortage":0,"booking":20,"fulfillment":20,"port_name":"New York","position":{"lat":40.73061,"lng":-73.935242},"status":"surplus"},{"frame_index":1023,"name":"ports_9","capacity":10000,"empty":2190,"full":25,"shortage":0,"booking":18,"fulfillment":18,"port_name":"Oakland","position":{"lat":37.804363,"lng":-122.271111},"status":"surplus"},{"frame_index":1023,"name":"ports_10","capacity":10000,"empty":1536,"full":33,"shortage":0,"booking":10,"fulfillment":10,"port_name":"Prince Rupert","position":{"lat":54.312519,"lng":-130.305405},"status":"surplus"},{"frame_index":1023,"name":"ports_11","capacity":10000,"empty":1607,"full":591,"shortage":0,"booking":42,"fulfillment":42,"port_name":"Pusan","position":{"lat":35.166668,"lng":129.066666},"status":"surplus"},{"frame_index":1023,"name":"ports_12","capacity":10000,"empty":1636,"full":1114,"shortage":0,"booking":50,"fulfillment":50,"port_name":"Qingdao","position":{"lat":36.066898,"lng":120.382698},"status":"surplus"},{"frame_index":1023,"name":"ports_13","capacity":10000,"empty":73,"full":71,"shortage":0,"booking":7,"fulfillment":7,"port_name":"San Antonio","position":{"lat":29.424349,"lng":-98.491142},"status":"balance"},{"frame_index":1023,"name":"ports_14","capacity":10000,"empty":171,"full":196,"shortage":0,"booking":7,"fulfillment":7,"port_name":"Santos","position":{"lat":-23.96083,"lng":-46.33361},"status":"surplus"},{"frame_index":1023,"name":"ports_15","capacity":10000,"empty":708,"full":828,"shortage":0,"booking":45,"fulfillment":45,"port_name":"Seattle","position":{"lat":47.608013,"lng":-122.335167},"status":"surplus"},{"frame_index":1023,"name":"ports_16","capacity":10000,"empty":0,"full":893,"shortage":48,"booking":64,"fulfillment":16,"port_name":"Shanghai","position":{"lat":31.224361,"lng":121.46917},"status":"demand"},{"frame_index":1023,"name":"ports_17","capacity":10000,"empty":301,"full":474,"shortage":0,"booking":26,"fulfillment":26,"port_name":"Singapore","position":{"lat":1.29027,"lng":103.851959},"status":"surplus"},{"frame_index":1023,"name":"ports_18","capacity":10000,"empty":253,"full":7,"shortage":0,"booking":11,"fulfillment":11,"port_name":"Sydney","position":{"lat":-33.865143,"lng":151.2099},"status":"surplus"},{"frame_index":1023,"name":"ports_19","capacity":10000,"empty":377,"full":0,"shortage":0,"booking":14,"fulfillment":14,"port_name":"Vancouver","position":{"lat":49.246292,"lng":-123.116226},"status":"surplus"},{"frame_index":1023,"name":"ports_20","capacity":10000,"empty":191,"full":494,"shortage":0,"booking":42,"fulfillment":42,"port_name":"Yantian","position":{"lat":26.8533,"lng":119.8575},"status":"balance"},{"frame_index":1023,"name":"ports_21","capacity":10000,"empty":204,"full":121,"shortage":0,"booking":42,"fulfillment":42,"port_name":"Yokohama","position":{"lat":35.443707,"lng":139.638031},"status":"balance"}]