[{"frame_index":954,"name":"ports_0","capacity":10000,"empty":0,"full":811,"shortage":325,"booking":325,"fulfillment":0,"port_name":"Bremerhaven","position":{"lat":53.549999,"lng":8.583333},"status":"demand"},{"frame_index":954,"name":"ports_1","capacity":10000,"empty":217,"full":0,"shortage":0,"booking":17,"fulfillment":17,"port_name":"Durban","position":{"lat":-29.8579,"lng":31.0292},"status":"surplus"},{"frame_index":954,"name":"ports_2","capacity":10000,"empty":246,"full":307,"shortage":0,"booking":17,"fulfillment":17,"port_name":"Itagual","position":{"lat":-22.85222,"lng":-43.77528},"status":"surplus"},{"frame_index":954,"name":"ports_3","capacity":10000,"empty":2069,"full":1018,"shortage":0,"booking":108,"fulfillment":108,"port_name":"LeHavre","position":{"lat":49.490002,"lng":0.1},"status":"surplus"},{"frame_index":954,"name":"ports_4","capacity":10000,"empty":355,"full":1717,"shortage":0,"booking":91,"fulfillment":91,"port_name":"Los Angeles","position":{"lat":34.052235,"lng":-118.243683},"status":"demand"},{"frame_index":954,"name":"ports_5","capacity":10000,"empty":0,"full":282,"shortage":96,"booking":96,"fulfillment":0,"port_name":"Manzanillo","position":{"lat":19.11695,"lng":-104.34214},"status":"demand"},{"frame_index":954,"name":"ports_6","capacity":10000,"empty":0,"full":299,"shortage":28,"booking":28,"fulfillment":0,"port_name":"Melbourne","position":{"lat":-37.840935,"lng":144.946457},"status":"demand"},{"frame_index":954,"name":"ports_7","capacity":10000,"empty":2243,"full":157,"shortage":0,"booking":28,"fulfillment":28,"port_name":"Montreal","position":{"lat":45.516136,"lng":-73.65683},"status":"surplus"},{"frame_index":954,"name":"ports_8","capacity":10000,"empty":16584,"full":599,"shortage":0,"booking":55,"fulfillment":55,"port_name":"New York","position":{"lat":40.73061,"lng":-73.935242},"status":"surplus"},{"frame_index":954,"name":"ports_9","capacity":10000,"empty":1981,"full":817,"shortage":0,"booking":59,"fulfillment":59,"port_name":"Oakland","position":{"lat":37.804363,"lng":-122.271111},"status":"surplus"},{"frame_index":954,"name":"ports_10","capacity":10000,"empty":1028,"full":0,"shortage":0,"booking":23,"fulfillment":23,"port_name":"Prince Rupert","position":{"lat":54.312519,"lng":-130.305405},"status":"surplus"},{"frame_index":954,"name":"ports_11","capacity":10000,"empty":1080,"full":674,"shortage":0,"booking":109,"fulfillment":109,"port_name":"Pusan","position":{"lat":35.166668,"lng":129.066666},"status":"surplus"},{"frame_index":954,"name":"ports_12","capacity":10000,"empty":0,"full":825,"shortage":162,"booking":162,"fulfillment":0,"port_name":"Qingdao","position":{"lat":36.066898,"lng":120.382698},"status":"demand"},{"frame_index":954,"name":"ports_13","capacity":10000,"empty":991,"full":265,"shortage":0,"booking":19,"fulfillment":19,"port_name":"San Antonio","position":{"lat":29.424349,"lng":-98.491142},"status":"surplus"},{"frame_index":954,"name":"ports_14","capacity":10000,"empty":707,"full":16,"shortage":0,"booking":18,"fulfillment":18,"port_name":"Santos","position":{"lat":-23.96083,"lng":-46.33361},"status":"surplus"},{"frame_index":954,"name":"ports_15","capacity":10000,"empty":0,"full":792,"shortage":122,"booking":122,"fulfillment":0,"port_name":"Seattle","position":{"lat":47.608013,"lng":-122.335167},"status":"demand"},{"frame_index":954,"name":"ports_16","capacity":10000,"empty":0,"full":331,"shortage":187,"booking":187,"fulfillment":0,"port_name":"Shanghai","position":{"lat":31.224361,"lng":121.46917},"status":"demand"},{"frame_index":954,"name":"ports_17","capacity":10000,"empty":418,"full":575,"shortage":0,"booking":72,"fulfillment":72,"port_name":"Singapore","position":{"lat":1.29027,"lng":103.851959},"status":"surplus"},{"frame_index":954,"name":"ports_18","capacity":10000,"empty":77,"full":28,"shortage":0,"booking":24,"fulfillment":24,"port_name":"Sydney","position":{"lat":-33.865143,"lng":151.2099},"status":"balance"},{"frame_index":954,"name":"ports_19","capacity":10000,"empty":0,"full":411,"shortage":38,"booking":38,"fulfillment":0,"port_name":"Vancouver","position":{"lat":49.246292,"lng":-123.116226},"status":"demand"},{"frame_index":954,"name":"ports_20","capacity":10000,"empty":897,"full":677,"shortage":0,"booking":118,"fulfillment":118,"port_name":"Yantian","position":{"lat":26.8533,"lng":119.8575},"status":"surplus"},{"frame_index":954,"name":"ports_21","capacity":10000,"empty":394,"full":418,"shortage":0,"booking":134,"fulfillment":134,"port_name":"Yokohama","position":{"lat":35.443707,"lng":139.638031},"status":"demand"}]