[{"frame_index":815,"name":"ports_0","capacity":10000,"empty":67,"full":2251,"shortage":0,"booking":161,"fulfillment":161,"port_name":"Bremerhaven","position":{"lat":53.549999,"lng":8.583333},"status":"demand"},{"frame_index":815,"name":"ports_1","capacity":10000,"empty":40,"full":148,"shortage":0,"booking":14,"fulfillment":14,"port_name":"Durban","position":{"lat":-29.8579,"lng":31.0292},"status":"balance"},{"frame_index":815,"name":"ports_2","capacity":10000,"empty":111,"full":219,"shortage":0,"booking":14,"fulfillment":14,"port_name":"Itagual","position":{"lat":-22.85222,"lng":-43.77528},"status":"balance"},{"frame_index":815,"name":"ports_3","capacity":10000,"empty":1277,"full":510,"shortage":0,"booking":74,"fulfillment":74,"port_name":"LeHavre","position":{"lat":49.490002,"lng":0.1},"status":"surplus"},{"frame_index":815,"name":"ports_4","capacity":10000,"empty":324,"full":995,"shortage":0,"booking":60,"fulfillment":60,"port_name":"Los Angeles","position":{"lat":34.052235,"lng":-118.243683},"status":"balance"},{"frame_index":815,"name":"ports_5","capacity":10000,"empty":463,"full":177,"shortage":0,"booking":64,"fulfillment":64,"port_name":"Manzanillo","position":{"lat":19.11695,"lng":-104.34214},"status":"surplus"},{"frame_index":815,"name":"ports_6","capacity":10000,"empty":0,"full":312,"shortage":18,"booking":18,"fulfillment":0,"port_name":"Melbourne","position":{"lat":-37.840935,"lng":144.946457},"status":"demand"},{"frame_index":815,"name":"ports_7","capacity":10000,"empty":2355,"full":263,"shortage":0,"booking":19,"fulfillment":19,"port_name":"Montreal","position":{"lat":45.516136,"lng":-73.65683},"status":"surplus"},{"frame_index":815,"name":"ports_8","capacity":10000,"empty":12210,"full":439,"shortage":0,"booking":36,"fulfillment":36,"port_name":"New York","position":{"lat":40.73061,"lng":-73.935242},"status":"surplus"},{"frame_index":815,"name":"ports_9","capacity":10000,"empty":657,"full":320,"shortage":0,"booking":36,"fulfillment":36,"port_name":"Oakland","position":{"lat":37.804363,"lng":-122.271111},"status":"surplus"},{"frame_index":815,"name":"ports_10","capacity":10000,"empty":2587,"full":204,"shortage":0,"booking":21,"fulfillment":21,"port_name":"Prince Rupert","position":{"lat":54.312519,"lng":-130.305405},"status":"surplus"},{"frame_index":815,"name":"ports_11","capacity":10000,"empty":0,"full":609,"shortage":71,"booking":71,"fulfillment":0,"port_name":"Pusan","position":{"lat":35.166668,"lng":129.066666},"status":"demand"},{"frame_index":815,"name":"ports_12","capacity":10000,"empty":2172,"full":800,"shortage":0,"booking":105,"fulfillment":105,"port_name":"Qingdao","position":{"lat":36.066898,"lng":120.382698},"status":"surplus"},{"frame_index":815,"name":"ports_13","capacity":10000,"empty":1371,"full":156,"shortage":0,"booking":12,"fulfillment":12,"port_name":"San Antonio","position":{"lat":29.424349,"lng":-98.491142},"status":"surplus"},{"frame_index":815,"name":"ports_14","capacity":10000,"empty":381,"full":196,"shortage":0,"booking":14,"fulfillment":14,"port_name":"Santos","position":{"lat":-23.96083,"lng":-46.33361},"status":"surplus"},{"frame_index":815,"name":"ports_15","capacity":10000,"empty":91,"full":556,"shortage":0,"booking":82,"fulfillment":82,"port_name":"Seattle","position":{"lat":47.608013,"lng":-122.335167},"status":"demand"},{"frame_index":815,"name":"ports_16","capacity":10000,"empty":192,"full":1080,"shortage":0,"booking":139,"fulfillment":139,"port_name":"Shanghai","position":{"lat":31.224361,"lng":121.46917},"status":"demand"},{"frame_index":815,"name":"ports_17","capacity":10000,"empty":1538,"full":355,"shortage":0,"booking":50,"fulfillment":50,"port_name":"Singapore","position":{"lat":1.29027,"lng":103.851959},"status":"surplus"},{"frame_index":815,"name":"ports_18","capacity":10000,"empty":204,"full":43,"shortage":0,"booking":17,"fulfillment":17,"port_name":"Sydney","position":{"lat":-33.865143,"lng":151.2099},"status":"surplus"},{"frame_index":815,"name":"ports_19","capacity":10000,"empty":58,"full":133,"shortage":0,"booking":23,"fulfillment":23,"port_name":"Vancouver","position":{"lat":49.246292,"lng":-123.116226},"status":"demand"},{"frame_index":815,"name":"ports_20","capacity":10000,"empty":483,"full":645,"shortage":0,"booking":89,"fulfillment":89,"port_name":"Yantian","position":{"lat":26.8533,"lng":119.8575},"status":"balance"},{"frame_index":815,"name":"ports_21","capacity":10000,"empty":650,"full":15,"shortage":0,"booking":83,"fulfillment":83,"port_name":"Yokohama","position":{"lat":35.443707,"lng":139.638031},"status":"surplus"}]