[{"frame_index":693,"name":"ports_0","capacity":10000,"empty":1970,"full":675,"shortage":0,"booking":66,"fulfillment":66,"port_name":"Bremerhaven","position":{"lat":53.549999,"lng":8.583333},"status":"surplus"},{"frame_index":693,"name":"ports_1","capacity":10000,"empty":284,"full":53,"shortage":0,"booking":4,"fulfillment":4,"port_name":"Durban","position":{"lat":-29.8579,"lng":31.0292},"status":"surplus"},{"frame_index":693,"name":"ports_2","capacity":10000,"empty":563,"full":198,"shortage":0,"booking":4,"fulfillment":4,"port_name":"Itagual","position":{"lat":-22.85222,"lng":-43.77528},"status":"surplus"},{"frame_index":693,"name":"ports_3","capacity":10000,"empty":0,"full":598,"shortage":23,"booking":23,"fulfillment":0,"port_name":"LeHavre","position":{"lat":49.490002,"lng":0.1},"status":"demand"},{"frame_index":693,"name":"ports_4","capacity":10000,"empty":1005,"full":404,"shortage":0,"booking":19,"fulfillment":19,"port_name":"Los Angeles","position":{"lat":34.052235,"lng":-118.243683},"status":"surplus"},{"frame_index":693,"name":"ports_5","capacity":10000,"empty":1012,"full":211,"shortage":0,"booking":17,"fulfillment":17,"port_name":"Manzanillo","position":{"lat":19.11695,"lng":-104.34214},"status":"surplus"},{"frame_index":693,"name":"ports_6","capacity":10000,"empty":0,"full":114,"shortage":6,"booking":6,"fulfillment":0,"port_name":"Melbourne","position":{"lat":-37.840935,"lng":144.946457},"status":"balance"},{"frame_index":693,"name":"ports_7","capacity":10000,"empty":2083,"full":130,"shortage":0,"booking":6,"fulfillment":6,"port_name":"Montreal","position":{"lat":45.516136,"lng":-73.65683},"status":"surplus"},{"frame_index":693,"name":"ports_8","capacity":10000,"empty":12381,"full":342,"shortage":0,"booking":12,"fulfillment":12,"port_name":"New York","position":{"lat":40.73061,"lng":-73.935242},"status":"surplus"},{"frame_index":693,"name":"ports_9","capacity":10000,"empty":838,"full":563,"shortage":0,"booking":13,"fulfillment":13,"port_name":"Oakland","position":{"lat":37.804363,"lng":-122.271111},"status":"surplus"},{"frame_index":693,"name":"ports_10","capacity":10000,"empty":2377,"full":122,"shortage":0,"booking":6,"fulfillment":6,"port_name":"Prince Rupert","position":{"lat":54.312519,"lng":-130.305405},"status":"surplus"},{"frame_index":693,"name":"ports_11","capacity":10000,"empty":55,"full":1138,"shortage":0,"booking":22,"fulfillment":22,"port_name":"Pusan","position":{"lat":35.166668,"lng":129.066666},"status":"demand"},{"frame_index":693,"name":"ports_12","capacity":10000,"empty":1366,"full":1426,"shortage":0,"booking":30,"fulfillment":30,"port_name":"Qingdao","position":{"lat":36.066898,"lng":120.382698},"status":"surplus"},{"frame_index":693,"name":"ports_13","capacity":10000,"empty":6619,"full":78,"shortage":0,"booking":4,"fulfillment":4,"port_name":"San Antonio","position":{"lat":29.424349,"lng":-98.491142},"status":"surplus"},{"frame_index":693,"name":"ports_14","capacity":10000,"empty":477,"full":92,"shortage":0,"booking":4,"fulfillment":4,"port_name":"Santos","position":{"lat":-23.96083,"lng":-46.33361},"status":"surplus"},{"frame_index":693,"name":"ports_15","capacity":10000,"empty":1028,"full":249,"shortage":0,"booking":27,"fulfillment":27,"port_name":"Seattle","position":{"lat":47.608013,"lng":-122.335167},"status":"surplus"},{"frame_index":693,"name":"ports_16","capacity":10000,"empty":1882,"full":940,"shortage":0,"booking":32,"fulfillment":32,"port_name":"Shanghai","position":{"lat":31.224361,"lng":121.46917},"status":"surplus"},{"frame_index":693,"name":"ports_17","capacity":10000,"empty":2104,"full":156,"shortage":0,"booking":15,"fulfillment":15,"port_name":"Singapore","position":{"lat":1.29027,"lng":103.851959},"status":"surplus"},{"frame_index":693,"name":"ports_18","capacity":10000,"empty":94,"full":144,"shortage":0,"booking":6,"fulfillment":6,"port_name":"Sydney","position":{"lat":-33.865143,"lng":151.2099},"status":"surplus"},{"frame_index":693,"name":"ports_19","capacity":10000,"empty":66,"full":107,"shortage":0,"booking":9,"fulfillment":9,"port_name":"Vancouver","position":{"lat":49.246292,"lng":-123.116226},"status":"balance"},{"frame_index":693,"name":"ports_20","capacity":10000,"empty":0,"full":611,"shortage":28,"booking":28,"fulfillment":0,"port_name":"Yantian","position":{"lat":26.8533,"lng":119.8575},"status":"demand"},{"frame_index":693,"name":"ports_21","capacity":10000,"empty":0,"full":280,"shortage":19,"booking":19,"fulfillment":0,"port_name":"Yokohama","position":{"lat":35.443707,"lng":139.638031},"status":"demand"}]