[{"frame_index":430,"name":"ports_0","capacity":10000,"empty":1610,"full":3417,"on_shipper":163,"on_consignee":0,"shortage":0,"acc_shortage":522,"booking":98,"acc_booking":55787,"fulfillment":98,"acc_fulfillment":55265,"transfer_cost":0.0,"port_name":"Bremerhaven","position":{"lat":53.549999,"lng":8.583333},"status":"surplus"},{"frame_index":430,"name":"ports_1","capacity":10000,"empty":40,"full":448,"on_shipper":6,"on_consignee":0,"shortage":0,"acc_shortage":0,"booking":6,"acc_booking":3736,"fulfillment":6,"acc_fulfillment":3736,"transfer_cost":0.0,"port_name":"Durban","position":{"lat":-29.8579,"lng":31.0292},"status":"balance"},{"frame_index":430,"name":"ports_2","capacity":10000,"empty":432,"full":536,"on_shipper":8,"on_consignee":0,"shortage":0,"acc_shortage":233,"booking":7,"acc_booking":3708,"fulfillment":7,"acc_fulfillment":3475,"transfer_cost":0.0,"port_name":"Itagual","position":{"lat":-22.85222,"lng":-43.77528},"status":"surplus"},{"frame_index":430,"name":"ports_3","capacity":10000,"empty":1319,"full":336,"on_shipper":60,"on_consignee":0,"shortage":0,"acc_shortage":0,"booking":37,"acc_booking":21210,"fulfillment":37,"acc_fulfillment":21210,"transfer_cost":0.0,"port_name":"LeHavre","position":{"lat":49.490002,"lng":0.1},"status":"surplus"},{"frame_index":430,"name":"ports_4","capacity":10000,"empty":2052,"full":1397,"on_shipper":45,"on_consignee":0,"shortage":0,"acc_shortage":0,"booking":31,"acc_booking":17724,"fulfillment":31,"acc_fulfillment":17724,"transfer_cost":0.0,"port_name":"Los Angeles","position":{"lat":34.052235,"lng":-118.243683},"status":"surplus"},{"frame_index":430,"name":"ports_5","capacity":10000,"empty":1271,"full":673,"on_shipper":36,"on_consignee":0,"shortage":0,"acc_shortage":123,"booking":27,"acc_booking":17797,"fulfillment":27,"acc_fulfillment":17674,"transfer_cost":0.0,"port_name":"Manzanillo","position":{"lat":19.11695,"lng":-104.34214},"status":"surplus"},{"frame_index":430,"name":"ports_6","capacity":10000,"empty":375,"full":135,"on_shipper":13,"on_consignee":0,"shortage":0,"acc_shortage":819,"booking":9,"acc_booking":5456,"fulfillment":9,"acc_fulfillment":4637,"transfer_cost":0.0,"port_name":"Melbourne","position":{"lat":-37.840935,"lng":144.946457},"status":"surplus"},{"frame_index":430,"name":"ports_7","capacity":10000,"empty":1764,"full":76,"on_shipper":14,"on_consignee":0,"shortage":0,"acc_shortage":0,"booking":9,"acc_booking":5459,"fulfillment":9,"acc_fulfillment":5459,"transfer_cost":0.0,"port_name":"Montreal","position":{"lat":45.516136,"lng":-73.65683},"status":"surplus"},{"frame_index":430,"name":"ports_8","capacity":10000,"empty":1673,"full":354,"on_shipper":19,"on_consignee":0,"shortage":0,"acc_shortage":0,"booking":19,"acc_booking":10658,"fulfillment":19,"acc_fulfillment":10658,"transfer_cost":0.0,"port_name":"New York","position":{"lat":40.73061,"lng":-73.935242},"status":"surplus"},{"frame_index":430,"name":"ports_9","capacity":10000,"empty":369,"full":1299,"on_shipper":29,"on_consignee":0,"shortage":0,"acc_shortage":0,"booking":17,"acc_booking":10657,"fulfillment":17,"acc_fulfillment":10657,"transfer_cost":0.0,"port_name":"Oakland","position":{"lat":37.804363,"lng":-122.271111},"status":"surplus"},{"frame_index":430,"name":"ports_10","capacity":10000,"empty":1405,"full":62,"on_shipper":18,"on_consignee":0,"shortage":0,"acc_shortage":0,"booking":9,"acc_booking":5456,"fulfillment":9,"acc_fulfillment":5456,"transfer_cost":0.0,"port_name":"Prince Rupert","position":{"lat":54.312519,"lng":-130.305405},"status":"surplus"},{"frame_index":430,"name":"ports_11","capacity":10000,"empty":937,"full":869,"on_shipper":52,"on_consignee":0,"shortage":0,"acc_shortage":204,"booking":36,"acc_booking":21141,"fulfillment":36,"acc_fulfillment":20937,"transfer_cost":0.0,"port_name":"Pusan","position":{"lat":35.166668,"lng":129.066666},"status":"surplus"},{"frame_index":430,"name":"ports_12","capacity":10000,"empty":2079,"full":1236,"on_shipper":69,"on_consignee":0,"shortage":0,"acc_shortage":0,"booking":50,"acc_booking":28268,"fulfillment":50,"acc_fulfillment":28268,"transfer_cost":0.0,"port_name":"Qingdao","position":{"lat":36.066898,"lng":120.382698},"status":"surplus"},{"frame_index":430,"name":"ports_13","capacity":10000,"empty":0,"full":560,"on_shipper":0,"on_consignee":0,"shortage":6,"acc_shortage":222,"booking":6,"acc_booking":3705,"fulfillment":0,"acc_fulfillment":3483,"transfer_cost":0.0,"port_name":"San Antonio","position":{"lat":29.424349,"lng":-98.491142},"status":"balance"},{"frame_index":430,"name":"ports_14","capacity":10000,"empty":314,"full":8,"on_shipper":9,"on_consignee":0,"shortage":0,"acc_shortage":697,"booking":6,"acc_booking":3743,"fulfillment":6,"acc_fulfillment":3046,"transfer_cost":0.0,"port_name":"Santos","position":{"lat":-23.96083,"lng":-46.33361},"status":"surplus"},{"frame_index":430,"name":"ports_15","capacity":10000,"empty":2943,"full":1544,"on_shipper":55,"on_consignee":0,"shortage":0,"acc_shortage":0,"booking":41,"acc_booking":24692,"fulfillment":41,"acc_fulfillment":24692,"transfer_cost":0.0,"port_name":"Seattle","position":{"lat":47.608013,"lng":-122.335167},"status":"surplus"},{"frame_index":430,"name":"ports_16","capacity":10000,"empty":352,"full":1465,"on_shipper":96,"on_consignee":275,"shortage":0,"acc_shortage":0,"booking":64,"acc_booking":35270,"fulfillment":64,"acc_fulfillment":35270,"transfer_cost":0.0,"port_name":"Shanghai","position":{"lat":31.224361,"lng":121.46917},"status":"balance"},{"frame_index":430,"name":"ports_17","capacity":10000,"empty":2301,"full":510,"on_shipper":35,"on_consignee":0,"shortage":0,"acc_shortage":40,"booking":24,"acc_booking":14223,"fulfillment":24,"acc_fulfillment":14183,"transfer_cost":0.0,"port_name":"Singapore","position":{"lat":1.29027,"lng":103.851959},"status":"surplus"},{"frame_index":430,"name":"ports_18","capacity":10000,"empty":0,"full":382,"on_shipper":0,"on_consignee":0,"shortage":8,"acc_shortage":621,"booking":8,"acc_booking":5424,"fulfillment":0,"acc_fulfillment":4803,"transfer_cost":0.0,"port_name":"Sydney","position":{"lat":-33.865143,"lng":151.2099},"status":"balance"},{"frame_index":430,"name":"ports_19","capacity":10000,"empty":64,"full":1006,"on_shipper":17,"on_consignee":0,"shortage":0,"acc_shortage":0,"booking":13,"acc_booking":7253,"fulfillment":13,"acc_fulfillment":7253,"transfer_cost":0.0,"port_name":"Vancouver","position":{"lat":49.246292,"lng":-123.116226},"status":"balance"},{"frame_index":430,"name":"ports_20","capacity":10000,"empty":662,"full":588,"on_shipper":72,"on_consignee":0,"shortage":0,"acc_shortage":350,"booking":44,"acc_booking":24425,"fulfillment":44,"acc_fulfillment":24075,"transfer_cost":0.0,"port_name":"Yantian","position":{"lat":26.8533,"lng":119.8575},"status":"surplus"},{"frame_index":430,"name":"ports_21","capacity":10000,"empty":262,"full":541,"on_shipper":63,"on_consignee":0,"shortage":0,"acc_shortage":2740,"booking":38,"acc_booking":23457,"fulfillment":38,"acc_fulfillment":20717,"transfer_cost":0.0,"port_name":"Yokohama","position":{"lat":35.443707,"lng":139.638031},"status":"surplus"}]