[{"frame_index":234,"name":"ports_0","capacity":10000,"empty":3816,"full":2261,"on_shipper":67,"on_consignee":0,"shortage":0,"acc_shortage":0,"booking":63,"acc_booking":29090,"fulfillment":63,"acc_fulfillment":29090,"transfer_cost":0.0,"port_name":"Bremerhaven","position":{"lat":53.549999,"lng":8.583333},"status":"surplus"},{"frame_index":234,"name":"ports_1","capacity":10000,"empty":915,"full":15,"on_shipper":7,"on_consignee":0,"shortage":0,"acc_shortage":0,"booking":4,"acc_booking":1953,"fulfillment":4,"acc_fulfillment":1953,"transfer_cost":0.0,"port_name":"Durban","position":{"lat":-29.8579,"lng":31.0292},"status":"surplus"},{"frame_index":234,"name":"ports_2","capacity":10000,"empty":761,"full":111,"on_shipper":5,"on_consignee":0,"shortage":0,"acc_shortage":233,"booking":4,"acc_booking":1940,"fulfillment":4,"acc_fulfillment":1707,"transfer_cost":0.0,"port_name":"Itagual","position":{"lat":-22.85222,"lng":-43.77528},"status":"surplus"},{"frame_index":234,"name":"ports_3","capacity":10000,"empty":2775,"full":190,"on_shipper":31,"on_consignee":0,"shortage":0,"acc_shortage":0,"booking":23,"acc_booking":11049,"fulfillment":23,"acc_fulfillment":11049,"transfer_cost":0.0,"port_name":"LeHavre","position":{"lat":49.490002,"lng":0.1},"status":"surplus"},{"frame_index":234,"name":"ports_4","capacity":10000,"empty":1276,"full":726,"on_shipper":23,"on_consignee":0,"shortage":0,"acc_shortage":0,"booking":19,"acc_booking":9231,"fulfillment":19,"acc_fulfillment":9231,"transfer_cost":0.0,"port_name":"Los Angeles","position":{"lat":34.052235,"lng":-118.243683},"status":"surplus"},{"frame_index":234,"name":"ports_5","capacity":10000,"empty":1635,"full":170,"on_shipper":30,"on_consignee":0,"shortage":0,"acc_shortage":0,"booking":19,"acc_booking":9263,"fulfillment":19,"acc_fulfillment":9263,"transfer_cost":0.0,"port_name":"Manzanillo","position":{"lat":19.11695,"lng":-104.34214},"status":"surplus"},{"frame_index":234,"name":"ports_6","capacity":10000,"empty":198,"full":303,"on_shipper":8,"on_consignee":0,"shortage":0,"acc_shortage":0,"booking":6,"acc_booking":2842,"fulfillment":6,"acc_fulfillment":2842,"transfer_cost":0.0,"port_name":"Melbourne","position":{"lat":-37.840935,"lng":144.946457},"status":"surplus"},{"frame_index":234,"name":"ports_7","capacity":10000,"empty":2225,"full":199,"on_shipper":11,"on_consignee":0,"shortage":0,"acc_shortage":0,"booking":6,"acc_booking":2844,"fulfillment":6,"acc_fulfillment":2844,"transfer_cost":0.0,"port_name":"Montreal","position":{"lat":45.516136,"lng":-73.65683},"status":"surplus"},{"frame_index":234,"name":"ports_8","capacity":10000,"empty":4905,"full":38,"on_shipper":17,"on_consignee":0,"shortage":0,"acc_shortage":0,"booking":12,"acc_booking":5556,"fulfillment":12,"acc_fulfillment":5556,"transfer_cost":0.0,"port_name":"New York","position":{"lat":40.73061,"lng":-73.935242},"status":"surplus"},{"frame_index":234,"name":"ports_9","capacity":10000,"empty":1655,"full":284,"on_shipper":12,"on_consignee":0,"shortage":0,"acc_shortage":0,"booking":11,"acc_booking":5546,"fulfillment":11,"acc_fulfillment":5546,"transfer_cost":0.0,"port_name":"Oakland","position":{"lat":37.804363,"lng":-122.271111},"status":"surplus"},{"frame_index":234,"name":"ports_10","capacity":10000,"empty":357,"full":726,"on_shipper":10,"on_consignee":0,"shortage":0,"acc_shortage":0,"booking":6,"acc_booking":2827,"fulfillment":6,"acc_fulfillment":2827,"transfer_cost":0.0,"port_name":"Prince Rupert","position":{"lat":54.312519,"lng":-130.305405},"status":"surplus"},{"frame_index":234,"name":"ports_11","capacity":10000,"empty":1520,"full":1098,"on_shipper":28,"on_consignee":0,"shortage":0,"acc_shortage":0,"booking":22,"acc_booking":11015,"fulfillment":22,"acc_fulfillment":11015,"transfer_cost":0.0,"port_name":"Pusan","position":{"lat":35.166668,"lng":129.066666},"status":"surplus"},{"frame_index":234,"name":"ports_12","capacity":10000,"empty":1909,"full":413,"on_shipper":45,"on_consignee":0,"shortage":0,"acc_shortage":0,"booking":31,"acc_booking":14701,"fulfillment":31,"acc_fulfillment":14701,"transfer_cost":0.0,"port_name":"Qingdao","position":{"lat":36.066898,"lng":120.382698},"status":"surplus"},{"frame_index":234,"name":"ports_13","capacity":10000,"empty":545,"full":106,"on_shipper":6,"on_consignee":0,"shortage":0,"acc_shortage":55,"booking":4,"acc_booking":1935,"fulfillment":4,"acc_fulfillment":1880,"transfer_cost":0.0,"port_name":"San Antonio","position":{"lat":29.424349,"lng":-98.491142},"status":"surplus"},{"frame_index":234,"name":"ports_14","capacity":10000,"empty":644,"full":78,"on_shipper":6,"on_consignee":0,"shortage":0,"acc_shortage":697,"booking":4,"acc_booking":1957,"fulfillment":4,"acc_fulfillment":1260,"transfer_cost":0.0,"port_name":"Santos","position":{"lat":-23.96083,"lng":-46.33361},"status":"surplus"},{"frame_index":234,"name":"ports_15","capacity":10000,"empty":3366,"full":311,"on_shipper":30,"on_consignee":349,"shortage":0,"acc_shortage":0,"booking":27,"acc_booking":12858,"fulfillment":27,"acc_fulfillment":12858,"transfer_cost":0.0,"port_name":"Seattle","position":{"lat":47.608013,"lng":-122.335167},"status":"surplus"},{"frame_index":234,"name":"ports_16","capacity":10000,"empty":1197,"full":1288,"on_shipper":55,"on_consignee":0,"shortage":0,"acc_shortage":0,"booking":43,"acc_booking":18297,"fulfillment":43,"acc_fulfillment":18297,"transfer_cost":0.0,"port_name":"Shanghai","position":{"lat":31.224361,"lng":121.46917},"status":"surplus"},{"frame_index":234,"name":"ports_17","capacity":10000,"empty":660,"full":197,"on_shipper":22,"on_consignee":0,"shortage":0,"acc_shortage":40,"booking":15,"acc_booking":7412,"fulfillment":15,"acc_fulfillment":7372,"transfer_cost":0.0,"port_name":"Singapore","position":{"lat":1.29027,"lng":103.851959},"status":"surplus"},{"frame_index":234,"name":"ports_18","capacity":10000,"empty":282,"full":103,"on_shipper":9,"on_consignee":0,"shortage":0,"acc_shortage":5,"booking":6,"acc_booking":2816,"fulfillment":6,"acc_fulfillment":2811,"transfer_cost":0.0,"port_name":"Sydney","position":{"lat":-33.865143,"lng":151.2099},"status":"surplus"},{"frame_index":234,"name":"ports_19","capacity":10000,"empty":740,"full":282,"on_shipper":12,"on_consignee":0,"shortage":0,"acc_shortage":0,"booking":8,"acc_booking":3771,"fulfillment":8,"acc_fulfillment":3771,"transfer_cost":0.0,"port_name":"Vancouver","position":{"lat":49.246292,"lng":-123.116226},"status":"surplus"},{"frame_index":234,"name":"ports_20","capacity":10000,"empty":1702,"full":746,"on_shipper":37,"on_consignee":301,"shortage":0,"acc_shortage":0,"booking":25,"acc_booking":12674,"fulfillment":25,"acc_fulfillment":12674,"transfer_cost":20.0,"port_name":"Yantian","position":{"lat":26.8533,"lng":119.8575},"status":"surplus"},{"frame_index":234,"name":"ports_21","capacity":10000,"empty":1117,"full":137,"on_shipper":22,"on_consignee":0,"shortage":0,"acc_shortage":492,"booking":18,"acc_booking":12102,"fulfillment":18,"acc_fulfillment":11610,"transfer_cost":0.0,"port_name":"Yokohama","position":{"lat":35.443707,"lng":139.638031},"status":"surplus"}]