[{"frame_index":229,"name":"ports_0","capacity":10000,"empty":3690,"full":2005,"on_shipper":66,"on_consignee":383,"shortage":0,"acc_shortage":0,"booking":19,"acc_booking":28833,"fulfillment":19,"acc_fulfillment":28833,"transfer_cost":0.0,"port_name":"Bremerhaven","position":{"lat":53.549999,"lng":8.583333},"status":"surplus"},{"frame_index":229,"name":"ports_1","capacity":10000,"empty":613,"full":0,"on_shipper":2,"on_consignee":322,"shortage":0,"acc_shortage":0,"booking":2,"acc_booking":1933,"fulfillment":2,"acc_fulfillment":1933,"transfer_cost":4.0,"port_name":"Durban","position":{"lat":-29.8579,"lng":31.0292},"status":"surplus"},{"frame_index":229,"name":"ports_2","capacity":10000,"empty":780,"full":93,"on_shipper":4,"on_consignee":0,"shortage":0,"acc_shortage":233,"booking":2,"acc_booking":1921,"fulfillment":2,"acc_fulfillment":1688,"transfer_cost":0.0,"port_name":"Itagual","position":{"lat":-22.85222,"lng":-43.77528},"status":"surplus"},{"frame_index":229,"name":"ports_3","capacity":10000,"empty":2578,"full":272,"on_shipper":17,"on_consignee":0,"shortage":0,"acc_shortage":0,"booking":8,"acc_booking":10950,"fulfillment":8,"acc_fulfillment":10950,"transfer_cost":0.0,"port_name":"LeHavre","position":{"lat":49.490002,"lng":0.1},"status":"surplus"},{"frame_index":229,"name":"ports_4","capacity":10000,"empty":1358,"full":660,"on_shipper":7,"on_consignee":0,"shortage":0,"acc_shortage":0,"booking":7,"acc_booking":9149,"fulfillment":7,"acc_fulfillment":9149,"transfer_cost":0.0,"port_name":"Los Angeles","position":{"lat":34.052235,"lng":-118.243683},"status":"surplus"},{"frame_index":229,"name":"ports_5","capacity":10000,"empty":1718,"full":92,"on_shipper":25,"on_consignee":0,"shortage":0,"acc_shortage":0,"booking":8,"acc_booking":9180,"fulfillment":8,"acc_fulfillment":9180,"transfer_cost":0.0,"port_name":"Manzanillo","position":{"lat":19.11695,"lng":-104.34214},"status":"surplus"},{"frame_index":229,"name":"ports_6","capacity":10000,"empty":225,"full":276,"on_shipper":8,"on_consignee":0,"shortage":0,"acc_shortage":0,"booking":3,"acc_booking":2815,"fulfillment":3,"acc_fulfillment":2815,"transfer_cost":0.0,"port_name":"Melbourne","position":{"lat":-37.840935,"lng":144.946457},"status":"surplus"},{"frame_index":229,"name":"ports_7","capacity":10000,"empty":2252,"full":177,"on_shipper":6,"on_consignee":0,"shortage":0,"acc_shortage":0,"booking":3,"acc_booking":2817,"fulfillment":3,"acc_fulfillment":2817,"transfer_cost":0.0,"port_name":"Montreal","position":{"lat":45.516136,"lng":-73.65683},"status":"surplus"},{"frame_index":229,"name":"ports_8","capacity":10000,"empty":251,"full":0,"on_shipper":5,"on_consignee":4704,"shortage":0,"acc_shortage":0,"booking":5,"acc_booking":5506,"fulfillment":5,"acc_fulfillment":5506,"transfer_cost":1006.0,"port_name":"New York","position":{"lat":40.73061,"lng":-73.935242},"status":"surplus"},{"frame_index":229,"name":"ports_9","capacity":10000,"empty":1709,"full":223,"on_shipper":19,"on_consignee":0,"shortage":0,"acc_shortage":0,"booking":4,"acc_booking":5492,"fulfillment":4,"acc_fulfillment":5492,"transfer_cost":0.0,"port_name":"Oakland","position":{"lat":37.804363,"lng":-122.271111},"status":"surplus"},{"frame_index":229,"name":"ports_10","capacity":10000,"empty":384,"full":700,"on_shipper":9,"on_consignee":0,"shortage":0,"acc_shortage":0,"booking":3,"acc_booking":2800,"fulfillment":3,"acc_fulfillment":2800,"transfer_cost":0.0,"port_name":"Prince Rupert","position":{"lat":54.312519,"lng":-130.305405},"status":"surplus"},{"frame_index":229,"name":"ports_11","capacity":10000,"empty":1472,"full":1159,"on_shipper":15,"on_consignee":0,"shortage":0,"acc_shortage":0,"booking":9,"acc_booking":10918,"fulfillment":9,"acc_fulfillment":10918,"transfer_cost":0.0,"port_name":"Pusan","position":{"lat":35.166668,"lng":129.066666},"status":"surplus"},{"frame_index":229,"name":"ports_12","capacity":10000,"empty":2740,"full":337,"on_shipper":26,"on_consignee":0,"shortage":0,"acc_shortage":0,"booking":12,"acc_booking":14563,"fulfillment":12,"acc_fulfillment":14563,"transfer_cost":0.0,"port_name":"Qingdao","position":{"lat":36.066898,"lng":120.382698},"status":"surplus"},{"frame_index":229,"name":"ports_13","capacity":10000,"empty":563,"full":89,"on_shipper":5,"on_consignee":0,"shortage":0,"acc_shortage":55,"booking":2,"acc_booking":1917,"fulfillment":2,"acc_fulfillment":1862,"transfer_cost":0.0,"port_name":"San Antonio","position":{"lat":29.424349,"lng":-98.491142},"status":"surplus"},{"frame_index":229,"name":"ports_14","capacity":10000,"empty":662,"full":62,"on_shipper":4,"on_consignee":0,"shortage":0,"acc_shortage":697,"booking":2,"acc_booking":1939,"fulfillment":2,"acc_fulfillment":1242,"transfer_cost":0.0,"port_name":"Santos","position":{"lat":-23.96083,"lng":-46.33361},"status":"surplus"},{"frame_index":229,"name":"ports_15","capacity":10000,"empty":1754,"full":1086,"on_shipper":29,"on_consignee":0,"shortage":0,"acc_shortage":0,"booking":10,"acc_booking":12740,"fulfillment":10,"acc_fulfillment":12740,"transfer_cost":0.0,"port_name":"Seattle","position":{"lat":47.608013,"lng":-122.335167},"status":"surplus"},{"frame_index":229,"name":"ports_16","capacity":10000,"empty":794,"full":2377,"on_shipper":38,"on_consignee":0,"shortage":0,"acc_shortage":0,"booking":12,"acc_booking":18128,"fulfillment":12,"acc_fulfillment":18128,"transfer_cost":0.0,"port_name":"Shanghai","position":{"lat":31.224361,"lng":121.46917},"status":"surplus"},{"frame_index":229,"name":"ports_17","capacity":10000,"empty":726,"full":135,"on_shipper":18,"on_consignee":0,"shortage":0,"acc_shortage":40,"booking":6,"acc_booking":7346,"fulfillment":6,"acc_fulfillment":7306,"transfer_cost":0.0,"port_name":"Singapore","position":{"lat":1.29027,"lng":103.851959},"status":"surplus"},{"frame_index":229,"name":"ports_18","capacity":10000,"empty":309,"full":73,"on_shipper":12,"on_consignee":0,"shortage":0,"acc_shortage":5,"booking":3,"acc_booking":2789,"fulfillment":3,"acc_fulfillment":2784,"transfer_cost":0.0,"port_name":"Sydney","position":{"lat":-33.865143,"lng":151.2099},"status":"surplus"},{"frame_index":229,"name":"ports_19","capacity":10000,"empty":776,"full":248,"on_shipper":10,"on_consignee":0,"shortage":0,"acc_shortage":0,"booking":3,"acc_booking":3735,"fulfillment":3,"acc_fulfillment":3735,"transfer_cost":0.0,"port_name":"Vancouver","position":{"lat":49.246292,"lng":-123.116226},"status":"surplus"},{"frame_index":229,"name":"ports_20","capacity":10000,"empty":1704,"full":790,"on_shipper":29,"on_consignee":0,"shortage":0,"acc_shortage":0,"booking":9,"acc_booking":12559,"fulfillment":9,"acc_fulfillment":12559,"transfer_cost":0.0,"port_name":"Yantian","position":{"lat":26.8533,"lng":119.8575},"status":"surplus"},{"frame_index":229,"name":"ports_21","capacity":10000,"empty":1186,"full":79,"on_shipper":11,"on_consignee":0,"shortage":0,"acc_shortage":492,"booking":0,"acc_booking":12033,"fulfillment":0,"acc_fulfillment":11541,"transfer_cost":0.0,"port_name":"Yokohama","position":{"lat":35.443707,"lng":139.638031},"status":"surplus"}]