[{"frame_index":990,"name":"ports_0","capacity":10000,"empty":4045,"full":60,"on_shipper":106,"on_consignee":746,"shortage":0,"acc_shortage":861,"booking":91,"acc_booking":128428,"fulfillment":91,"acc_fulfillment":127567,"transfer_cost":76.0,"port_name":"Bremerhaven","position":{"lat":53.549999,"lng":8.583333},"status":"surplus"},{"frame_index":990,"name":"ports_1","capacity":10000,"empty":415,"full":11,"on_shipper":10,"on_consignee":0,"shortage":0,"acc_shortage":113,"booking":6,"acc_booking":8537,"fulfillment":6,"acc_fulfillment":8424,"transfer_cost":0.0,"port_name":"Durban","position":{"lat":-29.8579,"lng":31.0292},"status":"surplus"},{"frame_index":990,"name":"ports_2","capacity":10000,"empty":413,"full":214,"on_shipper":9,"on_consignee":0,"shortage":0,"acc_shortage":298,"booking":7,"acc_booking":8499,"fulfillment":7,"acc_fulfillment":8201,"transfer_cost":0.0,"port_name":"Itagual","position":{"lat":-22.85222,"lng":-43.77528},"status":"surplus"},{"frame_index":990,"name":"ports_3","capacity":10000,"empty":3540,"full":707,"on_shipper":44,"on_consignee":0,"shortage":0,"acc_shortage":0,"booking":37,"acc_booking":48613,"fulfillment":37,"acc_fulfillment":48613,"transfer_cost":0.0,"port_name":"LeHavre","position":{"lat":49.490002,"lng":0.1},"status":"surplus"},{"frame_index":990,"name":"ports_4","capacity":10000,"empty":965,"full":137,"on_shipper":58,"on_consignee":0,"shortage":0,"acc_shortage":290,"booking":31,"acc_booking":40710,"fulfillment":31,"acc_fulfillment":40420,"transfer_cost":0.0,"port_name":"Los Angeles","position":{"lat":34.052235,"lng":-118.243683},"status":"surplus"},{"frame_index":990,"name":"ports_5","capacity":10000,"empty":155,"full":307,"on_shipper":52,"on_consignee":0,"shortage":0,"acc_shortage":163,"booking":35,"acc_booking":40750,"fulfillment":35,"acc_fulfillment":40587,"transfer_cost":0.0,"port_name":"Manzanillo","position":{"lat":19.11695,"lng":-104.34214},"status":"balance"},{"frame_index":990,"name":"ports_6","capacity":10000,"empty":352,"full":137,"on_shipper":18,"on_consignee":0,"shortage":0,"acc_shortage":2108,"booking":9,"acc_booking":12531,"fulfillment":9,"acc_fulfillment":10423,"transfer_cost":0.0,"port_name":"Melbourne","position":{"lat":-37.840935,"lng":144.946457},"status":"surplus"},{"frame_index":990,"name":"ports_7","capacity":10000,"empty":1047,"full":449,"on_shipper":18,"on_consignee":0,"shortage":0,"acc_shortage":0,"booking":10,"acc_booking":12539,"fulfillment":10,"acc_fulfillment":12539,"transfer_cost":0.0,"port_name":"Montreal","position":{"lat":45.516136,"lng":-73.65683},"status":"surplus"},{"frame_index":990,"name":"ports_8","capacity":10000,"empty":2059,"full":676,"on_shipper":19,"on_consignee":0,"shortage":0,"acc_shortage":136,"booking":19,"acc_booking":24504,"fulfillment":19,"acc_fulfillment":24368,"transfer_cost":0.0,"port_name":"New York","position":{"lat":40.73061,"lng":-73.935242},"status":"surplus"},{"frame_index":990,"name":"ports_9","capacity":10000,"empty":1156,"full":495,"on_shipper":30,"on_consignee":0,"shortage":0,"acc_shortage":45,"booking":17,"acc_booking":24535,"fulfillment":17,"acc_fulfillment":24490,"transfer_cost":0.0,"port_name":"Oakland","position":{"lat":37.804363,"lng":-122.271111},"status":"surplus"},{"frame_index":990,"name":"ports_10","capacity":10000,"empty":1002,"full":152,"on_shipper":17,"on_consignee":0,"shortage":0,"acc_shortage":314,"booking":11,"acc_booking":12544,"fulfillment":11,"acc_fulfillment":12230,"transfer_cost":0.0,"port_name":"Prince Rupert","position":{"lat":54.312519,"lng":-130.305405},"status":"surplus"},{"frame_index":990,"name":"ports_11","capacity":10000,"empty":1947,"full":1392,"on_shipper":60,"on_consignee":0,"shortage":0,"acc_shortage":204,"booking":37,"acc_booking":48563,"fulfillment":37,"acc_fulfillment":48359,"transfer_cost":0.0,"port_name":"Pusan","position":{"lat":35.166668,"lng":129.066666},"status":"surplus"},{"frame_index":990,"name":"ports_12","capacity":10000,"empty":2479,"full":1969,"on_shipper":60,"on_consignee":405,"shortage":0,"acc_shortage":0,"booking":52,"acc_booking":64925,"fulfillment":52,"acc_fulfillment":64925,"transfer_cost":0.0,"port_name":"Qingdao","position":{"lat":36.066898,"lng":120.382698},"status":"surplus"},{"frame_index":990,"name":"ports_13","capacity":10000,"empty":273,"full":118,"on_shipper":11,"on_consignee":0,"shortage":0,"acc_shortage":459,"booking":7,"acc_booking":8506,"fulfillment":7,"acc_fulfillment":8047,"transfer_cost":0.0,"port_name":"San Antonio","position":{"lat":29.424349,"lng":-98.491142},"status":"surplus"},{"frame_index":990,"name":"ports_14","capacity":10000,"empty":184,"full":53,"on_shipper":10,"on_consignee":0,"shortage":0,"acc_shortage":876,"booking":8,"acc_booking":8558,"fulfillment":8,"acc_fulfillment":7682,"transfer_cost":0.0,"port_name":"Santos","position":{"lat":-23.96083,"lng":-46.33361},"status":"surplus"},{"frame_index":990,"name":"ports_15","capacity":10000,"empty":0,"full":1260,"on_shipper":0,"on_consignee":0,"shortage":42,"acc_shortage":1104,"booking":42,"acc_booking":56704,"fulfillment":0,"acc_fulfillment":55600,"transfer_cost":0.0,"port_name":"Seattle","position":{"lat":47.608013,"lng":-122.335167},"status":"demand"},{"frame_index":990,"name":"ports_16","capacity":10000,"empty":1906,"full":770,"on_shipper":98,"on_consignee":54,"shortage":0,"acc_shortage":817,"booking":57,"acc_booking":80917,"fulfillment":57,"acc_fulfillment":80100,"transfer_cost":0.0,"port_name":"Shanghai","position":{"lat":31.224361,"lng":121.46917},"status":"surplus"},{"frame_index":990,"name":"ports_17","capacity":10000,"empty":721,"full":379,"on_shipper":35,"on_consignee":0,"shortage":0,"acc_shortage":619,"booking":25,"acc_booking":32644,"fulfillment":25,"acc_fulfillment":32025,"transfer_cost":0.0,"port_name":"Singapore","position":{"lat":1.29027,"lng":103.851959},"status":"surplus"},{"frame_index":990,"name":"ports_18","capacity":10000,"empty":558,"full":313,"on_shipper":8,"on_consignee":0,"shortage":0,"acc_shortage":1374,"booking":8,"acc_booking":12539,"fulfillment":8,"acc_fulfillment":11165,"transfer_cost":0.0,"port_name":"Sydney","position":{"lat":-33.865143,"lng":151.2099},"status":"surplus"},{"frame_index":990,"name":"ports_19","capacity":10000,"empty":990,"full":482,"on_shipper":15,"on_consignee":0,"shortage":0,"acc_shortage":0,"booking":13,"acc_booking":16595,"fulfillment":13,"acc_fulfillment":16595,"transfer_cost":0.0,"port_name":"Vancouver","position":{"lat":49.246292,"lng":-123.116226},"status":"surplus"},{"frame_index":990,"name":"ports_20","capacity":10000,"empty":1671,"full":445,"on_shipper":73,"on_consignee":9,"shortage":0,"acc_shortage":1425,"booking":45,"acc_booking":56421,"fulfillment":45,"acc_fulfillment":54996,"transfer_cost":0.0,"port_name":"Yantian","position":{"lat":26.8533,"lng":119.8575},"status":"surplus"},{"frame_index":990,"name":"ports_21","capacity":10000,"empty":0,"full":1201,"on_shipper":0,"on_consignee":0,"shortage":38,"acc_shortage":7454,"booking":38,"acc_booking":53839,"fulfillment":0,"acc_fulfillment":46385,"transfer_cost":0.0,"port_name":"Yokohama","position":{"lat":35.443707,"lng":139.638031},"status":"demand"}]