[{"frame_index":130,"name":"ports_0","capacity":10000,"empty":5228,"full":874,"on_shipper":150,"on_consignee":0,"shortage":0,"acc_shortage":0,"booking":118,"acc_booking":15371,"fulfillment":118,"acc_fulfillment":15371,"transfer_cost":0.0,"port_name":"Bremerhaven","position":{"lat":53.549999,"lng":8.583333},"status":"surplus"},{"frame_index":130,"name":"ports_1","capacity":10000,"empty":829,"full":40,"on_shipper":11,"on_consignee":0,"shortage":0,"acc_shortage":0,"booking":7,"acc_booking":1042,"fulfillment":7,"acc_fulfillment":1042,"transfer_cost":0.0,"port_name":"Durban","position":{"lat":-29.8579,"lng":31.0292},"status":"surplus"},{"frame_index":130,"name":"ports_2","capacity":10000,"empty":52,"full":660,"on_shipper":8,"on_consignee":0,"shortage":0,"acc_shortage":0,"booking":8,"acc_booking":1028,"fulfillment":8,"acc_fulfillment":1028,"transfer_cost":0.0,"port_name":"Itagual","position":{"lat":-22.85222,"lng":-43.77528},"status":"balance"},{"frame_index":130,"name":"ports_3","capacity":10000,"empty":2820,"full":266,"on_shipper":62,"on_consignee":0,"shortage":0,"acc_shortage":0,"booking":45,"acc_booking":5879,"fulfillment":45,"acc_fulfillment":5879,"transfer_cost":0.0,"port_name":"LeHavre","position":{"lat":49.490002,"lng":0.1},"status":"surplus"},{"frame_index":130,"name":"ports_4","capacity":10000,"empty":3241,"full":400,"on_shipper":61,"on_consignee":0,"shortage":0,"acc_shortage":0,"booking":37,"acc_booking":4907,"fulfillment":37,"acc_fulfillment":4907,"transfer_cost":0.0,"port_name":"Los Angeles","position":{"lat":34.052235,"lng":-118.243683},"status":"surplus"},{"frame_index":130,"name":"ports_5","capacity":10000,"empty":736,"full":184,"on_shipper":55,"on_consignee":0,"shortage":0,"acc_shortage":0,"booking":39,"acc_booking":4861,"fulfillment":39,"acc_fulfillment":4861,"transfer_cost":0.0,"port_name":"Manzanillo","position":{"lat":19.11695,"lng":-104.34214},"status":"surplus"},{"frame_index":130,"name":"ports_6","capacity":10000,"empty":464,"full":271,"on_shipper":21,"on_consignee":0,"shortage":0,"acc_shortage":0,"booking":11,"acc_booking":1518,"fulfillment":11,"acc_fulfillment":1518,"transfer_cost":0.0,"port_name":"Melbourne","position":{"lat":-37.840935,"lng":144.946457},"status":"surplus"},{"frame_index":130,"name":"ports_7","capacity":10000,"empty":2208,"full":79,"on_shipper":17,"on_consignee":0,"shortage":0,"acc_shortage":0,"booking":11,"acc_booking":1512,"fulfillment":11,"acc_fulfillment":1512,"transfer_cost":0.0,"port_name":"Montreal","position":{"lat":45.516136,"lng":-73.65683},"status":"surplus"},{"frame_index":130,"name":"ports_8","capacity":10000,"empty":1603,"full":261,"on_shipper":21,"on_consignee":0,"shortage":0,"acc_shortage":0,"booking":21,"acc_booking":2966,"fulfillment":21,"acc_fulfillment":2966,"transfer_cost":0.0,"port_name":"New York","position":{"lat":40.73061,"lng":-73.935242},"status":"surplus"},{"frame_index":130,"name":"ports_9","capacity":10000,"empty":2305,"full":82,"on_shipper":29,"on_consignee":0,"shortage":0,"acc_shortage":0,"booking":23,"acc_booking":2933,"fulfillment":23,"acc_fulfillment":2933,"transfer_cost":0.0,"port_name":"Oakland","position":{"lat":37.804363,"lng":-122.271111},"status":"surplus"},{"frame_index":130,"name":"ports_10","capacity":10000,"empty":328,"full":350,"on_shipper":21,"on_consignee":0,"shortage":0,"acc_shortage":0,"booking":13,"acc_booking":1513,"fulfillment":13,"acc_fulfillment":1513,"transfer_cost":0.0,"port_name":"Prince Rupert","position":{"lat":54.312519,"lng":-130.305405},"status":"surplus"},{"frame_index":130,"name":"ports_11","capacity":10000,"empty":1807,"full":612,"on_shipper":72,"on_consignee":0,"shortage":0,"acc_shortage":0,"booking":43,"acc_booking":5851,"fulfillment":43,"acc_fulfillment":5851,"transfer_cost":0.0,"port_name":"Pusan","position":{"lat":35.166668,"lng":129.066666},"status":"surplus"},{"frame_index":130,"name":"ports_12","capacity":10000,"empty":3936,"full":629,"on_shipper":104,"on_consignee":464,"shortage":0,"acc_shortage":0,"booking":62,"acc_booking":7799,"fulfillment":62,"acc_fulfillment":7799,"transfer_cost":0.0,"port_name":"Qingdao","position":{"lat":36.066898,"lng":120.382698},"status":"surplus"},{"frame_index":130,"name":"ports_13","capacity":10000,"empty":370,"full":104,"on_shipper":11,"on_consignee":0,"shortage":0,"acc_shortage":0,"booking":8,"acc_booking":1034,"fulfillment":8,"acc_fulfillment":1034,"transfer_cost":0.0,"port_name":"San Antonio","position":{"lat":29.424349,"lng":-98.491142},"status":"surplus"},{"frame_index":130,"name":"ports_14","capacity":10000,"empty":133,"full":79,"on_shipper":12,"on_consignee":0,"shortage":0,"acc_shortage":0,"booking":8,"acc_booking":1043,"fulfillment":8,"acc_fulfillment":1043,"transfer_cost":0.0,"port_name":"Santos","position":{"lat":-23.96083,"lng":-46.33361},"status":"surplus"},{"frame_index":130,"name":"ports_15","capacity":10000,"empty":2689,"full":1092,"on_shipper":68,"on_consignee":0,"shortage":0,"acc_shortage":0,"booking":52,"acc_booking":6839,"fulfillment":52,"acc_fulfillment":6839,"transfer_cost":0.0,"port_name":"Seattle","position":{"lat":47.608013,"lng":-122.335167},"status":"surplus"},{"frame_index":130,"name":"ports_16","capacity":10000,"empty":1885,"full":1291,"on_shipper":101,"on_consignee":0,"shortage":0,"acc_shortage":0,"booking":72,"acc_booking":9821,"fulfillment":72,"acc_fulfillment":9821,"transfer_cost":0.0,"port_name":"Shanghai","position":{"lat":31.224361,"lng":121.46917},"status":"surplus"},{"frame_index":130,"name":"ports_17","capacity":10000,"empty":2450,"full":323,"on_shipper":44,"on_consignee":0,"shortage":0,"acc_shortage":0,"booking":30,"acc_booking":3945,"fulfillment":30,"acc_fulfillment":3945,"transfer_cost":0.0,"port_name":"Singapore","position":{"lat":1.29027,"lng":103.851959},"status":"surplus"},{"frame_index":130,"name":"ports_18","capacity":10000,"empty":732,"full":78,"on_shipper":12,"on_consignee":0,"shortage":0,"acc_shortage":0,"booking":12,"acc_booking":1492,"fulfillment":12,"acc_fulfillment":1492,"transfer_cost":0.0,"port_name":"Sydney","position":{"lat":-33.865143,"lng":151.2099},"status":"surplus"},{"frame_index":130,"name":"ports_19","capacity":10000,"empty":506,"full":543,"on_shipper":21,"on_consignee":0,"shortage":0,"acc_shortage":0,"booking":14,"acc_booking":2011,"fulfillment":14,"acc_fulfillment":2011,"transfer_cost":0.0,"port_name":"Vancouver","position":{"lat":49.246292,"lng":-123.116226},"status":"surplus"},{"frame_index":130,"name":"ports_20","capacity":10000,"empty":1909,"full":497,"on_shipper":83,"on_consignee":0,"shortage":0,"acc_shortage":0,"booking":55,"acc_booking":6701,"fulfillment":55,"acc_fulfillment":6701,"transfer_cost":0.0,"port_name":"Yantian","position":{"lat":26.8533,"lng":119.8575},"status":"surplus"},{"frame_index":130,"name":"ports_21","capacity":10000,"empty":3236,"full":413,"on_shipper":67,"on_consignee":0,"shortage":0,"acc_shortage":0,"booking":47,"acc_booking":6359,"fulfillment":47,"acc_fulfillment":6359,"transfer_cost":0.0,"port_name":"Yokohama","position":{"lat":35.443707,"lng":139.638031},"status":"surplus"}]