[{"frame_index":507,"name":"ports_0","capacity":10000,"empty":1812,"full":2218,"on_shipper":403,"on_consignee":52,"shortage":0,"acc_shortage":522,"booking":328,"acc_booking":64915,"fulfillment":328,"acc_fulfillment":64393,"transfer_cost":0.0,"port_name":"Bremerhaven","position":{"lat":53.549999,"lng":8.583333},"status":"surplus"},{"frame_index":507,"name":"ports_1","capacity":10000,"empty":349,"full":170,"on_shipper":33,"on_consignee":0,"shortage":0,"acc_shortage":0,"booking":20,"acc_booking":4336,"fulfillment":20,"acc_fulfillment":4336,"transfer_cost":0.0,"port_name":"Durban","position":{"lat":-29.8579,"lng":31.0292},"status":"surplus"},{"frame_index":507,"name":"ports_2","capacity":10000,"empty":870,"full":139,"on_shipper":18,"on_consignee":0,"shortage":0,"acc_shortage":233,"booking":18,"acc_booking":4305,"fulfillment":18,"acc_fulfillment":4072,"transfer_cost":0.0,"port_name":"Itagual","position":{"lat":-22.85222,"lng":-43.77528},"status":"surplus"},{"frame_index":507,"name":"ports_3","capacity":10000,"empty":1968,"full":587,"on_shipper":174,"on_consignee":0,"shortage":0,"acc_shortage":0,"booking":101,"acc_booking":24622,"fulfillment":101,"acc_fulfillment":24622,"transfer_cost":0.0,"port_name":"LeHavre","position":{"lat":49.490002,"lng":0.1},"status":"surplus"},{"frame_index":507,"name":"ports_4","capacity":10000,"empty":1657,"full":1838,"on_shipper":158,"on_consignee":0,"shortage":0,"acc_shortage":0,"booking":89,"acc_booking":20585,"fulfillment":89,"acc_fulfillment":20585,"transfer_cost":0.0,"port_name":"Los Angeles","position":{"lat":34.052235,"lng":-118.243683},"status":"surplus"},{"frame_index":507,"name":"ports_5","capacity":10000,"empty":1603,"full":498,"on_shipper":142,"on_consignee":0,"shortage":0,"acc_shortage":123,"booking":83,"acc_booking":20666,"fulfillment":83,"acc_fulfillment":20543,"transfer_cost":0.0,"port_name":"Manzanillo","position":{"lat":19.11695,"lng":-104.34214},"status":"surplus"},{"frame_index":507,"name":"ports_6","capacity":10000,"empty":172,"full":214,"on_shipper":34,"on_consignee":0,"shortage":0,"acc_shortage":837,"booking":26,"acc_booking":6339,"fulfillment":26,"acc_fulfillment":5502,"transfer_cost":0.0,"port_name":"Melbourne","position":{"lat":-37.840935,"lng":144.946457},"status":"balance"},{"frame_index":507,"name":"ports_7","capacity":10000,"empty":1798,"full":413,"on_shipper":39,"on_consignee":0,"shortage":0,"acc_shortage":0,"booking":26,"acc_booking":6340,"fulfillment":26,"acc_fulfillment":6340,"transfer_cost":0.0,"port_name":"Montreal","position":{"lat":45.516136,"lng":-73.65683},"status":"surplus"},{"frame_index":507,"name":"ports_8","capacity":10000,"empty":1000,"full":229,"on_shipper":117,"on_consignee":0,"shortage":0,"acc_shortage":0,"booking":55,"acc_booking":12390,"fulfillment":55,"acc_fulfillment":12390,"transfer_cost":0.0,"port_name":"New York","position":{"lat":40.73061,"lng":-73.935242},"status":"surplus"},{"frame_index":507,"name":"ports_9","capacity":10000,"empty":1162,"full":587,"on_shipper":90,"on_consignee":0,"shortage":0,"acc_shortage":45,"booking":58,"acc_booking":12394,"fulfillment":58,"acc_fulfillment":12349,"transfer_cost":0.0,"port_name":"Oakland","position":{"lat":37.804363,"lng":-122.271111},"status":"surplus"},{"frame_index":507,"name":"ports_10","capacity":10000,"empty":86,"full":0,"on_shipper":0,"on_consignee":1087,"shortage":29,"acc_shortage":314,"booking":29,"acc_booking":6351,"fulfillment":0,"acc_fulfillment":6037,"transfer_cost":86.0,"port_name":"Prince Rupert","position":{"lat":54.312519,"lng":-130.305405},"status":"demand"},{"frame_index":507,"name":"ports_11","capacity":10000,"empty":1994,"full":1853,"on_shipper":123,"on_consignee":0,"shortage":0,"acc_shortage":204,"booking":103,"acc_booking":24555,"fulfillment":103,"acc_fulfillment":24351,"transfer_cost":0.0,"port_name":"Pusan","position":{"lat":35.166668,"lng":129.066666},"status":"surplus"},{"frame_index":507,"name":"ports_12","capacity":10000,"empty":4056,"full":1727,"on_shipper":199,"on_consignee":88,"shortage":0,"acc_shortage":0,"booking":124,"acc_booking":32824,"fulfillment":124,"acc_fulfillment":32824,"transfer_cost":0.0,"port_name":"Qingdao","position":{"lat":36.066898,"lng":120.382698},"status":"surplus"},{"frame_index":507,"name":"ports_13","capacity":10000,"empty":169,"full":0,"on_shipper":27,"on_consignee":356,"shortage":0,"acc_shortage":286,"booking":17,"acc_booking":4302,"fulfillment":17,"acc_fulfillment":4016,"transfer_cost":175.0,"port_name":"San Antonio","position":{"lat":29.424349,"lng":-98.491142},"status":"surplus"},{"frame_index":507,"name":"ports_14","capacity":10000,"empty":406,"full":0,"on_shipper":18,"on_consignee":189,"shortage":0,"acc_shortage":762,"booking":18,"acc_booking":4339,"fulfillment":18,"acc_fulfillment":3577,"transfer_cost":0.0,"port_name":"Santos","position":{"lat":-23.96083,"lng":-46.33361},"status":"surplus"},{"frame_index":507,"name":"ports_15","capacity":10000,"empty":4031,"full":629,"on_shipper":153,"on_consignee":0,"shortage":0,"acc_shortage":0,"booking":122,"acc_booking":28663,"fulfillment":122,"acc_fulfillment":28663,"transfer_cost":0.0,"port_name":"Seattle","position":{"lat":47.608013,"lng":-122.335167},"status":"surplus"},{"frame_index":507,"name":"ports_16","capacity":10000,"empty":651,"full":1097,"on_shipper":321,"on_consignee":413,"shortage":0,"acc_shortage":70,"booking":184,"acc_booking":40916,"fulfillment":184,"acc_fulfillment":40846,"transfer_cost":0.0,"port_name":"Shanghai","position":{"lat":31.224361,"lng":121.46917},"status":"demand"},{"frame_index":507,"name":"ports_17","capacity":10000,"empty":1480,"full":827,"on_shipper":123,"on_consignee":0,"shortage":0,"acc_shortage":40,"booking":72,"acc_booking":16520,"fulfillment":72,"acc_fulfillment":16480,"transfer_cost":0.0,"port_name":"Singapore","position":{"lat":1.29027,"lng":103.851959},"status":"surplus"},{"frame_index":507,"name":"ports_18","capacity":10000,"empty":152,"full":619,"on_shipper":58,"on_consignee":0,"shortage":0,"acc_shortage":774,"booking":24,"acc_booking":6312,"fulfillment":24,"acc_fulfillment":5538,"transfer_cost":0.0,"port_name":"Sydney","position":{"lat":-33.865143,"lng":151.2099},"status":"balance"},{"frame_index":507,"name":"ports_19","capacity":10000,"empty":360,"full":252,"on_shipper":49,"on_consignee":217,"shortage":0,"acc_shortage":0,"booking":36,"acc_booking":8431,"fulfillment":36,"acc_fulfillment":8431,"transfer_cost":0.0,"port_name":"Vancouver","position":{"lat":49.246292,"lng":-123.116226},"status":"surplus"},{"frame_index":507,"name":"ports_20","capacity":10000,"empty":551,"full":1479,"on_shipper":219,"on_consignee":88,"shortage":0,"acc_shortage":350,"booking":128,"acc_booking":28472,"fulfillment":128,"acc_fulfillment":28122,"transfer_cost":0.0,"port_name":"Yantian","position":{"lat":26.8533,"lng":119.8575},"status":"demand"},{"frame_index":507,"name":"ports_21","capacity":10000,"empty":699,"full":2132,"on_shipper":183,"on_consignee":0,"shortage":0,"acc_shortage":2740,"booking":127,"acc_booking":27160,"fulfillment":127,"acc_fulfillment":24420,"transfer_cost":0.0,"port_name":"Yokohama","position":{"lat":35.443707,"lng":139.638031},"status":"surplus"}]