[{"frame_index":607,"name":"ports_0","capacity":10000,"empty":3816,"full":5216,"on_shipper":408,"on_consignee":0,"shortage":0,"acc_shortage":522,"booking":164,"acc_booking":77203,"fulfillment":164,"acc_fulfillment":76681,"transfer_cost":0.0,"port_name":"Bremerhaven","position":{"lat":53.549999,"lng":8.583333},"status":"surplus"},{"frame_index":607,"name":"ports_1","capacity":10000,"empty":454,"full":129,"on_shipper":20,"on_consignee":0,"shortage":0,"acc_shortage":0,"booking":11,"acc_booking":5131,"fulfillment":11,"acc_fulfillment":5131,"transfer_cost":0.0,"port_name":"Durban","position":{"lat":-29.8579,"lng":31.0292},"status":"surplus"},{"frame_index":607,"name":"ports_2","capacity":10000,"empty":282,"full":293,"on_shipper":14,"on_consignee":0,"shortage":0,"acc_shortage":233,"booking":14,"acc_booking":5104,"fulfillment":14,"acc_fulfillment":4871,"transfer_cost":0.0,"port_name":"Itagual","position":{"lat":-22.85222,"lng":-43.77528},"status":"surplus"},{"frame_index":607,"name":"ports_3","capacity":10000,"empty":1921,"full":622,"on_shipper":113,"on_consignee":0,"shortage":0,"acc_shortage":0,"booking":72,"acc_booking":29190,"fulfillment":72,"acc_fulfillment":29190,"transfer_cost":0.0,"port_name":"LeHavre","position":{"lat":49.490002,"lng":0.1},"status":"surplus"},{"frame_index":607,"name":"ports_4","capacity":10000,"empty":330,"full":1486,"on_shipper":112,"on_consignee":0,"shortage":0,"acc_shortage":0,"booking":60,"acc_booking":24422,"fulfillment":60,"acc_fulfillment":24422,"transfer_cost":0.0,"port_name":"Los Angeles","position":{"lat":34.052235,"lng":-118.243683},"status":"balance"},{"frame_index":607,"name":"ports_5","capacity":10000,"empty":2091,"full":804,"on_shipper":82,"on_consignee":0,"shortage":0,"acc_shortage":123,"booking":52,"acc_booking":24443,"fulfillment":52,"acc_fulfillment":24320,"transfer_cost":0.0,"port_name":"Manzanillo","position":{"lat":19.11695,"lng":-104.34214},"status":"surplus"},{"frame_index":607,"name":"ports_6","capacity":10000,"empty":232,"full":380,"on_shipper":25,"on_consignee":0,"shortage":0,"acc_shortage":1259,"booking":18,"acc_booking":7518,"fulfillment":18,"acc_fulfillment":6259,"transfer_cost":0.0,"port_name":"Melbourne","position":{"lat":-37.840935,"lng":144.946457},"status":"surplus"},{"frame_index":607,"name":"ports_7","capacity":10000,"empty":1681,"full":330,"on_shipper":31,"on_consignee":0,"shortage":0,"acc_shortage":0,"booking":19,"acc_booking":7524,"fulfillment":19,"acc_fulfillment":7524,"transfer_cost":0.0,"port_name":"Montreal","position":{"lat":45.516136,"lng":-73.65683},"status":"surplus"},{"frame_index":607,"name":"ports_8","capacity":10000,"empty":2569,"full":296,"on_shipper":57,"on_consignee":0,"shortage":0,"acc_shortage":0,"booking":38,"acc_booking":14707,"fulfillment":38,"acc_fulfillment":14707,"transfer_cost":0.0,"port_name":"New York","position":{"lat":40.73061,"lng":-73.935242},"status":"surplus"},{"frame_index":607,"name":"ports_9","capacity":10000,"empty":944,"full":498,"on_shipper":63,"on_consignee":0,"shortage":0,"acc_shortage":45,"booking":38,"acc_booking":14735,"fulfillment":38,"acc_fulfillment":14690,"transfer_cost":0.0,"port_name":"Oakland","position":{"lat":37.804363,"lng":-122.271111},"status":"surplus"},{"frame_index":607,"name":"ports_10","capacity":10000,"empty":1430,"full":309,"on_shipper":32,"on_consignee":0,"shortage":0,"acc_shortage":314,"booking":18,"acc_booking":7541,"fulfillment":18,"acc_fulfillment":7227,"transfer_cost":0.0,"port_name":"Prince Rupert","position":{"lat":54.312519,"lng":-130.305405},"status":"surplus"},{"frame_index":607,"name":"ports_11","capacity":10000,"empty":2867,"full":838,"on_shipper":104,"on_consignee":0,"shortage":0,"acc_shortage":204,"booking":74,"acc_booking":29132,"fulfillment":74,"acc_fulfillment":28928,"transfer_cost":0.0,"port_name":"Pusan","position":{"lat":35.166668,"lng":129.066666},"status":"surplus"},{"frame_index":607,"name":"ports_12","capacity":10000,"empty":3225,"full":242,"on_shipper":164,"on_consignee":673,"shortage":0,"acc_shortage":0,"booking":92,"acc_booking":38902,"fulfillment":92,"acc_fulfillment":38902,"transfer_cost":406.0,"port_name":"Qingdao","position":{"lat":36.066898,"lng":120.382698},"status":"surplus"},{"frame_index":607,"name":"ports_13","capacity":10000,"empty":167,"full":304,"on_shipper":19,"on_consignee":0,"shortage":0,"acc_shortage":286,"booking":11,"acc_booking":5098,"fulfillment":11,"acc_fulfillment":4812,"transfer_cost":0.0,"port_name":"San Antonio","position":{"lat":29.424349,"lng":-98.491142},"status":"surplus"},{"frame_index":607,"name":"ports_14","capacity":10000,"empty":1281,"full":130,"on_shipper":19,"on_consignee":0,"shortage":0,"acc_shortage":762,"booking":15,"acc_booking":5145,"fulfillment":15,"acc_fulfillment":4383,"transfer_cost":0.0,"port_name":"Santos","position":{"lat":-23.96083,"lng":-46.33361},"status":"surplus"},{"frame_index":607,"name":"ports_15","capacity":10000,"empty":3346,"full":1109,"on_shipper":163,"on_consignee":0,"shortage":0,"acc_shortage":0,"booking":82,"acc_booking":34004,"fulfillment":82,"acc_fulfillment":34004,"transfer_cost":0.0,"port_name":"Seattle","position":{"lat":47.608013,"lng":-122.335167},"status":"surplus"},{"frame_index":607,"name":"ports_16","capacity":10000,"empty":1333,"full":850,"on_shipper":181,"on_consignee":478,"shortage":0,"acc_shortage":470,"booking":105,"acc_booking":48407,"fulfillment":105,"acc_fulfillment":47937,"transfer_cost":136.0,"port_name":"Shanghai","position":{"lat":31.224361,"lng":121.46917},"status":"surplus"},{"frame_index":607,"name":"ports_17","capacity":10000,"empty":584,"full":462,"on_shipper":77,"on_consignee":0,"shortage":0,"acc_shortage":40,"booking":49,"acc_booking":19597,"fulfillment":49,"acc_fulfillment":19557,"transfer_cost":0.0,"port_name":"Singapore","position":{"lat":1.29027,"lng":103.851959},"status":"surplus"},{"frame_index":607,"name":"ports_18","capacity":10000,"empty":576,"full":191,"on_shipper":34,"on_consignee":0,"shortage":0,"acc_shortage":957,"booking":19,"acc_booking":7488,"fulfillment":19,"acc_fulfillment":6531,"transfer_cost":0.0,"port_name":"Sydney","position":{"lat":-33.865143,"lng":151.2099},"status":"surplus"},{"frame_index":607,"name":"ports_19","capacity":10000,"empty":1171,"full":155,"on_shipper":35,"on_consignee":22,"shortage":0,"acc_shortage":0,"booking":24,"acc_booking":9996,"fulfillment":24,"acc_fulfillment":9996,"transfer_cost":0.0,"port_name":"Vancouver","position":{"lat":49.246292,"lng":-123.116226},"status":"surplus"},{"frame_index":607,"name":"ports_20","capacity":10000,"empty":620,"full":881,"on_shipper":113,"on_consignee":63,"shortage":0,"acc_shortage":395,"booking":75,"acc_booking":33764,"fulfillment":75,"acc_fulfillment":33369,"transfer_cost":0.0,"port_name":"Yantian","position":{"lat":26.8533,"lng":119.8575},"status":"surplus"},{"frame_index":607,"name":"ports_21","capacity":10000,"empty":0,"full":1819,"on_shipper":0,"on_consignee":0,"shortage":85,"acc_shortage":3444,"booking":85,"acc_booking":32170,"fulfillment":0,"acc_fulfillment":28726,"transfer_cost":0.0,"port_name":"Yokohama","position":{"lat":35.443707,"lng":139.638031},"status":"demand"}]