[{"frame_index":863,"name":"ports_0","capacity":10000,"empty":2147,"full":1720,"on_shipper":99,"on_consignee":0,"shortage":0,"acc_shortage":522,"booking":63,"acc_booking":111951,"fulfillment":63,"acc_fulfillment":111429,"transfer_cost":0.0,"port_name":"Bremerhaven","position":{"lat":53.549999,"lng":8.583333},"status":"surplus"},{"frame_index":863,"name":"ports_1","capacity":10000,"empty":84,"full":212,"on_shipper":5,"on_consignee":0,"shortage":0,"acc_shortage":10,"booking":5,"acc_booking":7435,"fulfillment":5,"acc_fulfillment":7425,"transfer_cost":0.0,"port_name":"Durban","position":{"lat":-29.8579,"lng":31.0292},"status":"surplus"},{"frame_index":863,"name":"ports_2","capacity":10000,"empty":470,"full":231,"on_shipper":7,"on_consignee":0,"shortage":0,"acc_shortage":298,"booking":5,"acc_booking":7403,"fulfillment":5,"acc_fulfillment":7105,"transfer_cost":0.0,"port_name":"Itagual","position":{"lat":-22.85222,"lng":-43.77528},"status":"surplus"},{"frame_index":863,"name":"ports_3","capacity":10000,"empty":4197,"full":1704,"on_shipper":35,"on_consignee":0,"shortage":0,"acc_shortage":0,"booking":28,"acc_booking":42369,"fulfillment":28,"acc_fulfillment":42369,"transfer_cost":0.0,"port_name":"LeHavre","position":{"lat":49.490002,"lng":0.1},"status":"surplus"},{"frame_index":863,"name":"ports_4","capacity":10000,"empty":1553,"full":2068,"on_shipper":28,"on_consignee":0,"shortage":0,"acc_shortage":290,"booking":24,"acc_booking":35474,"fulfillment":24,"acc_fulfillment":35184,"transfer_cost":0.0,"port_name":"Los Angeles","position":{"lat":34.052235,"lng":-118.243683},"status":"surplus"},{"frame_index":863,"name":"ports_5","capacity":10000,"empty":548,"full":287,"on_shipper":28,"on_consignee":0,"shortage":0,"acc_shortage":123,"booking":22,"acc_booking":35586,"fulfillment":22,"acc_fulfillment":35463,"transfer_cost":0.0,"port_name":"Manzanillo","position":{"lat":19.11695,"lng":-104.34214},"status":"surplus"},{"frame_index":863,"name":"ports_6","capacity":10000,"empty":116,"full":380,"on_shipper":10,"on_consignee":0,"shortage":0,"acc_shortage":1654,"booking":8,"acc_booking":10914,"fulfillment":8,"acc_fulfillment":9260,"transfer_cost":0.0,"port_name":"Melbourne","position":{"lat":-37.840935,"lng":144.946457},"status":"surplus"},{"frame_index":863,"name":"ports_7","capacity":10000,"empty":622,"full":274,"on_shipper":7,"on_consignee":0,"shortage":0,"acc_shortage":0,"booking":7,"acc_booking":10926,"fulfillment":7,"acc_fulfillment":10926,"transfer_cost":0.0,"port_name":"Montreal","position":{"lat":45.516136,"lng":-73.65683},"status":"surplus"},{"frame_index":863,"name":"ports_8","capacity":10000,"empty":3762,"full":493,"on_shipper":19,"on_consignee":0,"shortage":0,"acc_shortage":136,"booking":14,"acc_booking":21362,"fulfillment":14,"acc_fulfillment":21226,"transfer_cost":0.0,"port_name":"New York","position":{"lat":40.73061,"lng":-73.935242},"status":"surplus"},{"frame_index":863,"name":"ports_9","capacity":10000,"empty":642,"full":945,"on_shipper":16,"on_consignee":0,"shortage":0,"acc_shortage":45,"booking":13,"acc_booking":21366,"fulfillment":13,"acc_fulfillment":21321,"transfer_cost":0.0,"port_name":"Oakland","position":{"lat":37.804363,"lng":-122.271111},"status":"surplus"},{"frame_index":863,"name":"ports_10","capacity":10000,"empty":1253,"full":223,"on_shipper":10,"on_consignee":0,"shortage":0,"acc_shortage":314,"booking":7,"acc_booking":10960,"fulfillment":7,"acc_fulfillment":10646,"transfer_cost":0.0,"port_name":"Prince Rupert","position":{"lat":54.312519,"lng":-130.305405},"status":"surplus"},{"frame_index":863,"name":"ports_11","capacity":10000,"empty":989,"full":2389,"on_shipper":39,"on_consignee":0,"shortage":0,"acc_shortage":204,"booking":27,"acc_booking":42323,"fulfillment":27,"acc_fulfillment":42119,"transfer_cost":0.0,"port_name":"Pusan","position":{"lat":35.166668,"lng":129.066666},"status":"surplus"},{"frame_index":863,"name":"ports_12","capacity":10000,"empty":1187,"full":3019,"on_shipper":51,"on_consignee":128,"shortage":0,"acc_shortage":0,"booking":40,"acc_booking":56567,"fulfillment":40,"acc_fulfillment":56567,"transfer_cost":248.0,"port_name":"Qingdao","position":{"lat":36.066898,"lng":120.382698},"status":"surplus"},{"frame_index":863,"name":"ports_13","capacity":10000,"empty":337,"full":182,"on_shipper":8,"on_consignee":0,"shortage":0,"acc_shortage":449,"booking":5,"acc_booking":7410,"fulfillment":5,"acc_fulfillment":6961,"transfer_cost":0.0,"port_name":"San Antonio","position":{"lat":29.424349,"lng":-98.491142},"status":"surplus"},{"frame_index":863,"name":"ports_14","capacity":10000,"empty":191,"full":420,"on_shipper":6,"on_consignee":0,"shortage":0,"acc_shortage":819,"booking":5,"acc_booking":7459,"fulfillment":5,"acc_fulfillment":6640,"transfer_cost":0.0,"port_name":"Santos","position":{"lat":-23.96083,"lng":-46.33361},"status":"surplus"},{"frame_index":863,"name":"ports_15","capacity":10000,"empty":446,"full":818,"on_shipper":44,"on_consignee":27,"shortage":0,"acc_shortage":0,"booking":34,"acc_booking":49424,"fulfillment":34,"acc_fulfillment":49424,"transfer_cost":0.0,"port_name":"Seattle","position":{"lat":47.608013,"lng":-122.335167},"status":"surplus"},{"frame_index":863,"name":"ports_16","capacity":10000,"empty":498,"full":2541,"on_shipper":67,"on_consignee":260,"shortage":0,"acc_shortage":760,"booking":46,"acc_booking":70353,"fulfillment":46,"acc_fulfillment":69593,"transfer_cost":0.0,"port_name":"Shanghai","position":{"lat":31.224361,"lng":121.46917},"status":"surplus"},{"frame_index":863,"name":"ports_17","capacity":10000,"empty":994,"full":827,"on_shipper":24,"on_consignee":385,"shortage":0,"acc_shortage":283,"booking":19,"acc_booking":28452,"fulfillment":19,"acc_fulfillment":28169,"transfer_cost":814.0,"port_name":"Singapore","position":{"lat":1.29027,"lng":103.851959},"status":"surplus"},{"frame_index":863,"name":"ports_18","capacity":10000,"empty":342,"full":900,"on_shipper":8,"on_consignee":0,"shortage":0,"acc_shortage":1374,"booking":6,"acc_booking":10940,"fulfillment":6,"acc_fulfillment":9566,"transfer_cost":0.0,"port_name":"Sydney","position":{"lat":-33.865143,"lng":151.2099},"status":"surplus"},{"frame_index":863,"name":"ports_19","capacity":10000,"empty":779,"full":717,"on_shipper":14,"on_consignee":0,"shortage":0,"acc_shortage":0,"booking":10,"acc_booking":14475,"fulfillment":10,"acc_fulfillment":14475,"transfer_cost":0.0,"port_name":"Vancouver","position":{"lat":49.246292,"lng":-123.116226},"status":"surplus"},{"frame_index":863,"name":"ports_20","capacity":10000,"empty":99,"full":1642,"on_shipper":45,"on_consignee":0,"shortage":0,"acc_shortage":956,"booking":34,"acc_booking":49148,"fulfillment":34,"acc_fulfillment":48192,"transfer_cost":0.0,"port_name":"Yantian","position":{"lat":26.8533,"lng":119.8575},"status":"demand"},{"frame_index":863,"name":"ports_21","capacity":10000,"empty":516,"full":130,"on_shipper":40,"on_consignee":0,"shortage":0,"acc_shortage":7067,"booking":29,"acc_booking":46945,"fulfillment":29,"acc_fulfillment":39878,"transfer_cost":0.0,"port_name":"Yokohama","position":{"lat":35.443707,"lng":139.638031},"status":"surplus"}]