[{"frame_index":631,"name":"ports_0","capacity":10000,"empty":2738,"full":4098,"on_shipper":443,"on_consignee":0,"shortage":0,"acc_shortage":522,"booking":266,"acc_booking":81758,"fulfillment":266,"acc_fulfillment":81236,"transfer_cost":0.0,"port_name":"Bremerhaven","position":{"lat":53.549999,"lng":8.583333},"status":"surplus"},{"frame_index":631,"name":"ports_1","capacity":10000,"empty":153,"full":423,"on_shipper":27,"on_consignee":0,"shortage":0,"acc_shortage":0,"booking":17,"acc_booking":5432,"fulfillment":17,"acc_fulfillment":5432,"transfer_cost":0.0,"port_name":"Durban","position":{"lat":-29.8579,"lng":31.0292},"status":"surplus"},{"frame_index":631,"name":"ports_2","capacity":10000,"empty":118,"full":97,"on_shipper":25,"on_consignee":0,"shortage":0,"acc_shortage":233,"booking":17,"acc_booking":5410,"fulfillment":17,"acc_fulfillment":5177,"transfer_cost":0.0,"port_name":"Itagual","position":{"lat":-22.85222,"lng":-43.77528},"status":"balance"},{"frame_index":631,"name":"ports_3","capacity":10000,"empty":456,"full":1907,"on_shipper":125,"on_consignee":0,"shortage":0,"acc_shortage":0,"booking":93,"acc_booking":30932,"fulfillment":93,"acc_fulfillment":30932,"transfer_cost":0.0,"port_name":"LeHavre","position":{"lat":49.490002,"lng":0.1},"status":"balance"},{"frame_index":631,"name":"ports_4","capacity":10000,"empty":144,"full":1655,"on_shipper":124,"on_consignee":0,"shortage":0,"acc_shortage":0,"booking":79,"acc_booking":25885,"fulfillment":79,"acc_fulfillment":25885,"transfer_cost":0.0,"port_name":"Los Angeles","position":{"lat":34.052235,"lng":-118.243683},"status":"demand"},{"frame_index":631,"name":"ports_5","capacity":10000,"empty":1490,"full":1070,"on_shipper":135,"on_consignee":0,"shortage":0,"acc_shortage":123,"booking":88,"acc_booking":25957,"fulfillment":88,"acc_fulfillment":25834,"transfer_cost":0.0,"port_name":"Manzanillo","position":{"lat":19.11695,"lng":-104.34214},"status":"surplus"},{"frame_index":631,"name":"ports_6","capacity":10000,"empty":490,"full":89,"on_shipper":49,"on_consignee":0,"shortage":0,"acc_shortage":1336,"booking":24,"acc_booking":7965,"fulfillment":24,"acc_fulfillment":6629,"transfer_cost":0.0,"port_name":"Melbourne","position":{"lat":-37.840935,"lng":144.946457},"status":"surplus"},{"frame_index":631,"name":"ports_7","capacity":10000,"empty":1053,"full":409,"on_shipper":49,"on_consignee":0,"shortage":0,"acc_shortage":0,"booking":24,"acc_booking":7971,"fulfillment":24,"acc_fulfillment":7971,"transfer_cost":0.0,"port_name":"Montreal","position":{"lat":45.516136,"lng":-73.65683},"status":"surplus"},{"frame_index":631,"name":"ports_8","capacity":10000,"empty":1694,"full":1156,"on_shipper":72,"on_consignee":0,"shortage":0,"acc_shortage":0,"booking":45,"acc_booking":15582,"fulfillment":45,"acc_fulfillment":15582,"transfer_cost":0.0,"port_name":"New York","position":{"lat":40.73061,"lng":-73.935242},"status":"surplus"},{"frame_index":631,"name":"ports_9","capacity":10000,"empty":1495,"full":75,"on_shipper":83,"on_consignee":0,"shortage":0,"acc_shortage":45,"booking":44,"acc_booking":15647,"fulfillment":44,"acc_fulfillment":15602,"transfer_cost":0.0,"port_name":"Oakland","position":{"lat":37.804363,"lng":-122.271111},"status":"surplus"},{"frame_index":631,"name":"ports_10","capacity":10000,"empty":1349,"full":428,"on_shipper":28,"on_consignee":0,"shortage":0,"acc_shortage":314,"booking":23,"acc_booking":7992,"fulfillment":23,"acc_fulfillment":7678,"transfer_cost":0.0,"port_name":"Prince Rupert","position":{"lat":54.312519,"lng":-130.305405},"status":"surplus"},{"frame_index":631,"name":"ports_11","capacity":10000,"empty":3103,"full":856,"on_shipper":109,"on_consignee":221,"shortage":0,"acc_shortage":204,"booking":94,"acc_booking":30889,"fulfillment":94,"acc_fulfillment":30685,"transfer_cost":0.0,"port_name":"Pusan","position":{"lat":35.166668,"lng":129.066666},"status":"surplus"},{"frame_index":631,"name":"ports_12","capacity":10000,"empty":1863,"full":1727,"on_shipper":188,"on_consignee":174,"shortage":0,"acc_shortage":0,"booking":117,"acc_booking":41258,"fulfillment":117,"acc_fulfillment":41258,"transfer_cost":0.0,"port_name":"Qingdao","position":{"lat":36.066898,"lng":120.382698},"status":"surplus"},{"frame_index":631,"name":"ports_13","capacity":10000,"empty":427,"full":79,"on_shipper":27,"on_consignee":0,"shortage":0,"acc_shortage":325,"booking":15,"acc_booking":5410,"fulfillment":15,"acc_fulfillment":5085,"transfer_cost":0.0,"port_name":"San Antonio","position":{"lat":29.424349,"lng":-98.491142},"status":"surplus"},{"frame_index":631,"name":"ports_14","capacity":10000,"empty":973,"full":436,"on_shipper":21,"on_consignee":0,"shortage":0,"acc_shortage":762,"booking":17,"acc_booking":5453,"fulfillment":17,"acc_fulfillment":4691,"transfer_cost":0.0,"port_name":"Santos","position":{"lat":-23.96083,"lng":-46.33361},"status":"surplus"},{"frame_index":631,"name":"ports_15","capacity":10000,"empty":1314,"full":3102,"on_shipper":202,"on_consignee":0,"shortage":0,"acc_shortage":0,"booking":114,"acc_booking":36036,"fulfillment":114,"acc_fulfillment":36036,"transfer_cost":0.0,"port_name":"Seattle","position":{"lat":47.608013,"lng":-122.335167},"status":"surplus"},{"frame_index":631,"name":"ports_16","capacity":10000,"empty":0,"full":1859,"on_shipper":128,"on_consignee":4,"shortage":103,"acc_shortage":573,"booking":159,"acc_booking":51328,"fulfillment":56,"acc_fulfillment":50755,"transfer_cost":0.0,"port_name":"Shanghai","position":{"lat":31.224361,"lng":121.46917},"status":"demand"},{"frame_index":631,"name":"ports_17","capacity":10000,"empty":0,"full":607,"on_shipper":15,"on_consignee":69,"shortage":48,"acc_shortage":283,"booking":63,"acc_booking":20774,"fulfillment":15,"acc_fulfillment":20491,"transfer_cost":0.0,"port_name":"Singapore","position":{"lat":1.29027,"lng":103.851959},"status":"demand"},{"frame_index":631,"name":"ports_18","capacity":10000,"empty":191,"full":369,"on_shipper":39,"on_consignee":0,"shortage":0,"acc_shortage":957,"booking":23,"acc_booking":7938,"fulfillment":23,"acc_fulfillment":6981,"transfer_cost":0.0,"port_name":"Sydney","position":{"lat":-33.865143,"lng":151.2099},"status":"surplus"},{"frame_index":631,"name":"ports_19","capacity":10000,"empty":812,"full":548,"on_shipper":40,"on_consignee":0,"shortage":0,"acc_shortage":0,"booking":32,"acc_booking":10583,"fulfillment":32,"acc_fulfillment":10583,"transfer_cost":0.0,"port_name":"Vancouver","position":{"lat":49.246292,"lng":-123.116226},"status":"surplus"},{"frame_index":631,"name":"ports_20","capacity":10000,"empty":716,"full":747,"on_shipper":146,"on_consignee":71,"shortage":0,"acc_shortage":395,"booking":97,"acc_booking":35758,"fulfillment":97,"acc_fulfillment":35363,"transfer_cost":0.0,"port_name":"Yantian","position":{"lat":26.8533,"lng":119.8575},"status":"surplus"},{"frame_index":631,"name":"ports_21","capacity":10000,"empty":664,"full":1728,"on_shipper":212,"on_consignee":0,"shortage":0,"acc_shortage":3563,"booking":110,"acc_booking":34239,"fulfillment":110,"acc_fulfillment":30676,"transfer_cost":0.0,"port_name":"Yokohama","position":{"lat":35.443707,"lng":139.638031},"status":"surplus"}]