[{"frame_index":531,"name":"ports_0","capacity":10000,"empty":3900,"full":2513,"on_shipper":252,"on_consignee":0,"shortage":0,"acc_shortage":522,"booking":151,"acc_booking":68994,"fulfillment":151,"acc_fulfillment":68472,"transfer_cost":0.0,"port_name":"Bremerhaven","position":{"lat":53.549999,"lng":8.583333},"status":"surplus"},{"frame_index":531,"name":"ports_1","capacity":10000,"empty":554,"full":28,"on_shipper":16,"on_consignee":0,"shortage":0,"acc_shortage":0,"booking":10,"acc_booking":4606,"fulfillment":10,"acc_fulfillment":4606,"transfer_cost":0.0,"port_name":"Durban","position":{"lat":-29.8579,"lng":31.0292},"status":"surplus"},{"frame_index":531,"name":"ports_2","capacity":10000,"empty":601,"full":407,"on_shipper":19,"on_consignee":0,"shortage":0,"acc_shortage":233,"booking":10,"acc_booking":4574,"fulfillment":10,"acc_fulfillment":4341,"transfer_cost":0.0,"port_name":"Itagual","position":{"lat":-22.85222,"lng":-43.77528},"status":"surplus"},{"frame_index":531,"name":"ports_3","capacity":10000,"empty":1413,"full":1528,"on_shipper":105,"on_consignee":0,"shortage":0,"acc_shortage":0,"booking":58,"acc_booking":26187,"fulfillment":58,"acc_fulfillment":26187,"transfer_cost":0.0,"port_name":"LeHavre","position":{"lat":49.490002,"lng":0.1},"status":"surplus"},{"frame_index":531,"name":"ports_4","capacity":10000,"empty":130,"full":0,"on_shipper":68,"on_consignee":2336,"shortage":0,"acc_shortage":0,"booking":50,"acc_booking":21893,"fulfillment":50,"acc_fulfillment":21893,"transfer_cost":518.0,"port_name":"Los Angeles","position":{"lat":34.052235,"lng":-118.243683},"status":"demand"},{"frame_index":531,"name":"ports_5","capacity":10000,"empty":619,"full":44,"on_shipper":64,"on_consignee":0,"shortage":0,"acc_shortage":123,"booking":42,"acc_booking":21958,"fulfillment":42,"acc_fulfillment":21835,"transfer_cost":0.0,"port_name":"Manzanillo","position":{"lat":19.11695,"lng":-104.34214},"status":"surplus"},{"frame_index":531,"name":"ports_6","capacity":10000,"empty":0,"full":420,"on_shipper":0,"on_consignee":0,"shortage":15,"acc_shortage":1063,"booking":15,"acc_booking":6737,"fulfillment":0,"acc_fulfillment":5674,"transfer_cost":0.0,"port_name":"Melbourne","position":{"lat":-37.840935,"lng":144.946457},"status":"demand"},{"frame_index":531,"name":"ports_7","capacity":10000,"empty":1805,"full":113,"on_shipper":15,"on_consignee":0,"shortage":0,"acc_shortage":0,"booking":15,"acc_booking":6742,"fulfillment":15,"acc_fulfillment":6742,"transfer_cost":0.0,"port_name":"Montreal","position":{"lat":45.516136,"lng":-73.65683},"status":"surplus"},{"frame_index":531,"name":"ports_8","capacity":10000,"empty":212,"full":1078,"on_shipper":56,"on_consignee":0,"shortage":0,"acc_shortage":0,"booking":31,"acc_booking":13178,"fulfillment":31,"acc_fulfillment":13178,"transfer_cost":0.0,"port_name":"New York","position":{"lat":40.73061,"lng":-73.935242},"status":"surplus"},{"frame_index":531,"name":"ports_9","capacity":10000,"empty":352,"full":1439,"on_shipper":48,"on_consignee":0,"shortage":0,"acc_shortage":45,"booking":34,"acc_booking":13204,"fulfillment":34,"acc_fulfillment":13159,"transfer_cost":0.0,"port_name":"Oakland","position":{"lat":37.804363,"lng":-122.271111},"status":"surplus"},{"frame_index":531,"name":"ports_10","capacity":10000,"empty":817,"full":307,"on_shipper":24,"on_consignee":0,"shortage":0,"acc_shortage":314,"booking":17,"acc_booking":6754,"fulfillment":17,"acc_fulfillment":6440,"transfer_cost":0.0,"port_name":"Prince Rupert","position":{"lat":54.312519,"lng":-130.305405},"status":"surplus"},{"frame_index":531,"name":"ports_11","capacity":10000,"empty":688,"full":2790,"on_shipper":84,"on_consignee":0,"shortage":0,"acc_shortage":204,"booking":57,"acc_booking":26132,"fulfillment":57,"acc_fulfillment":25928,"transfer_cost":0.0,"port_name":"Pusan","position":{"lat":35.166668,"lng":129.066666},"status":"surplus"},{"frame_index":531,"name":"ports_12","capacity":10000,"empty":1660,"full":3082,"on_shipper":116,"on_consignee":280,"shortage":0,"acc_shortage":0,"booking":72,"acc_booking":34940,"fulfillment":72,"acc_fulfillment":34940,"transfer_cost":0.0,"port_name":"Qingdao","position":{"lat":36.066898,"lng":120.382698},"status":"surplus"},{"frame_index":531,"name":"ports_13","capacity":10000,"empty":302,"full":72,"on_shipper":17,"on_consignee":0,"shortage":0,"acc_shortage":286,"booking":11,"acc_booking":4570,"fulfillment":11,"acc_fulfillment":4284,"transfer_cost":0.0,"port_name":"San Antonio","position":{"lat":29.424349,"lng":-98.491142},"status":"surplus"},{"frame_index":531,"name":"ports_14","capacity":10000,"empty":318,"full":273,"on_shipper":22,"on_consignee":0,"shortage":0,"acc_shortage":762,"booking":11,"acc_booking":4616,"fulfillment":11,"acc_fulfillment":3854,"transfer_cost":0.0,"port_name":"Santos","position":{"lat":-23.96083,"lng":-46.33361},"status":"surplus"},{"frame_index":531,"name":"ports_15","capacity":10000,"empty":2676,"full":2125,"on_shipper":84,"on_consignee":0,"shortage":0,"acc_shortage":0,"booking":71,"acc_booking":30494,"fulfillment":71,"acc_fulfillment":30494,"transfer_cost":0.0,"port_name":"Seattle","position":{"lat":47.608013,"lng":-122.335167},"status":"surplus"},{"frame_index":531,"name":"ports_16","capacity":10000,"empty":125,"full":2566,"on_shipper":140,"on_consignee":0,"shortage":0,"acc_shortage":165,"booking":90,"acc_booking":43430,"fulfillment":90,"acc_fulfillment":43265,"transfer_cost":0.0,"port_name":"Shanghai","position":{"lat":31.224361,"lng":121.46917},"status":"demand"},{"frame_index":531,"name":"ports_17","capacity":10000,"empty":1370,"full":280,"on_shipper":64,"on_consignee":3,"shortage":0,"acc_shortage":40,"booking":40,"acc_booking":17568,"fulfillment":40,"acc_fulfillment":17528,"transfer_cost":0.0,"port_name":"Singapore","position":{"lat":1.29027,"lng":103.851959},"status":"surplus"},{"frame_index":531,"name":"ports_18","capacity":10000,"empty":577,"full":32,"on_shipper":21,"on_consignee":0,"shortage":0,"acc_shortage":957,"booking":16,"acc_booking":6709,"fulfillment":16,"acc_fulfillment":5752,"transfer_cost":0.0,"port_name":"Sydney","position":{"lat":-33.865143,"lng":151.2099},"status":"surplus"},{"frame_index":531,"name":"ports_19","capacity":10000,"empty":683,"full":87,"on_shipper":22,"on_consignee":0,"shortage":0,"acc_shortage":0,"booking":19,"acc_booking":8961,"fulfillment":19,"acc_fulfillment":8961,"transfer_cost":0.0,"port_name":"Vancouver","position":{"lat":49.246292,"lng":-123.116226},"status":"surplus"},{"frame_index":531,"name":"ports_20","capacity":10000,"empty":573,"full":1648,"on_shipper":85,"on_consignee":0,"shortage":0,"acc_shortage":350,"booking":63,"acc_booking":30304,"fulfillment":63,"acc_fulfillment":29954,"transfer_cost":0.0,"port_name":"Yantian","position":{"lat":26.8533,"lng":119.8575},"status":"surplus"},{"frame_index":531,"name":"ports_21","capacity":10000,"empty":369,"full":457,"on_shipper":88,"on_consignee":87,"shortage":0,"acc_shortage":3190,"booking":69,"acc_booking":28981,"fulfillment":69,"acc_fulfillment":25791,"transfer_cost":232.0,"port_name":"Yokohama","position":{"lat":35.443707,"lng":139.638031},"status":"balance"}]