[{"frame_index":516,"name":"ports_0","capacity":10000,"empty":3090,"full":1796,"on_shipper":259,"on_consignee":0,"shortage":0,"acc_shortage":522,"booking":220,"acc_booking":66436,"fulfillment":220,"acc_fulfillment":65914,"transfer_cost":0.0,"port_name":"Bremerhaven","position":{"lat":53.549999,"lng":8.583333},"status":"surplus"},{"frame_index":516,"name":"ports_1","capacity":10000,"empty":329,"full":86,"on_shipper":20,"on_consignee":0,"shortage":0,"acc_shortage":0,"booking":15,"acc_booking":4434,"fulfillment":15,"acc_fulfillment":4434,"transfer_cost":0.0,"port_name":"Durban","position":{"lat":-29.8579,"lng":31.0292},"status":"surplus"},{"frame_index":516,"name":"ports_2","capacity":10000,"empty":775,"full":229,"on_shipper":23,"on_consignee":0,"shortage":0,"acc_shortage":233,"booking":14,"acc_booking":4400,"fulfillment":14,"acc_fulfillment":4167,"transfer_cost":0.0,"port_name":"Itagual","position":{"lat":-22.85222,"lng":-43.77528},"status":"surplus"},{"frame_index":516,"name":"ports_3","capacity":10000,"empty":1417,"full":1185,"on_shipper":127,"on_consignee":0,"shortage":0,"acc_shortage":0,"booking":81,"acc_booking":25173,"fulfillment":81,"acc_fulfillment":25173,"transfer_cost":0.0,"port_name":"LeHavre","position":{"lat":49.490002,"lng":0.1},"status":"surplus"},{"frame_index":516,"name":"ports_4","capacity":10000,"empty":1200,"full":2358,"on_shipper":95,"on_consignee":0,"shortage":0,"acc_shortage":0,"booking":67,"acc_booking":21042,"fulfillment":67,"acc_fulfillment":21042,"transfer_cost":0.0,"port_name":"Los Angeles","position":{"lat":34.052235,"lng":-118.243683},"status":"surplus"},{"frame_index":516,"name":"ports_5","capacity":10000,"empty":1158,"full":978,"on_shipper":107,"on_consignee":0,"shortage":0,"acc_shortage":123,"booking":60,"acc_booking":21111,"fulfillment":60,"acc_fulfillment":20988,"transfer_cost":0.0,"port_name":"Manzanillo","position":{"lat":19.11695,"lng":-104.34214},"status":"surplus"},{"frame_index":516,"name":"ports_6","capacity":10000,"empty":33,"full":367,"on_shipper":20,"on_consignee":0,"shortage":0,"acc_shortage":837,"booking":20,"acc_booking":6478,"fulfillment":20,"acc_fulfillment":5641,"transfer_cost":0.0,"port_name":"Melbourne","position":{"lat":-37.840935,"lng":144.946457},"status":"demand"},{"frame_index":516,"name":"ports_7","capacity":10000,"empty":1658,"full":563,"on_shipper":29,"on_consignee":0,"shortage":0,"acc_shortage":0,"booking":20,"acc_booking":6480,"fulfillment":20,"acc_fulfillment":6480,"transfer_cost":0.0,"port_name":"Montreal","position":{"lat":45.516136,"lng":-73.65683},"status":"surplus"},{"frame_index":516,"name":"ports_8","capacity":10000,"empty":729,"full":562,"on_shipper":55,"on_consignee":0,"shortage":0,"acc_shortage":0,"booking":39,"acc_booking":12661,"fulfillment":39,"acc_fulfillment":12661,"transfer_cost":0.0,"port_name":"New York","position":{"lat":40.73061,"lng":-73.935242},"status":"surplus"},{"frame_index":516,"name":"ports_9","capacity":10000,"empty":882,"full":900,"on_shipper":57,"on_consignee":0,"shortage":0,"acc_shortage":45,"booking":40,"acc_booking":12674,"fulfillment":40,"acc_fulfillment":12629,"transfer_cost":0.0,"port_name":"Oakland","position":{"lat":37.804363,"lng":-122.271111},"status":"surplus"},{"frame_index":516,"name":"ports_10","capacity":10000,"empty":1084,"full":45,"on_shipper":19,"on_consignee":0,"shortage":0,"acc_shortage":314,"booking":19,"acc_booking":6487,"fulfillment":19,"acc_fulfillment":6173,"transfer_cost":0.0,"port_name":"Prince Rupert","position":{"lat":54.312519,"lng":-130.305405},"status":"surplus"},{"frame_index":516,"name":"ports_11","capacity":10000,"empty":1444,"full":2437,"on_shipper":89,"on_consignee":0,"shortage":0,"acc_shortage":204,"booking":78,"acc_booking":25105,"fulfillment":78,"acc_fulfillment":24901,"transfer_cost":0.0,"port_name":"Pusan","position":{"lat":35.166668,"lng":129.066666},"status":"surplus"},{"frame_index":516,"name":"ports_12","capacity":10000,"empty":3023,"full":2205,"on_shipper":143,"on_consignee":0,"shortage":0,"acc_shortage":0,"booking":93,"acc_booking":33529,"fulfillment":93,"acc_fulfillment":33529,"transfer_cost":0.0,"port_name":"Qingdao","position":{"lat":36.066898,"lng":120.382698},"status":"surplus"},{"frame_index":516,"name":"ports_13","capacity":10000,"empty":592,"full":25,"on_shipper":19,"on_consignee":0,"shortage":0,"acc_shortage":286,"booking":12,"acc_booking":4394,"fulfillment":12,"acc_fulfillment":4108,"transfer_cost":0.0,"port_name":"San Antonio","position":{"lat":29.424349,"lng":-98.491142},"status":"surplus"},{"frame_index":516,"name":"ports_14","capacity":10000,"empty":500,"full":93,"on_shipper":20,"on_consignee":0,"shortage":0,"acc_shortage":762,"booking":14,"acc_booking":4434,"fulfillment":14,"acc_fulfillment":3672,"transfer_cost":0.0,"port_name":"Santos","position":{"lat":-23.96083,"lng":-46.33361},"status":"surplus"},{"frame_index":516,"name":"ports_15","capacity":10000,"empty":3872,"full":865,"on_shipper":148,"on_consignee":0,"shortage":0,"acc_shortage":0,"booking":92,"acc_booking":29298,"fulfillment":92,"acc_fulfillment":29298,"transfer_cost":0.0,"port_name":"Seattle","position":{"lat":47.608013,"lng":-122.335167},"status":"surplus"},{"frame_index":516,"name":"ports_16","capacity":10000,"empty":368,"full":2033,"on_shipper":241,"on_consignee":0,"shortage":0,"acc_shortage":70,"booking":136,"acc_booking":41840,"fulfillment":136,"acc_fulfillment":41770,"transfer_cost":0.0,"port_name":"Shanghai","position":{"lat":31.224361,"lng":121.46917},"status":"demand"},{"frame_index":516,"name":"ports_17","capacity":10000,"empty":616,"full":663,"on_shipper":74,"on_consignee":377,"shortage":0,"acc_shortage":40,"booking":53,"acc_booking":16888,"fulfillment":53,"acc_fulfillment":16848,"transfer_cost":709.0,"port_name":"Singapore","position":{"lat":1.29027,"lng":103.851959},"status":"surplus"},{"frame_index":516,"name":"ports_18","capacity":10000,"empty":14,"full":775,"on_shipper":40,"on_consignee":0,"shortage":0,"acc_shortage":774,"booking":21,"acc_booking":6450,"fulfillment":21,"acc_fulfillment":5676,"transfer_cost":0.0,"port_name":"Sydney","position":{"lat":-33.865143,"lng":151.2099},"status":"demand"},{"frame_index":516,"name":"ports_19","capacity":10000,"empty":391,"full":454,"on_shipper":33,"on_consignee":0,"shortage":0,"acc_shortage":0,"booking":27,"acc_booking":8617,"fulfillment":27,"acc_fulfillment":8617,"transfer_cost":0.0,"port_name":"Vancouver","position":{"lat":49.246292,"lng":-123.116226},"status":"surplus"},{"frame_index":516,"name":"ports_20","capacity":10000,"empty":523,"full":1410,"on_shipper":131,"on_consignee":0,"shortage":0,"acc_shortage":350,"booking":101,"acc_booking":29118,"fulfillment":101,"acc_fulfillment":28768,"transfer_cost":0.0,"port_name":"Yantian","position":{"lat":26.8533,"lng":119.8575},"status":"balance"},{"frame_index":516,"name":"ports_21","capacity":10000,"empty":65,"full":2818,"on_shipper":131,"on_consignee":0,"shortage":0,"acc_shortage":2740,"booking":96,"acc_booking":27794,"fulfillment":96,"acc_fulfillment":25054,"transfer_cost":0.0,"port_name":"Yokohama","position":{"lat":35.443707,"lng":139.638031},"status":"demand"}]