[{"frame_index":513,"name":"ports_0","capacity":10000,"empty":1333,"full":1382,"on_shipper":132,"on_consignee":2298,"shortage":0,"acc_shortage":522,"booking":126,"acc_booking":65895,"fulfillment":126,"acc_fulfillment":65373,"transfer_cost":0.0,"port_name":"Bremerhaven","position":{"lat":53.549999,"lng":8.583333},"status":"surplus"},{"frame_index":513,"name":"ports_1","capacity":10000,"empty":365,"full":58,"on_shipper":12,"on_consignee":0,"shortage":0,"acc_shortage":0,"booking":9,"acc_booking":4398,"fulfillment":9,"acc_fulfillment":4398,"transfer_cost":0.0,"port_name":"Durban","position":{"lat":-29.8579,"lng":31.0292},"status":"surplus"},{"frame_index":513,"name":"ports_2","capacity":10000,"empty":810,"full":207,"on_shipper":10,"on_consignee":0,"shortage":0,"acc_shortage":233,"booking":8,"acc_booking":4365,"fulfillment":8,"acc_fulfillment":4132,"transfer_cost":0.0,"port_name":"Itagual","position":{"lat":-22.85222,"lng":-43.77528},"status":"surplus"},{"frame_index":513,"name":"ports_3","capacity":10000,"empty":1623,"full":1047,"on_shipper":59,"on_consignee":0,"shortage":0,"acc_shortage":0,"booking":49,"acc_booking":24967,"fulfillment":49,"acc_fulfillment":24967,"transfer_cost":0.0,"port_name":"LeHavre","position":{"lat":49.490002,"lng":0.1},"status":"surplus"},{"frame_index":513,"name":"ports_4","capacity":10000,"empty":1372,"full":2222,"on_shipper":59,"on_consignee":0,"shortage":0,"acc_shortage":0,"booking":40,"acc_booking":20870,"fulfillment":40,"acc_fulfillment":20870,"transfer_cost":0.0,"port_name":"Los Angeles","position":{"lat":34.052235,"lng":-118.243683},"status":"surplus"},{"frame_index":513,"name":"ports_5","capacity":10000,"empty":1321,"full":875,"on_shipper":47,"on_consignee":0,"shortage":0,"acc_shortage":123,"booking":38,"acc_booking":20948,"fulfillment":38,"acc_fulfillment":20825,"transfer_cost":0.0,"port_name":"Manzanillo","position":{"lat":19.11695,"lng":-104.34214},"status":"surplus"},{"frame_index":513,"name":"ports_6","capacity":10000,"empty":85,"full":318,"on_shipper":17,"on_consignee":0,"shortage":0,"acc_shortage":837,"booking":13,"acc_booking":6426,"fulfillment":13,"acc_fulfillment":5589,"transfer_cost":0.0,"port_name":"Melbourne","position":{"lat":-37.840935,"lng":144.946457},"status":"balance"},{"frame_index":513,"name":"ports_7","capacity":10000,"empty":1710,"full":528,"on_shipper":12,"on_consignee":0,"shortage":0,"acc_shortage":0,"booking":12,"acc_booking":6428,"fulfillment":12,"acc_fulfillment":6428,"transfer_cost":0.0,"port_name":"Montreal","position":{"lat":45.516136,"lng":-73.65683},"status":"surplus"},{"frame_index":513,"name":"ports_8","capacity":10000,"empty":830,"full":480,"on_shipper":36,"on_consignee":0,"shortage":0,"acc_shortage":0,"booking":25,"acc_booking":12560,"fulfillment":25,"acc_fulfillment":12560,"transfer_cost":0.0,"port_name":"New York","position":{"lat":40.73061,"lng":-73.935242},"status":"surplus"},{"frame_index":513,"name":"ports_9","capacity":10000,"empty":990,"full":818,"on_shipper":31,"on_consignee":0,"shortage":0,"acc_shortage":45,"booking":25,"acc_booking":12566,"fulfillment":25,"acc_fulfillment":12521,"transfer_cost":0.0,"port_name":"Oakland","position":{"lat":37.804363,"lng":-122.271111},"status":"surplus"},{"frame_index":513,"name":"ports_10","capacity":10000,"empty":1124,"full":0,"on_shipper":18,"on_consignee":6,"shortage":0,"acc_shortage":314,"booking":13,"acc_booking":6441,"fulfillment":13,"acc_fulfillment":6127,"transfer_cost":41.0,"port_name":"Prince Rupert","position":{"lat":54.312519,"lng":-130.305405},"status":"surplus"},{"frame_index":513,"name":"ports_11","capacity":10000,"empty":1649,"full":2264,"on_shipper":57,"on_consignee":0,"shortage":0,"acc_shortage":204,"booking":47,"acc_booking":24900,"fulfillment":47,"acc_fulfillment":24696,"transfer_cost":0.0,"port_name":"Pusan","position":{"lat":35.166668,"lng":129.066666},"status":"surplus"},{"frame_index":513,"name":"ports_12","capacity":10000,"empty":3063,"full":2216,"on_shipper":92,"on_consignee":0,"shortage":0,"acc_shortage":0,"booking":72,"acc_booking":33282,"fulfillment":72,"acc_fulfillment":33282,"transfer_cost":0.0,"port_name":"Qingdao","position":{"lat":36.066898,"lng":120.382698},"status":"surplus"},{"frame_index":513,"name":"ports_13","capacity":10000,"empty":326,"full":0,"on_shipper":11,"on_consignee":299,"shortage":0,"acc_shortage":286,"booking":8,"acc_booking":4361,"fulfillment":8,"acc_fulfillment":4075,"transfer_cost":140.0,"port_name":"San Antonio","position":{"lat":29.424349,"lng":-98.491142},"status":"surplus"},{"frame_index":513,"name":"ports_14","capacity":10000,"empty":533,"full":71,"on_shipper":9,"on_consignee":0,"shortage":0,"acc_shortage":762,"booking":8,"acc_booking":4401,"fulfillment":8,"acc_fulfillment":3639,"transfer_cost":0.0,"port_name":"Santos","position":{"lat":-23.96083,"lng":-46.33361},"status":"surplus"},{"frame_index":513,"name":"ports_15","capacity":10000,"empty":4111,"full":698,"on_shipper":76,"on_consignee":0,"shortage":0,"acc_shortage":0,"booking":57,"acc_booking":29059,"fulfillment":57,"acc_fulfillment":29059,"transfer_cost":0.0,"port_name":"Seattle","position":{"lat":47.608013,"lng":-122.335167},"status":"surplus"},{"frame_index":513,"name":"ports_16","capacity":10000,"empty":706,"full":1828,"on_shipper":101,"on_consignee":7,"shortage":0,"acc_shortage":70,"booking":88,"acc_booking":41495,"fulfillment":88,"acc_fulfillment":41425,"transfer_cost":0.0,"port_name":"Shanghai","position":{"lat":31.224361,"lng":121.46917},"status":"surplus"},{"frame_index":513,"name":"ports_17","capacity":10000,"empty":1462,"full":822,"on_shipper":41,"on_consignee":0,"shortage":0,"acc_shortage":40,"booking":32,"acc_booking":16751,"fulfillment":32,"acc_fulfillment":16711,"transfer_cost":0.0,"port_name":"Singapore","position":{"lat":1.29027,"lng":103.851959},"status":"surplus"},{"frame_index":513,"name":"ports_18","capacity":10000,"empty":66,"full":750,"on_shipper":13,"on_consignee":0,"shortage":0,"acc_shortage":774,"booking":11,"acc_booking":6398,"fulfillment":11,"acc_fulfillment":5624,"transfer_cost":0.0,"port_name":"Sydney","position":{"lat":-33.865143,"lng":151.2099},"status":"balance"},{"frame_index":513,"name":"ports_19","capacity":10000,"empty":460,"full":398,"on_shipper":20,"on_consignee":0,"shortage":0,"acc_shortage":0,"booking":16,"acc_booking":8548,"fulfillment":16,"acc_fulfillment":8548,"transfer_cost":0.0,"port_name":"Vancouver","position":{"lat":49.246292,"lng":-123.116226},"status":"surplus"},{"frame_index":513,"name":"ports_20","capacity":10000,"empty":314,"full":1218,"on_shipper":72,"on_consignee":460,"shortage":0,"acc_shortage":350,"booking":59,"acc_booking":28867,"fulfillment":59,"acc_fulfillment":28517,"transfer_cost":0.0,"port_name":"Yantian","position":{"lat":26.8533,"lng":119.8575},"status":"balance"},{"frame_index":513,"name":"ports_21","capacity":10000,"empty":304,"full":2647,"on_shipper":63,"on_consignee":0,"shortage":0,"acc_shortage":2740,"booking":54,"acc_booking":27555,"fulfillment":54,"acc_fulfillment":24815,"transfer_cost":0.0,"port_name":"Yokohama","position":{"lat":35.443707,"lng":139.638031},"status":"balance"}]