[{"frame_index":87,"name":"ports_0","capacity":10000,"empty":4974,"full":2265,"on_shipper":147,"on_consignee":0,"shortage":0,"acc_shortage":0,"booking":133,"acc_booking":12419,"fulfillment":133,"acc_fulfillment":12419,"transfer_cost":0.0,"port_name":"Bremerhaven","position":{"lat":53.549999,"lng":8.583333},"status":"surplus"},{"frame_index":87,"name":"ports_1","capacity":10000,"empty":242,"full":591,"on_shipper":17,"on_consignee":0,"shortage":0,"acc_shortage":0,"booking":11,"acc_booking":830,"fulfillment":11,"acc_fulfillment":830,"transfer_cost":0.0,"port_name":"Durban","position":{"lat":-29.8579,"lng":31.0292},"status":"surplus"},{"frame_index":87,"name":"ports_2","capacity":10000,"empty":258,"full":446,"on_shipper":16,"on_consignee":0,"shortage":0,"acc_shortage":0,"booking":9,"acc_booking":822,"fulfillment":9,"acc_fulfillment":822,"transfer_cost":0.0,"port_name":"Itagual","position":{"lat":-22.85222,"lng":-43.77528},"status":"surplus"},{"frame_index":87,"name":"ports_3","capacity":10000,"empty":1399,"full":1534,"on_shipper":75,"on_consignee":0,"shortage":0,"acc_shortage":0,"booking":58,"acc_booking":4751,"fulfillment":58,"acc_fulfillment":4751,"transfer_cost":0.0,"port_name":"LeHavre","position":{"lat":49.490002,"lng":0.1},"status":"surplus"},{"frame_index":87,"name":"ports_4","capacity":10000,"empty":2087,"full":540,"on_shipper":76,"on_consignee":0,"shortage":0,"acc_shortage":0,"booking":48,"acc_booking":3963,"fulfillment":48,"acc_fulfillment":3963,"transfer_cost":0.0,"port_name":"Los Angeles","position":{"lat":34.052235,"lng":-118.243683},"status":"surplus"},{"frame_index":87,"name":"ports_5","capacity":10000,"empty":2153,"full":500,"on_shipper":73,"on_consignee":0,"shortage":0,"acc_shortage":0,"booking":43,"acc_booking":3925,"fulfillment":43,"acc_fulfillment":3925,"transfer_cost":0.0,"port_name":"Manzanillo","position":{"lat":19.11695,"lng":-104.34214},"status":"surplus"},{"frame_index":87,"name":"ports_6","capacity":10000,"empty":458,"full":241,"on_shipper":24,"on_consignee":0,"shortage":0,"acc_shortage":0,"booking":15,"acc_booking":1218,"fulfillment":15,"acc_fulfillment":1218,"transfer_cost":0.0,"port_name":"Melbourne","position":{"lat":-37.840935,"lng":144.946457},"status":"surplus"},{"frame_index":87,"name":"ports_7","capacity":10000,"empty":1646,"full":69,"on_shipper":22,"on_consignee":0,"shortage":0,"acc_shortage":0,"booking":14,"acc_booking":1213,"fulfillment":14,"acc_fulfillment":1213,"transfer_cost":0.0,"port_name":"Montreal","position":{"lat":45.516136,"lng":-73.65683},"status":"surplus"},{"frame_index":87,"name":"ports_8","capacity":10000,"empty":1573,"full":1240,"on_shipper":57,"on_consignee":0,"shortage":0,"acc_shortage":0,"booking":27,"acc_booking":2388,"fulfillment":27,"acc_fulfillment":2388,"transfer_cost":0.0,"port_name":"New York","position":{"lat":40.73061,"lng":-73.935242},"status":"surplus"},{"frame_index":87,"name":"ports_9","capacity":10000,"empty":820,"full":1635,"on_shipper":34,"on_consignee":0,"shortage":0,"acc_shortage":0,"booking":24,"acc_booking":2356,"fulfillment":24,"acc_fulfillment":2356,"transfer_cost":0.0,"port_name":"Oakland","position":{"lat":37.804363,"lng":-122.271111},"status":"surplus"},{"frame_index":87,"name":"ports_10","capacity":10000,"empty":623,"full":51,"on_shipper":25,"on_consignee":0,"shortage":0,"acc_shortage":0,"booking":15,"acc_booking":1218,"fulfillment":15,"acc_fulfillment":1218,"transfer_cost":0.0,"port_name":"Prince Rupert","position":{"lat":54.312519,"lng":-130.305405},"status":"surplus"},{"frame_index":87,"name":"ports_11","capacity":10000,"empty":1575,"full":1013,"on_shipper":87,"on_consignee":0,"shortage":0,"acc_shortage":0,"booking":58,"acc_booking":4739,"fulfillment":58,"acc_fulfillment":4739,"transfer_cost":0.0,"port_name":"Pusan","position":{"lat":35.166668,"lng":129.066666},"status":"surplus"},{"frame_index":87,"name":"ports_12","capacity":10000,"empty":2518,"full":2260,"on_shipper":114,"on_consignee":25,"shortage":0,"acc_shortage":0,"booking":72,"acc_booking":6319,"fulfillment":72,"acc_fulfillment":6319,"transfer_cost":0.0,"port_name":"Qingdao","position":{"lat":36.066898,"lng":120.382698},"status":"surplus"},{"frame_index":87,"name":"ports_13","capacity":10000,"empty":318,"full":128,"on_shipper":15,"on_consignee":0,"shortage":0,"acc_shortage":0,"booking":11,"acc_booking":831,"fulfillment":11,"acc_fulfillment":831,"transfer_cost":0.0,"port_name":"San Antonio","position":{"lat":29.424349,"lng":-98.491142},"status":"surplus"},{"frame_index":87,"name":"ports_14","capacity":10000,"empty":206,"full":113,"on_shipper":12,"on_consignee":0,"shortage":0,"acc_shortage":0,"booking":10,"acc_booking":830,"fulfillment":10,"acc_fulfillment":830,"transfer_cost":0.0,"port_name":"Santos","position":{"lat":-23.96083,"lng":-46.33361},"status":"surplus"},{"frame_index":87,"name":"ports_15","capacity":10000,"empty":1700,"full":3745,"on_shipper":84,"on_consignee":0,"shortage":0,"acc_shortage":0,"booking":66,"acc_booking":5532,"fulfillment":66,"acc_fulfillment":5532,"transfer_cost":0.0,"port_name":"Seattle","position":{"lat":47.608013,"lng":-122.335167},"status":"surplus"},{"frame_index":87,"name":"ports_16","capacity":10000,"empty":2264,"full":3301,"on_shipper":129,"on_consignee":0,"shortage":0,"acc_shortage":0,"booking":79,"acc_booking":7955,"fulfillment":79,"acc_fulfillment":7955,"transfer_cost":0.0,"port_name":"Shanghai","position":{"lat":31.224361,"lng":121.46917},"status":"surplus"},{"frame_index":87,"name":"ports_17","capacity":10000,"empty":2006,"full":538,"on_shipper":46,"on_consignee":0,"shortage":0,"acc_shortage":0,"booking":39,"acc_booking":3182,"fulfillment":39,"acc_fulfillment":3182,"transfer_cost":0.0,"port_name":"Singapore","position":{"lat":1.29027,"lng":103.851959},"status":"surplus"},{"frame_index":87,"name":"ports_18","capacity":10000,"empty":444,"full":318,"on_shipper":28,"on_consignee":0,"shortage":0,"acc_shortage":0,"booking":13,"acc_booking":1200,"fulfillment":13,"acc_fulfillment":1200,"transfer_cost":0.0,"port_name":"Sydney","position":{"lat":-33.865143,"lng":151.2099},"status":"surplus"},{"frame_index":87,"name":"ports_19","capacity":10000,"empty":604,"full":420,"on_shipper":30,"on_consignee":0,"shortage":0,"acc_shortage":0,"booking":18,"acc_booking":1619,"fulfillment":18,"acc_fulfillment":1619,"transfer_cost":0.0,"port_name":"Vancouver","position":{"lat":49.246292,"lng":-123.116226},"status":"surplus"},{"frame_index":87,"name":"ports_20","capacity":10000,"empty":2060,"full":1955,"on_shipper":97,"on_consignee":0,"shortage":0,"acc_shortage":0,"booking":62,"acc_booking":5419,"fulfillment":62,"acc_fulfillment":5419,"transfer_cost":0.0,"port_name":"Yantian","position":{"lat":26.8533,"lng":119.8575},"status":"surplus"},{"frame_index":87,"name":"ports_21","capacity":10000,"empty":2932,"full":730,"on_shipper":115,"on_consignee":0,"shortage":0,"acc_shortage":0,"booking":62,"acc_booking":5350,"fulfillment":62,"acc_fulfillment":5350,"transfer_cost":0.0,"port_name":"Yokohama","position":{"lat":35.443707,"lng":139.638031},"status":"surplus"}]