[{"frame_index":980,"name":"ports_0","capacity":10000,"empty":775,"full":4835,"on_shipper":313,"on_consignee":0,"shortage":0,"acc_shortage":737,"booking":144,"acc_booking":127251,"fulfillment":144,"acc_fulfillment":126514,"transfer_cost":0.0,"port_name":"Bremerhaven","position":{"lat":53.549999,"lng":8.583333},"status":"surplus"},{"frame_index":980,"name":"ports_1","capacity":10000,"empty":210,"full":300,"on_shipper":14,"on_consignee":0,"shortage":0,"acc_shortage":113,"booking":9,"acc_booking":8457,"fulfillment":9,"acc_fulfillment":8344,"transfer_cost":0.0,"port_name":"Durban","position":{"lat":-29.8579,"lng":31.0292},"status":"surplus"},{"frame_index":980,"name":"ports_2","capacity":10000,"empty":493,"full":134,"on_shipper":9,"on_consignee":0,"shortage":0,"acc_shortage":298,"booking":9,"acc_booking":8419,"fulfillment":9,"acc_fulfillment":8121,"transfer_cost":0.0,"port_name":"Itagual","position":{"lat":-22.85222,"lng":-43.77528},"status":"surplus"},{"frame_index":980,"name":"ports_3","capacity":10000,"empty":3718,"full":635,"on_shipper":87,"on_consignee":0,"shortage":0,"acc_shortage":0,"booking":56,"acc_booking":48166,"fulfillment":56,"acc_fulfillment":48166,"transfer_cost":0.0,"port_name":"LeHavre","position":{"lat":49.490002,"lng":0.1},"status":"surplus"},{"frame_index":980,"name":"ports_4","capacity":10000,"empty":1045,"full":591,"on_shipper":81,"on_consignee":1004,"shortage":0,"acc_shortage":290,"booking":45,"acc_booking":40337,"fulfillment":45,"acc_fulfillment":40047,"transfer_cost":0.0,"port_name":"Los Angeles","position":{"lat":34.052235,"lng":-118.243683},"status":"surplus"},{"frame_index":980,"name":"ports_5","capacity":10000,"empty":417,"full":260,"on_shipper":84,"on_consignee":0,"shortage":0,"acc_shortage":163,"booking":45,"acc_booking":40366,"fulfillment":45,"acc_fulfillment":40203,"transfer_cost":0.0,"port_name":"Manzanillo","position":{"lat":19.11695,"lng":-104.34214},"status":"surplus"},{"frame_index":980,"name":"ports_6","capacity":10000,"empty":450,"full":12,"on_shipper":27,"on_consignee":18,"shortage":0,"acc_shortage":2108,"booking":15,"acc_booking":12415,"fulfillment":15,"acc_fulfillment":10307,"transfer_cost":0.0,"port_name":"Melbourne","position":{"lat":-37.840935,"lng":144.946457},"status":"surplus"},{"frame_index":980,"name":"ports_7","capacity":10000,"empty":1163,"full":318,"on_shipper":33,"on_consignee":0,"shortage":0,"acc_shortage":0,"booking":14,"acc_booking":12423,"fulfillment":14,"acc_fulfillment":12423,"transfer_cost":0.0,"port_name":"Montreal","position":{"lat":45.516136,"lng":-73.65683},"status":"surplus"},{"frame_index":980,"name":"ports_8","capacity":10000,"empty":2283,"full":444,"on_shipper":27,"on_consignee":0,"shortage":0,"acc_shortage":136,"booking":27,"acc_booking":24280,"fulfillment":27,"acc_fulfillment":24144,"transfer_cost":0.0,"port_name":"New York","position":{"lat":40.73061,"lng":-73.935242},"status":"surplus"},{"frame_index":980,"name":"ports_9","capacity":10000,"empty":1392,"full":239,"on_shipper":50,"on_consignee":0,"shortage":0,"acc_shortage":45,"booking":28,"acc_booking":24299,"fulfillment":28,"acc_fulfillment":24254,"transfer_cost":0.0,"port_name":"Oakland","position":{"lat":37.804363,"lng":-122.271111},"status":"surplus"},{"frame_index":980,"name":"ports_10","capacity":10000,"empty":1124,"full":27,"on_shipper":20,"on_consignee":0,"shortage":0,"acc_shortage":314,"booking":13,"acc_booking":12422,"fulfillment":13,"acc_fulfillment":12108,"transfer_cost":0.0,"port_name":"Prince Rupert","position":{"lat":54.312519,"lng":-130.305405},"status":"surplus"},{"frame_index":980,"name":"ports_11","capacity":10000,"empty":2394,"full":936,"on_shipper":69,"on_consignee":0,"shortage":0,"acc_shortage":204,"booking":55,"acc_booking":48116,"fulfillment":55,"acc_fulfillment":47912,"transfer_cost":0.0,"port_name":"Pusan","position":{"lat":35.166668,"lng":129.066666},"status":"surplus"},{"frame_index":980,"name":"ports_12","capacity":10000,"empty":2332,"full":2484,"on_shipper":116,"on_consignee":0,"shortage":0,"acc_shortage":0,"booking":79,"acc_booking":64328,"fulfillment":79,"acc_fulfillment":64328,"transfer_cost":0.0,"port_name":"Qingdao","position":{"lat":36.066898,"lng":120.382698},"status":"surplus"},{"frame_index":980,"name":"ports_13","capacity":10000,"empty":355,"full":29,"on_shipper":18,"on_consignee":0,"shortage":0,"acc_shortage":459,"booking":9,"acc_booking":8424,"fulfillment":9,"acc_fulfillment":7965,"transfer_cost":0.0,"port_name":"San Antonio","position":{"lat":29.424349,"lng":-98.491142},"status":"surplus"},{"frame_index":980,"name":"ports_14","capacity":10000,"empty":377,"full":317,"on_shipper":17,"on_consignee":0,"shortage":0,"acc_shortage":876,"booking":11,"acc_booking":8478,"fulfillment":11,"acc_fulfillment":7602,"transfer_cost":0.0,"port_name":"Santos","position":{"lat":-23.96083,"lng":-46.33361},"status":"surplus"},{"frame_index":980,"name":"ports_15","capacity":10000,"empty":265,"full":876,"on_shipper":119,"on_consignee":0,"shortage":0,"acc_shortage":859,"booking":67,"acc_booking":56194,"fulfillment":67,"acc_fulfillment":55335,"transfer_cost":0.0,"port_name":"Seattle","position":{"lat":47.608013,"lng":-122.335167},"status":"demand"},{"frame_index":980,"name":"ports_16","capacity":10000,"empty":2000,"full":835,"on_shipper":145,"on_consignee":0,"shortage":0,"acc_shortage":817,"booking":104,"acc_booking":80140,"fulfillment":104,"acc_fulfillment":79323,"transfer_cost":0.0,"port_name":"Shanghai","position":{"lat":31.224361,"lng":121.46917},"status":"surplus"},{"frame_index":980,"name":"ports_17","capacity":10000,"empty":152,"full":573,"on_shipper":67,"on_consignee":0,"shortage":0,"acc_shortage":516,"booking":37,"acc_booking":32342,"fulfillment":37,"acc_fulfillment":31826,"transfer_cost":0.0,"port_name":"Singapore","position":{"lat":1.29027,"lng":103.851959},"status":"balance"},{"frame_index":980,"name":"ports_18","capacity":10000,"empty":673,"full":181,"on_shipper":25,"on_consignee":0,"shortage":0,"acc_shortage":1374,"booking":13,"acc_booking":12424,"fulfillment":13,"acc_fulfillment":11050,"transfer_cost":0.0,"port_name":"Sydney","position":{"lat":-33.865143,"lng":151.2099},"status":"surplus"},{"frame_index":980,"name":"ports_19","capacity":10000,"empty":472,"full":1032,"on_shipper":23,"on_consignee":352,"shortage":0,"acc_shortage":0,"booking":19,"acc_booking":16444,"fulfillment":19,"acc_fulfillment":16444,"transfer_cost":0.0,"port_name":"Vancouver","position":{"lat":49.246292,"lng":-123.116226},"status":"surplus"},{"frame_index":980,"name":"ports_20","capacity":10000,"empty":316,"full":1148,"on_shipper":80,"on_consignee":0,"shortage":0,"acc_shortage":1425,"booking":68,"acc_booking":55896,"fulfillment":68,"acc_fulfillment":54471,"transfer_cost":0.0,"port_name":"Yantian","position":{"lat":26.8533,"lng":119.8575},"status":"balance"},{"frame_index":980,"name":"ports_21","capacity":10000,"empty":262,"full":832,"on_shipper":107,"on_consignee":0,"shortage":0,"acc_shortage":7238,"booking":63,"acc_booking":53361,"fulfillment":63,"acc_fulfillment":46123,"transfer_cost":0.0,"port_name":"Yokohama","position":{"lat":35.443707,"lng":139.638031},"status":"demand"}]