[{"frame_index":590,"name":"ports_0","capacity":10000,"empty":6980,"full":2242,"on_shipper":218,"on_consignee":0,"shortage":0,"acc_shortage":522,"booking":150,"acc_booking":74039,"fulfillment":150,"acc_fulfillment":73517,"transfer_cost":0.0,"port_name":"Bremerhaven","position":{"lat":53.549999,"lng":8.583333},"status":"surplus"},{"frame_index":590,"name":"ports_1","capacity":10000,"empty":584,"full":40,"on_shipper":19,"on_consignee":0,"shortage":0,"acc_shortage":0,"booking":11,"acc_booking":4938,"fulfillment":11,"acc_fulfillment":4938,"transfer_cost":0.0,"port_name":"Durban","position":{"lat":-29.8579,"lng":31.0292},"status":"surplus"},{"frame_index":590,"name":"ports_2","capacity":10000,"empty":477,"full":96,"on_shipper":16,"on_consignee":0,"shortage":0,"acc_shortage":233,"booking":10,"acc_booking":4909,"fulfillment":10,"acc_fulfillment":4676,"transfer_cost":0.0,"port_name":"Itagual","position":{"lat":-22.85222,"lng":-43.77528},"status":"surplus"},{"frame_index":590,"name":"ports_3","capacity":10000,"empty":171,"full":1995,"on_shipper":87,"on_consignee":0,"shortage":0,"acc_shortage":0,"booking":60,"acc_booking":28035,"fulfillment":60,"acc_fulfillment":28035,"transfer_cost":0.0,"port_name":"LeHavre","position":{"lat":49.490002,"lng":0.1},"status":"demand"},{"frame_index":590,"name":"ports_4","capacity":10000,"empty":1297,"full":524,"on_shipper":107,"on_consignee":0,"shortage":0,"acc_shortage":0,"booking":50,"acc_booking":23455,"fulfillment":50,"acc_fulfillment":23455,"transfer_cost":0.0,"port_name":"Los Angeles","position":{"lat":34.052235,"lng":-118.243683},"status":"surplus"},{"frame_index":590,"name":"ports_5","capacity":10000,"empty":1325,"full":0,"on_shipper":78,"on_consignee":139,"shortage":0,"acc_shortage":123,"booking":50,"acc_booking":23497,"fulfillment":50,"acc_fulfillment":23374,"transfer_cost":19.0,"port_name":"Manzanillo","position":{"lat":19.11695,"lng":-104.34214},"status":"surplus"},{"frame_index":590,"name":"ports_6","capacity":10000,"empty":526,"full":79,"on_shipper":32,"on_consignee":0,"shortage":0,"acc_shortage":1259,"booking":15,"acc_booking":7224,"fulfillment":15,"acc_fulfillment":5965,"transfer_cost":0.0,"port_name":"Melbourne","position":{"lat":-37.840935,"lng":144.946457},"status":"surplus"},{"frame_index":590,"name":"ports_7","capacity":10000,"empty":1977,"full":50,"on_shipper":15,"on_consignee":0,"shortage":0,"acc_shortage":0,"booking":15,"acc_booking":7228,"fulfillment":15,"acc_fulfillment":7228,"transfer_cost":0.0,"port_name":"Montreal","position":{"lat":45.516136,"lng":-73.65683},"status":"surplus"},{"frame_index":590,"name":"ports_8","capacity":10000,"empty":1545,"full":557,"on_shipper":46,"on_consignee":0,"shortage":0,"acc_shortage":0,"booking":32,"acc_booking":14122,"fulfillment":32,"acc_fulfillment":14122,"transfer_cost":0.0,"port_name":"New York","position":{"lat":40.73061,"lng":-73.935242},"status":"surplus"},{"frame_index":590,"name":"ports_9","capacity":10000,"empty":242,"full":464,"on_shipper":59,"on_consignee":0,"shortage":0,"acc_shortage":45,"booking":29,"acc_booking":14145,"fulfillment":29,"acc_fulfillment":14100,"transfer_cost":0.0,"port_name":"Oakland","position":{"lat":37.804363,"lng":-122.271111},"status":"surplus"},{"frame_index":590,"name":"ports_10","capacity":10000,"empty":1727,"full":21,"on_shipper":23,"on_consignee":0,"shortage":0,"acc_shortage":314,"booking":15,"acc_booking":7244,"fulfillment":15,"acc_fulfillment":6930,"transfer_cost":0.0,"port_name":"Prince Rupert","position":{"lat":54.312519,"lng":-130.305405},"status":"surplus"},{"frame_index":590,"name":"ports_11","capacity":10000,"empty":1851,"full":517,"on_shipper":95,"on_consignee":0,"shortage":0,"acc_shortage":204,"booking":57,"acc_booking":27982,"fulfillment":57,"acc_fulfillment":27778,"transfer_cost":0.0,"port_name":"Pusan","position":{"lat":35.166668,"lng":129.066666},"status":"surplus"},{"frame_index":590,"name":"ports_12","capacity":10000,"empty":4382,"full":1083,"on_shipper":84,"on_consignee":0,"shortage":0,"acc_shortage":0,"booking":72,"acc_booking":37432,"fulfillment":72,"acc_fulfillment":37432,"transfer_cost":0.0,"port_name":"Qingdao","position":{"lat":36.066898,"lng":120.382698},"status":"surplus"},{"frame_index":590,"name":"ports_13","capacity":10000,"empty":363,"full":106,"on_shipper":21,"on_consignee":0,"shortage":0,"acc_shortage":286,"booking":10,"acc_booking":4902,"fulfillment":10,"acc_fulfillment":4616,"transfer_cost":0.0,"port_name":"San Antonio","position":{"lat":29.424349,"lng":-98.491142},"status":"surplus"},{"frame_index":590,"name":"ports_14","capacity":10000,"empty":391,"full":0,"on_shipper":16,"on_consignee":540,"shortage":0,"acc_shortage":762,"booking":10,"acc_booking":4950,"fulfillment":10,"acc_fulfillment":4188,"transfer_cost":94.0,"port_name":"Santos","position":{"lat":-23.96083,"lng":-46.33361},"status":"surplus"},{"frame_index":590,"name":"ports_15","capacity":10000,"empty":4003,"full":453,"on_shipper":129,"on_consignee":0,"shortage":0,"acc_shortage":0,"booking":67,"acc_booking":32656,"fulfillment":67,"acc_fulfillment":32656,"transfer_cost":0.0,"port_name":"Seattle","position":{"lat":47.608013,"lng":-122.335167},"status":"surplus"},{"frame_index":590,"name":"ports_16","capacity":10000,"empty":1289,"full":600,"on_shipper":172,"on_consignee":0,"shortage":0,"acc_shortage":470,"booking":100,"acc_booking":46524,"fulfillment":100,"acc_fulfillment":46054,"transfer_cost":0.0,"port_name":"Shanghai","position":{"lat":31.224361,"lng":121.46917},"status":"surplus"},{"frame_index":590,"name":"ports_17","capacity":10000,"empty":461,"full":401,"on_shipper":66,"on_consignee":0,"shortage":0,"acc_shortage":40,"booking":40,"acc_booking":18822,"fulfillment":40,"acc_fulfillment":18782,"transfer_cost":0.0,"port_name":"Singapore","position":{"lat":1.29027,"lng":103.851959},"status":"surplus"},{"frame_index":590,"name":"ports_18","capacity":10000,"empty":470,"full":322,"on_shipper":27,"on_consignee":0,"shortage":0,"acc_shortage":957,"booking":17,"acc_booking":7195,"fulfillment":17,"acc_fulfillment":6238,"transfer_cost":0.0,"port_name":"Sydney","position":{"lat":-33.865143,"lng":151.2099},"status":"surplus"},{"frame_index":590,"name":"ports_19","capacity":10000,"empty":613,"full":542,"on_shipper":32,"on_consignee":0,"shortage":0,"acc_shortage":0,"booking":21,"acc_booking":9610,"fulfillment":21,"acc_fulfillment":9610,"transfer_cost":0.0,"port_name":"Vancouver","position":{"lat":49.246292,"lng":-123.116226},"status":"surplus"},{"frame_index":590,"name":"ports_20","capacity":10000,"empty":679,"full":245,"on_shipper":133,"on_consignee":551,"shortage":0,"acc_shortage":395,"booking":71,"acc_booking":32487,"fulfillment":71,"acc_fulfillment":32092,"transfer_cost":0.0,"port_name":"Yantian","position":{"lat":26.8533,"lng":119.8575},"status":"surplus"},{"frame_index":590,"name":"ports_21","capacity":10000,"empty":1157,"full":551,"on_shipper":111,"on_consignee":0,"shortage":0,"acc_shortage":3258,"booking":72,"acc_booking":30827,"fulfillment":72,"acc_fulfillment":27569,"transfer_cost":0.0,"port_name":"Yokohama","position":{"lat":35.443707,"lng":139.638031},"status":"surplus"}]