[{"frame_index":226,"name":"ports_0","capacity":10000,"empty":3437,"full":2256,"on_shipper":102,"on_consignee":0,"shortage":0,"acc_shortage":0,"booking":57,"acc_booking":28709,"fulfillment":57,"acc_fulfillment":28709,"transfer_cost":0.0,"port_name":"Bremerhaven","position":{"lat":53.549999,"lng":8.583333},"status":"surplus"},{"frame_index":226,"name":"ports_1","capacity":10000,"empty":619,"full":259,"on_shipper":7,"on_consignee":0,"shortage":0,"acc_shortage":0,"booking":4,"acc_booking":1923,"fulfillment":4,"acc_fulfillment":1923,"transfer_cost":0.0,"port_name":"Durban","position":{"lat":-29.8579,"lng":31.0292},"status":"surplus"},{"frame_index":226,"name":"ports_2","capacity":10000,"empty":790,"full":81,"on_shipper":6,"on_consignee":0,"shortage":0,"acc_shortage":233,"booking":4,"acc_booking":1911,"fulfillment":4,"acc_fulfillment":1678,"transfer_cost":0.0,"port_name":"Itagual","position":{"lat":-22.85222,"lng":-43.77528},"status":"surplus"},{"frame_index":226,"name":"ports_3","capacity":10000,"empty":2630,"full":206,"on_shipper":31,"on_consignee":0,"shortage":0,"acc_shortage":0,"booking":20,"acc_booking":10898,"fulfillment":20,"acc_fulfillment":10898,"transfer_cost":0.0,"port_name":"LeHavre","position":{"lat":49.490002,"lng":0.1},"status":"surplus"},{"frame_index":226,"name":"ports_4","capacity":10000,"empty":1403,"full":590,"on_shipper":32,"on_consignee":0,"shortage":0,"acc_shortage":0,"booking":17,"acc_booking":9104,"fulfillment":17,"acc_fulfillment":9104,"transfer_cost":0.0,"port_name":"Los Angeles","position":{"lat":34.052235,"lng":-118.243683},"status":"surplus"},{"frame_index":226,"name":"ports_5","capacity":10000,"empty":1764,"full":46,"on_shipper":25,"on_consignee":0,"shortage":0,"acc_shortage":0,"booking":16,"acc_booking":9134,"fulfillment":16,"acc_fulfillment":9134,"transfer_cost":0.0,"port_name":"Manzanillo","position":{"lat":19.11695,"lng":-104.34214},"status":"surplus"},{"frame_index":226,"name":"ports_6","capacity":10000,"empty":240,"full":258,"on_shipper":11,"on_consignee":0,"shortage":0,"acc_shortage":0,"booking":5,"acc_booking":2800,"fulfillment":5,"acc_fulfillment":2800,"transfer_cost":0.0,"port_name":"Melbourne","position":{"lat":-37.840935,"lng":144.946457},"status":"surplus"},{"frame_index":226,"name":"ports_7","capacity":10000,"empty":2267,"full":159,"on_shipper":9,"on_consignee":0,"shortage":0,"acc_shortage":0,"booking":6,"acc_booking":2802,"fulfillment":6,"acc_fulfillment":2802,"transfer_cost":0.0,"port_name":"Montreal","position":{"lat":45.516136,"lng":-73.65683},"status":"surplus"},{"frame_index":226,"name":"ports_8","capacity":10000,"empty":1284,"full":30,"on_shipper":20,"on_consignee":0,"shortage":0,"acc_shortage":0,"booking":11,"acc_booking":5479,"fulfillment":11,"acc_fulfillment":5479,"transfer_cost":0.0,"port_name":"New York","position":{"lat":40.73061,"lng":-73.935242},"status":"surplus"},{"frame_index":226,"name":"ports_9","capacity":10000,"empty":1734,"full":201,"on_shipper":16,"on_consignee":0,"shortage":0,"acc_shortage":0,"booking":11,"acc_booking":5467,"fulfillment":11,"acc_fulfillment":5467,"transfer_cost":0.0,"port_name":"Oakland","position":{"lat":37.804363,"lng":-122.271111},"status":"surplus"},{"frame_index":226,"name":"ports_10","capacity":10000,"empty":400,"full":685,"on_shipper":8,"on_consignee":0,"shortage":0,"acc_shortage":0,"booking":5,"acc_booking":2784,"fulfillment":5,"acc_fulfillment":2784,"transfer_cost":0.0,"port_name":"Prince Rupert","position":{"lat":54.312519,"lng":-130.305405},"status":"surplus"},{"frame_index":226,"name":"ports_11","capacity":10000,"empty":1524,"full":1090,"on_shipper":32,"on_consignee":0,"shortage":0,"acc_shortage":0,"booking":20,"acc_booking":10866,"fulfillment":20,"acc_fulfillment":10866,"transfer_cost":0.0,"port_name":"Pusan","position":{"lat":35.166668,"lng":129.066666},"status":"surplus"},{"frame_index":226,"name":"ports_12","capacity":10000,"empty":2793,"full":250,"on_shipper":39,"on_consignee":21,"shortage":0,"acc_shortage":0,"booking":30,"acc_booking":14489,"fulfillment":30,"acc_fulfillment":14489,"transfer_cost":372.0,"port_name":"Qingdao","position":{"lat":36.066898,"lng":120.382698},"status":"surplus"},{"frame_index":226,"name":"ports_13","capacity":10000,"empty":573,"full":77,"on_shipper":7,"on_consignee":0,"shortage":0,"acc_shortage":55,"booking":4,"acc_booking":1907,"fulfillment":4,"acc_fulfillment":1852,"transfer_cost":0.0,"port_name":"San Antonio","position":{"lat":29.424349,"lng":-98.491142},"status":"surplus"},{"frame_index":226,"name":"ports_14","capacity":10000,"empty":673,"full":50,"on_shipper":5,"on_consignee":0,"shortage":0,"acc_shortage":697,"booking":3,"acc_booking":1928,"fulfillment":3,"acc_fulfillment":1231,"transfer_cost":0.0,"port_name":"Santos","position":{"lat":-23.96083,"lng":-46.33361},"status":"surplus"},{"frame_index":226,"name":"ports_15","capacity":10000,"empty":1816,"full":1010,"on_shipper":43,"on_consignee":0,"shortage":0,"acc_shortage":0,"booking":23,"acc_booking":12678,"fulfillment":23,"acc_fulfillment":12678,"transfer_cost":0.0,"port_name":"Seattle","position":{"lat":47.608013,"lng":-122.335167},"status":"surplus"},{"frame_index":226,"name":"ports_16","capacity":10000,"empty":869,"full":2294,"on_shipper":46,"on_consignee":0,"shortage":0,"acc_shortage":0,"booking":28,"acc_booking":18053,"fulfillment":28,"acc_fulfillment":18053,"transfer_cost":0.0,"port_name":"Shanghai","position":{"lat":31.224361,"lng":121.46917},"status":"surplus"},{"frame_index":226,"name":"ports_17","capacity":10000,"empty":762,"full":96,"on_shipper":21,"on_consignee":0,"shortage":0,"acc_shortage":40,"booking":14,"acc_booking":7310,"fulfillment":14,"acc_fulfillment":7270,"transfer_cost":0.0,"port_name":"Singapore","position":{"lat":1.29027,"lng":103.851959},"status":"surplus"},{"frame_index":226,"name":"ports_18","capacity":10000,"empty":0,"full":69,"on_shipper":0,"on_consignee":325,"shortage":5,"acc_shortage":5,"booking":5,"acc_booking":2773,"fulfillment":0,"acc_fulfillment":2768,"transfer_cost":0.0,"port_name":"Sydney","position":{"lat":-33.865143,"lng":151.2099},"status":"balance"},{"frame_index":226,"name":"ports_19","capacity":10000,"empty":794,"full":225,"on_shipper":15,"on_consignee":0,"shortage":0,"acc_shortage":0,"booking":8,"acc_booking":3717,"fulfillment":8,"acc_fulfillment":3717,"transfer_cost":0.0,"port_name":"Vancouver","position":{"lat":49.246292,"lng":-123.116226},"status":"surplus"},{"frame_index":226,"name":"ports_20","capacity":10000,"empty":1415,"full":993,"on_shipper":32,"on_consignee":0,"shortage":0,"acc_shortage":0,"booking":24,"acc_booking":12502,"fulfillment":24,"acc_fulfillment":12502,"transfer_cost":0.0,"port_name":"Yantian","position":{"lat":26.8533,"lng":119.8575},"status":"surplus"},{"frame_index":226,"name":"ports_21","capacity":10000,"empty":528,"full":195,"on_shipper":28,"on_consignee":0,"shortage":0,"acc_shortage":492,"booking":16,"acc_booking":11997,"fulfillment":16,"acc_fulfillment":11505,"transfer_cost":0.0,"port_name":"Yokohama","position":{"lat":35.443707,"lng":139.638031},"status":"surplus"}]