[{"frame_index":13,"name":"ports_0","capacity":10000,"empty":15333,"full":541,"on_shipper":126,"on_consignee":0,"shortage":0,"acc_shortage":0,"booking":90,"acc_booking":667,"fulfillment":90,"acc_fulfillment":667,"transfer_cost":0.0,"port_name":"Bremerhaven","position":{"lat":53.549999,"lng":8.583333},"status":"surplus"},{"frame_index":13,"name":"ports_1","capacity":10000,"empty":952,"full":2,"on_shipper":8,"on_consignee":0,"shortage":0,"acc_shortage":0,"booking":7,"acc_booking":48,"fulfillment":7,"acc_fulfillment":48,"transfer_cost":0.0,"port_name":"Durban","position":{"lat":-29.8579,"lng":31.0292},"status":"surplus"},{"frame_index":13,"name":"ports_2","capacity":10000,"empty":954,"full":0,"on_shipper":7,"on_consignee":0,"shortage":0,"acc_shortage":0,"booking":6,"acc_booking":46,"fulfillment":6,"acc_fulfillment":46,"transfer_cost":0.0,"port_name":"Itagual","position":{"lat":-22.85222,"lng":-43.77528},"status":"surplus"},{"frame_index":13,"name":"ports_3","capacity":10000,"empty":5737,"full":105,"on_shipper":48,"on_consignee":0,"shortage":0,"acc_shortage":0,"booking":36,"acc_booking":263,"fulfillment":36,"acc_fulfillment":263,"transfer_cost":0.0,"port_name":"LeHavre","position":{"lat":49.490002,"lng":0.1},"status":"surplus"},{"frame_index":13,"name":"ports_4","capacity":10000,"empty":4779,"full":118,"on_shipper":41,"on_consignee":0,"shortage":0,"acc_shortage":0,"booking":30,"acc_booking":221,"fulfillment":30,"acc_fulfillment":221,"transfer_cost":0.0,"port_name":"Los Angeles","position":{"lat":34.052235,"lng":-118.243683},"status":"surplus"},{"frame_index":13,"name":"ports_5","capacity":10000,"empty":4783,"full":88,"on_shipper":38,"on_consignee":0,"shortage":0,"acc_shortage":0,"booking":31,"acc_booking":217,"fulfillment":31,"acc_fulfillment":217,"transfer_cost":0.0,"port_name":"Manzanillo","position":{"lat":19.11695,"lng":-104.34214},"status":"surplus"},{"frame_index":13,"name":"ports_6","capacity":10000,"empty":1429,"full":60,"on_shipper":11,"on_consignee":0,"shortage":0,"acc_shortage":0,"booking":9,"acc_booking":71,"fulfillment":9,"acc_fulfillment":71,"transfer_cost":0.0,"port_name":"Melbourne","position":{"lat":-37.840935,"lng":144.946457},"status":"surplus"},{"frame_index":13,"name":"ports_7","capacity":10000,"empty":1430,"full":59,"on_shipper":11,"on_consignee":0,"shortage":0,"acc_shortage":0,"booking":9,"acc_booking":70,"fulfillment":9,"acc_fulfillment":70,"transfer_cost":0.0,"port_name":"Montreal","position":{"lat":45.516136,"lng":-73.65683},"status":"surplus"},{"frame_index":13,"name":"ports_8","capacity":10000,"empty":2865,"full":113,"on_shipper":22,"on_consignee":0,"shortage":0,"acc_shortage":0,"booking":18,"acc_booking":135,"fulfillment":18,"acc_fulfillment":135,"transfer_cost":0.0,"port_name":"New York","position":{"lat":40.73061,"lng":-73.935242},"status":"surplus"},{"frame_index":13,"name":"ports_9","capacity":10000,"empty":2864,"full":113,"on_shipper":23,"on_consignee":0,"shortage":0,"acc_shortage":0,"booking":20,"acc_booking":136,"fulfillment":20,"acc_fulfillment":136,"transfer_cost":0.0,"port_name":"Oakland","position":{"lat":37.804363,"lng":-122.271111},"status":"surplus"},{"frame_index":13,"name":"ports_10","capacity":10000,"empty":1430,"full":58,"on_shipper":12,"on_consignee":0,"shortage":0,"acc_shortage":0,"booking":10,"acc_booking":70,"fulfillment":10,"acc_fulfillment":70,"transfer_cost":0.0,"port_name":"Prince Rupert","position":{"lat":54.312519,"lng":-130.305405},"status":"surplus"},{"frame_index":13,"name":"ports_11","capacity":10000,"empty":5734,"full":226,"on_shipper":40,"on_consignee":0,"shortage":0,"acc_shortage":0,"booking":35,"acc_booking":266,"fulfillment":35,"acc_fulfillment":266,"transfer_cost":0.0,"port_name":"Pusan","position":{"lat":35.166668,"lng":129.066666},"status":"surplus"},{"frame_index":13,"name":"ports_12","capacity":10000,"empty":7648,"full":282,"on_shipper":57,"on_consignee":0,"shortage":0,"acc_shortage":0,"booking":47,"acc_booking":352,"fulfillment":47,"acc_fulfillment":352,"transfer_cost":0.0,"port_name":"Qingdao","position":{"lat":36.066898,"lng":120.382698},"status":"surplus"},{"frame_index":13,"name":"ports_13","capacity":10000,"empty":952,"full":40,"on_shipper":8,"on_consignee":0,"shortage":0,"acc_shortage":0,"booking":6,"acc_booking":48,"fulfillment":6,"acc_fulfillment":48,"transfer_cost":0.0,"port_name":"San Antonio","position":{"lat":29.424349,"lng":-98.491142},"status":"surplus"},{"frame_index":13,"name":"ports_14","capacity":10000,"empty":951,"full":43,"on_shipper":6,"on_consignee":0,"shortage":0,"acc_shortage":0,"booking":6,"acc_booking":49,"fulfillment":6,"acc_fulfillment":49,"transfer_cost":0.0,"port_name":"Santos","position":{"lat":-23.96083,"lng":-46.33361},"status":"surplus"},{"frame_index":13,"name":"ports_15","capacity":10000,"empty":6695,"full":138,"on_shipper":48,"on_consignee":0,"shortage":0,"acc_shortage":0,"booking":42,"acc_booking":305,"fulfillment":42,"acc_fulfillment":305,"transfer_cost":0.0,"port_name":"Seattle","position":{"lat":47.608013,"lng":-122.335167},"status":"surplus"},{"frame_index":13,"name":"ports_16","capacity":10000,"empty":9559,"full":316,"on_shipper":87,"on_consignee":0,"shortage":0,"acc_shortage":0,"booking":67,"acc_booking":441,"fulfillment":67,"acc_fulfillment":441,"transfer_cost":0.0,"port_name":"Shanghai","position":{"lat":31.224361,"lng":121.46917},"status":"surplus"},{"frame_index":13,"name":"ports_17","capacity":10000,"empty":3820,"full":40,"on_shipper":29,"on_consignee":0,"shortage":0,"acc_shortage":0,"booking":24,"acc_booking":180,"fulfillment":24,"acc_fulfillment":180,"transfer_cost":0.0,"port_name":"Singapore","position":{"lat":1.29027,"lng":103.851959},"status":"surplus"},{"frame_index":13,"name":"ports_18","capacity":10000,"empty":1431,"full":60,"on_shipper":9,"on_consignee":0,"shortage":0,"acc_shortage":0,"booking":9,"acc_booking":69,"fulfillment":9,"acc_fulfillment":69,"transfer_cost":0.0,"port_name":"Sydney","position":{"lat":-33.865143,"lng":151.2099},"status":"surplus"},{"frame_index":13,"name":"ports_19","capacity":10000,"empty":1909,"full":48,"on_shipper":16,"on_consignee":0,"shortage":0,"acc_shortage":0,"booking":13,"acc_booking":91,"fulfillment":13,"acc_fulfillment":91,"transfer_cost":0.0,"port_name":"Vancouver","position":{"lat":49.246292,"lng":-123.116226},"status":"surplus"},{"frame_index":13,"name":"ports_20","capacity":10000,"empty":6684,"full":226,"on_shipper":54,"on_consignee":0,"shortage":0,"acc_shortage":0,"booking":44,"acc_booking":316,"fulfillment":44,"acc_fulfillment":316,"transfer_cost":0.0,"port_name":"Yantian","position":{"lat":26.8533,"lng":119.8575},"status":"surplus"},{"frame_index":13,"name":"ports_21","capacity":10000,"empty":7793,"full":165,"on_shipper":42,"on_consignee":0,"shortage":0,"acc_shortage":0,"booking":37,"acc_booking":207,"fulfillment":37,"acc_fulfillment":207,"transfer_cost":0.0,"port_name":"Yokohama","position":{"lat":35.443707,"lng":139.638031},"status":"surplus"}]