[{"frame_index":399,"name":"ports_0","capacity":10000,"empty":4401,"full":2376,"on_shipper":277,"on_consignee":0,"shortage":0,"acc_shortage":522,"booking":98,"acc_booking":51144,"fulfillment":98,"acc_fulfillment":50622,"transfer_cost":0.0,"port_name":"Bremerhaven","position":{"lat":53.549999,"lng":8.583333},"status":"surplus"},{"frame_index":399,"name":"ports_1","capacity":10000,"empty":355,"full":129,"on_shipper":10,"on_consignee":0,"shortage":0,"acc_shortage":0,"booking":7,"acc_booking":3421,"fulfillment":7,"acc_fulfillment":3421,"transfer_cost":0.0,"port_name":"Durban","position":{"lat":-29.8579,"lng":31.0292},"status":"surplus"},{"frame_index":399,"name":"ports_2","capacity":10000,"empty":742,"full":219,"on_shipper":15,"on_consignee":0,"shortage":0,"acc_shortage":233,"booking":7,"acc_booking":3398,"fulfillment":7,"acc_fulfillment":3165,"transfer_cost":0.0,"port_name":"Itagual","position":{"lat":-22.85222,"lng":-43.77528},"status":"surplus"},{"frame_index":399,"name":"ports_3","capacity":10000,"empty":1469,"full":1870,"on_shipper":69,"on_consignee":0,"shortage":0,"acc_shortage":0,"booking":42,"acc_booking":19444,"fulfillment":42,"acc_fulfillment":19444,"transfer_cost":0.0,"port_name":"LeHavre","position":{"lat":49.490002,"lng":0.1},"status":"surplus"},{"frame_index":399,"name":"ports_4","capacity":10000,"empty":1873,"full":1561,"on_shipper":49,"on_consignee":0,"shortage":0,"acc_shortage":0,"booking":35,"acc_booking":16247,"fulfillment":35,"acc_fulfillment":16247,"transfer_cost":0.0,"port_name":"Los Angeles","position":{"lat":34.052235,"lng":-118.243683},"status":"surplus"},{"frame_index":399,"name":"ports_5","capacity":10000,"empty":846,"full":545,"on_shipper":61,"on_consignee":0,"shortage":0,"acc_shortage":123,"booking":32,"acc_booking":16308,"fulfillment":32,"acc_fulfillment":16185,"transfer_cost":0.0,"port_name":"Manzanillo","position":{"lat":19.11695,"lng":-104.34214},"status":"surplus"},{"frame_index":399,"name":"ports_6","capacity":10000,"empty":0,"full":447,"on_shipper":0,"on_consignee":0,"shortage":11,"acc_shortage":673,"booking":11,"acc_booking":5001,"fulfillment":0,"acc_fulfillment":4328,"transfer_cost":0.0,"port_name":"Melbourne","position":{"lat":-37.840935,"lng":144.946457},"status":"demand"},{"frame_index":399,"name":"ports_7","capacity":10000,"empty":2081,"full":639,"on_shipper":18,"on_consignee":0,"shortage":0,"acc_shortage":0,"booking":11,"acc_booking":5004,"fulfillment":11,"acc_fulfillment":5004,"transfer_cost":0.0,"port_name":"Montreal","position":{"lat":45.516136,"lng":-73.65683},"status":"surplus"},{"frame_index":399,"name":"ports_8","capacity":10000,"empty":1761,"full":243,"on_shipper":37,"on_consignee":0,"shortage":0,"acc_shortage":0,"booking":20,"acc_booking":9764,"fulfillment":20,"acc_fulfillment":9764,"transfer_cost":0.0,"port_name":"New York","position":{"lat":40.73061,"lng":-73.935242},"status":"surplus"},{"frame_index":399,"name":"ports_9","capacity":10000,"empty":1274,"full":386,"on_shipper":37,"on_consignee":0,"shortage":0,"acc_shortage":0,"booking":22,"acc_booking":9752,"fulfillment":22,"acc_fulfillment":9752,"transfer_cost":0.0,"port_name":"Oakland","position":{"lat":37.804363,"lng":-122.271111},"status":"surplus"},{"frame_index":399,"name":"ports_10","capacity":10000,"empty":715,"full":785,"on_shipper":15,"on_consignee":0,"shortage":0,"acc_shortage":0,"booking":12,"acc_booking":4988,"fulfillment":12,"acc_fulfillment":4988,"transfer_cost":0.0,"port_name":"Prince Rupert","position":{"lat":54.312519,"lng":-130.305405},"status":"surplus"},{"frame_index":399,"name":"ports_11","capacity":10000,"empty":359,"full":1501,"on_shipper":66,"on_consignee":0,"shortage":0,"acc_shortage":0,"booking":41,"acc_booking":19386,"fulfillment":41,"acc_fulfillment":19386,"transfer_cost":0.0,"port_name":"Pusan","position":{"lat":35.166668,"lng":129.066666},"status":"surplus"},{"frame_index":399,"name":"ports_12","capacity":10000,"empty":793,"full":2393,"on_shipper":111,"on_consignee":0,"shortage":0,"acc_shortage":0,"booking":53,"acc_booking":25931,"fulfillment":53,"acc_fulfillment":25931,"transfer_cost":0.0,"port_name":"Qingdao","position":{"lat":36.066898,"lng":120.382698},"status":"surplus"},{"frame_index":399,"name":"ports_13","capacity":10000,"empty":216,"full":326,"on_shipper":18,"on_consignee":0,"shortage":0,"acc_shortage":123,"booking":8,"acc_booking":3390,"fulfillment":8,"acc_fulfillment":3267,"transfer_cost":0.0,"port_name":"San Antonio","position":{"lat":29.424349,"lng":-98.491142},"status":"surplus"},{"frame_index":399,"name":"ports_14","capacity":10000,"empty":329,"full":562,"on_shipper":12,"on_consignee":0,"shortage":0,"acc_shortage":697,"booking":7,"acc_booking":3435,"fulfillment":7,"acc_fulfillment":2738,"transfer_cost":0.0,"port_name":"Santos","position":{"lat":-23.96083,"lng":-46.33361},"status":"surplus"},{"frame_index":399,"name":"ports_15","capacity":10000,"empty":3272,"full":1817,"on_shipper":73,"on_consignee":0,"shortage":0,"acc_shortage":0,"booking":49,"acc_booking":22637,"fulfillment":49,"acc_fulfillment":22637,"transfer_cost":0.0,"port_name":"Seattle","position":{"lat":47.608013,"lng":-122.335167},"status":"surplus"},{"frame_index":399,"name":"ports_16","capacity":10000,"empty":529,"full":2465,"on_shipper":150,"on_consignee":330,"shortage":0,"acc_shortage":0,"booking":80,"acc_booking":32312,"fulfillment":80,"acc_fulfillment":32312,"transfer_cost":0.0,"port_name":"Shanghai","position":{"lat":31.224361,"lng":121.46917},"status":"surplus"},{"frame_index":399,"name":"ports_17","capacity":10000,"empty":2432,"full":782,"on_shipper":55,"on_consignee":0,"shortage":0,"acc_shortage":40,"booking":28,"acc_booking":13041,"fulfillment":28,"acc_fulfillment":13001,"transfer_cost":0.0,"port_name":"Singapore","position":{"lat":1.29027,"lng":103.851959},"status":"surplus"},{"frame_index":399,"name":"ports_18","capacity":10000,"empty":249,"full":109,"on_shipper":24,"on_consignee":0,"shortage":0,"acc_shortage":419,"booking":10,"acc_booking":4973,"fulfillment":10,"acc_fulfillment":4554,"transfer_cost":0.0,"port_name":"Sydney","position":{"lat":-33.865143,"lng":151.2099},"status":"surplus"},{"frame_index":399,"name":"ports_19","capacity":10000,"empty":306,"full":404,"on_shipper":23,"on_consignee":292,"shortage":0,"acc_shortage":0,"booking":15,"acc_booking":6650,"fulfillment":15,"acc_fulfillment":6650,"transfer_cost":0.0,"port_name":"Vancouver","position":{"lat":49.246292,"lng":-123.116226},"status":"surplus"},{"frame_index":399,"name":"ports_20","capacity":10000,"empty":516,"full":1238,"on_shipper":94,"on_consignee":0,"shortage":0,"acc_shortage":0,"booking":50,"acc_booking":22364,"fulfillment":50,"acc_fulfillment":22364,"transfer_cost":0.0,"port_name":"Yantian","position":{"lat":26.8533,"lng":119.8575},"status":"surplus"},{"frame_index":399,"name":"ports_21","capacity":10000,"empty":113,"full":1239,"on_shipper":96,"on_consignee":0,"shortage":0,"acc_shortage":1887,"booking":45,"acc_booking":21449,"fulfillment":45,"acc_fulfillment":19562,"transfer_cost":0.0,"port_name":"Yokohama","position":{"lat":35.443707,"lng":139.638031},"status":"demand"}]