[{"frame_index":235,"name":"ports_0","capacity":10000,"empty":3789,"full":2297,"on_shipper":58,"on_consignee":0,"shortage":0,"acc_shortage":0,"booking":27,"acc_booking":29117,"fulfillment":27,"acc_fulfillment":29117,"transfer_cost":0.0,"port_name":"Bremerhaven","position":{"lat":53.549999,"lng":8.583333},"status":"surplus"},{"frame_index":235,"name":"ports_1","capacity":10000,"empty":912,"full":21,"on_shipper":4,"on_consignee":0,"shortage":0,"acc_shortage":0,"booking":3,"acc_booking":1956,"fulfillment":3,"acc_fulfillment":1956,"transfer_cost":0.0,"port_name":"Durban","position":{"lat":-29.8579,"lng":31.0292},"status":"surplus"},{"frame_index":235,"name":"ports_2","capacity":10000,"empty":758,"full":115,"on_shipper":4,"on_consignee":0,"shortage":0,"acc_shortage":233,"booking":3,"acc_booking":1943,"fulfillment":3,"acc_fulfillment":1710,"transfer_cost":0.0,"port_name":"Itagual","position":{"lat":-22.85222,"lng":-43.77528},"status":"surplus"},{"frame_index":235,"name":"ports_3","capacity":10000,"empty":2763,"full":208,"on_shipper":25,"on_consignee":0,"shortage":0,"acc_shortage":0,"booking":12,"acc_booking":11061,"fulfillment":12,"acc_fulfillment":11061,"transfer_cost":0.0,"port_name":"LeHavre","position":{"lat":49.490002,"lng":0.1},"status":"surplus"},{"frame_index":235,"name":"ports_4","capacity":10000,"empty":1265,"full":735,"on_shipper":25,"on_consignee":0,"shortage":0,"acc_shortage":0,"booking":11,"acc_booking":9242,"fulfillment":11,"acc_fulfillment":9242,"transfer_cost":0.0,"port_name":"Los Angeles","position":{"lat":34.052235,"lng":-118.243683},"status":"surplus"},{"frame_index":235,"name":"ports_5","capacity":10000,"empty":1625,"full":190,"on_shipper":20,"on_consignee":0,"shortage":0,"acc_shortage":0,"booking":10,"acc_booking":9273,"fulfillment":10,"acc_fulfillment":9273,"transfer_cost":0.0,"port_name":"Manzanillo","position":{"lat":19.11695,"lng":-104.34214},"status":"surplus"},{"frame_index":235,"name":"ports_6","capacity":10000,"empty":195,"full":309,"on_shipper":5,"on_consignee":0,"shortage":0,"acc_shortage":0,"booking":3,"acc_booking":2845,"fulfillment":3,"acc_fulfillment":2845,"transfer_cost":0.0,"port_name":"Melbourne","position":{"lat":-37.840935,"lng":144.946457},"status":"surplus"},{"frame_index":235,"name":"ports_7","capacity":10000,"empty":2222,"full":204,"on_shipper":9,"on_consignee":0,"shortage":0,"acc_shortage":0,"booking":3,"acc_booking":2847,"fulfillment":3,"acc_fulfillment":2847,"transfer_cost":0.0,"port_name":"Montreal","position":{"lat":45.516136,"lng":-73.65683},"status":"surplus"},{"frame_index":235,"name":"ports_8","capacity":10000,"empty":4898,"full":43,"on_shipper":19,"on_consignee":0,"shortage":0,"acc_shortage":0,"booking":7,"acc_booking":5563,"fulfillment":7,"acc_fulfillment":5563,"transfer_cost":0.0,"port_name":"New York","position":{"lat":40.73061,"lng":-73.935242},"status":"surplus"},{"frame_index":235,"name":"ports_9","capacity":10000,"empty":1648,"full":288,"on_shipper":15,"on_consignee":0,"shortage":0,"acc_shortage":0,"booking":7,"acc_booking":5553,"fulfillment":7,"acc_fulfillment":5553,"transfer_cost":0.0,"port_name":"Oakland","position":{"lat":37.804363,"lng":-122.271111},"status":"surplus"},{"frame_index":235,"name":"ports_10","capacity":10000,"empty":353,"full":730,"on_shipper":10,"on_consignee":0,"shortage":0,"acc_shortage":0,"booking":4,"acc_booking":2831,"fulfillment":4,"acc_fulfillment":2831,"transfer_cost":0.0,"port_name":"Prince Rupert","position":{"lat":54.312519,"lng":-130.305405},"status":"surplus"},{"frame_index":235,"name":"ports_11","capacity":10000,"empty":1508,"full":1114,"on_shipper":24,"on_consignee":0,"shortage":0,"acc_shortage":0,"booking":12,"acc_booking":11027,"fulfillment":12,"acc_fulfillment":11027,"transfer_cost":0.0,"port_name":"Pusan","position":{"lat":35.166668,"lng":129.066666},"status":"surplus"},{"frame_index":235,"name":"ports_12","capacity":10000,"empty":1893,"full":448,"on_shipper":26,"on_consignee":0,"shortage":0,"acc_shortage":0,"booking":16,"acc_booking":14717,"fulfillment":16,"acc_fulfillment":14717,"transfer_cost":0.0,"port_name":"Qingdao","position":{"lat":36.066898,"lng":120.382698},"status":"surplus"},{"frame_index":235,"name":"ports_13","capacity":10000,"empty":542,"full":110,"on_shipper":5,"on_consignee":0,"shortage":0,"acc_shortage":55,"booking":3,"acc_booking":1938,"fulfillment":3,"acc_fulfillment":1883,"transfer_cost":0.0,"port_name":"San Antonio","position":{"lat":29.424349,"lng":-98.491142},"status":"surplus"},{"frame_index":235,"name":"ports_14","capacity":10000,"empty":641,"full":81,"on_shipper":6,"on_consignee":0,"shortage":0,"acc_shortage":697,"booking":3,"acc_booking":1960,"fulfillment":3,"acc_fulfillment":1263,"transfer_cost":0.0,"port_name":"Santos","position":{"lat":-23.96083,"lng":-46.33361},"status":"surplus"},{"frame_index":235,"name":"ports_15","capacity":10000,"empty":3632,"full":329,"on_shipper":27,"on_consignee":68,"shortage":0,"acc_shortage":0,"booking":15,"acc_booking":12873,"fulfillment":15,"acc_fulfillment":12873,"transfer_cost":0.0,"port_name":"Seattle","position":{"lat":47.608013,"lng":-122.335167},"status":"surplus"},{"frame_index":235,"name":"ports_16","capacity":10000,"empty":1178,"full":1316,"on_shipper":46,"on_consignee":0,"shortage":0,"acc_shortage":0,"booking":19,"acc_booking":18316,"fulfillment":19,"acc_fulfillment":18316,"transfer_cost":0.0,"port_name":"Shanghai","position":{"lat":31.224361,"lng":121.46917},"status":"surplus"},{"frame_index":235,"name":"ports_17","capacity":10000,"empty":651,"full":211,"on_shipper":17,"on_consignee":0,"shortage":0,"acc_shortage":40,"booking":9,"acc_booking":7421,"fulfillment":9,"acc_fulfillment":7381,"transfer_cost":0.0,"port_name":"Singapore","position":{"lat":1.29027,"lng":103.851959},"status":"surplus"},{"frame_index":235,"name":"ports_18","capacity":10000,"empty":279,"full":107,"on_shipper":8,"on_consignee":0,"shortage":0,"acc_shortage":5,"booking":3,"acc_booking":2819,"fulfillment":3,"acc_fulfillment":2814,"transfer_cost":0.0,"port_name":"Sydney","position":{"lat":-33.865143,"lng":151.2099},"status":"surplus"},{"frame_index":235,"name":"ports_19","capacity":10000,"empty":736,"full":288,"on_shipper":10,"on_consignee":0,"shortage":0,"acc_shortage":0,"booking":4,"acc_booking":3775,"fulfillment":4,"acc_fulfillment":3775,"transfer_cost":0.0,"port_name":"Vancouver","position":{"lat":49.246292,"lng":-123.116226},"status":"surplus"},{"frame_index":235,"name":"ports_20","capacity":10000,"empty":1980,"full":778,"on_shipper":20,"on_consignee":8,"shortage":0,"acc_shortage":0,"booking":15,"acc_booking":12689,"fulfillment":15,"acc_fulfillment":12689,"transfer_cost":0.0,"port_name":"Yantian","position":{"lat":26.8533,"lng":119.8575},"status":"surplus"},{"frame_index":235,"name":"ports_21","capacity":10000,"empty":1114,"full":146,"on_shipper":16,"on_consignee":0,"shortage":0,"acc_shortage":492,"booking":3,"acc_booking":12105,"fulfillment":3,"acc_fulfillment":11613,"transfer_cost":0.0,"port_name":"Yokohama","position":{"lat":35.443707,"lng":139.638031},"status":"surplus"}]