[{"frame_index":250,"name":"ports_0","capacity":10000,"empty":5351,"full":722,"on_shipper":124,"on_consignee":0,"shortage":0,"acc_shortage":0,"booking":113,"acc_booking":30293,"fulfillment":113,"acc_fulfillment":30293,"transfer_cost":0.0,"port_name":"Bremerhaven","position":{"lat":53.549999,"lng":8.583333},"status":"surplus"},{"frame_index":250,"name":"ports_1","capacity":10000,"empty":834,"full":95,"on_shipper":8,"on_consignee":0,"shortage":0,"acc_shortage":0,"booking":7,"acc_booking":2034,"fulfillment":7,"acc_fulfillment":2034,"transfer_cost":0.0,"port_name":"Durban","position":{"lat":-29.8579,"lng":31.0292},"status":"surplus"},{"frame_index":250,"name":"ports_2","capacity":10000,"empty":678,"full":190,"on_shipper":9,"on_consignee":0,"shortage":0,"acc_shortage":233,"booking":7,"acc_booking":2023,"fulfillment":7,"acc_fulfillment":1790,"transfer_cost":0.0,"port_name":"Itagual","position":{"lat":-22.85222,"lng":-43.77528},"status":"surplus"},{"frame_index":250,"name":"ports_3","capacity":10000,"empty":2317,"full":621,"on_shipper":58,"on_consignee":0,"shortage":0,"acc_shortage":0,"booking":41,"acc_booking":11507,"fulfillment":41,"acc_fulfillment":11507,"transfer_cost":0.0,"port_name":"LeHavre","position":{"lat":49.490002,"lng":0.1},"status":"surplus"},{"frame_index":250,"name":"ports_4","capacity":10000,"empty":892,"full":1085,"on_shipper":48,"on_consignee":0,"shortage":0,"acc_shortage":0,"booking":34,"acc_booking":9615,"fulfillment":34,"acc_fulfillment":9615,"transfer_cost":0.0,"port_name":"Los Angeles","position":{"lat":34.052235,"lng":-118.243683},"status":"surplus"},{"frame_index":250,"name":"ports_5","capacity":10000,"empty":1263,"full":533,"on_shipper":39,"on_consignee":0,"shortage":0,"acc_shortage":0,"booking":29,"acc_booking":9635,"fulfillment":29,"acc_fulfillment":9635,"transfer_cost":0.0,"port_name":"Manzanillo","position":{"lat":19.11695,"lng":-104.34214},"status":"surplus"},{"frame_index":250,"name":"ports_6","capacity":10000,"empty":234,"full":143,"on_shipper":16,"on_consignee":0,"shortage":0,"acc_shortage":0,"booking":10,"acc_booking":2962,"fulfillment":10,"acc_fulfillment":2962,"transfer_cost":0.0,"port_name":"Melbourne","position":{"lat":-37.840935,"lng":144.946457},"status":"surplus"},{"frame_index":250,"name":"ports_7","capacity":10000,"empty":2349,"full":84,"on_shipper":19,"on_consignee":0,"shortage":0,"acc_shortage":0,"booking":11,"acc_booking":2964,"fulfillment":11,"acc_fulfillment":2964,"transfer_cost":0.0,"port_name":"Montreal","position":{"lat":45.516136,"lng":-73.65683},"status":"surplus"},{"frame_index":250,"name":"ports_8","capacity":10000,"empty":4674,"full":250,"on_shipper":36,"on_consignee":0,"shortage":0,"acc_shortage":0,"booking":20,"acc_booking":5787,"fulfillment":20,"acc_fulfillment":5787,"transfer_cost":0.0,"port_name":"New York","position":{"lat":40.73061,"lng":-73.935242},"status":"surplus"},{"frame_index":250,"name":"ports_9","capacity":10000,"empty":1429,"full":488,"on_shipper":34,"on_consignee":0,"shortage":0,"acc_shortage":0,"booking":19,"acc_booking":5772,"fulfillment":19,"acc_fulfillment":5772,"transfer_cost":0.0,"port_name":"Oakland","position":{"lat":37.804363,"lng":-122.271111},"status":"surplus"},{"frame_index":250,"name":"ports_10","capacity":10000,"empty":1404,"full":16,"on_shipper":15,"on_consignee":0,"shortage":0,"acc_shortage":0,"booking":12,"acc_booking":2950,"fulfillment":12,"acc_fulfillment":2950,"transfer_cost":0.0,"port_name":"Prince Rupert","position":{"lat":54.312519,"lng":-130.305405},"status":"surplus"},{"frame_index":250,"name":"ports_11","capacity":10000,"empty":2233,"full":253,"on_shipper":61,"on_consignee":0,"shortage":0,"acc_shortage":0,"booking":40,"acc_booking":11464,"fulfillment":40,"acc_fulfillment":11464,"transfer_cost":0.0,"port_name":"Pusan","position":{"lat":35.166668,"lng":129.066666},"status":"surplus"},{"frame_index":250,"name":"ports_12","capacity":10000,"empty":1525,"full":730,"on_shipper":76,"on_consignee":163,"shortage":0,"acc_shortage":0,"booking":53,"acc_booking":15301,"fulfillment":53,"acc_fulfillment":15301,"transfer_cost":216.0,"port_name":"Qingdao","position":{"lat":36.066898,"lng":120.382698},"status":"surplus"},{"frame_index":250,"name":"ports_13","capacity":10000,"empty":593,"full":62,"on_shipper":11,"on_consignee":0,"shortage":0,"acc_shortage":55,"booking":8,"acc_booking":2020,"fulfillment":8,"acc_fulfillment":1965,"transfer_cost":0.0,"port_name":"San Antonio","position":{"lat":29.424349,"lng":-98.491142},"status":"surplus"},{"frame_index":250,"name":"ports_14","capacity":10000,"empty":1107,"full":36,"on_shipper":11,"on_consignee":0,"shortage":0,"acc_shortage":697,"booking":8,"acc_booking":2042,"fulfillment":8,"acc_fulfillment":1345,"transfer_cost":0.0,"port_name":"Santos","position":{"lat":-23.96083,"lng":-46.33361},"status":"surplus"},{"frame_index":250,"name":"ports_15","capacity":10000,"empty":3828,"full":312,"on_shipper":75,"on_consignee":0,"shortage":0,"acc_shortage":0,"booking":47,"acc_booking":13391,"fulfillment":47,"acc_fulfillment":13391,"transfer_cost":0.0,"port_name":"Seattle","position":{"lat":47.608013,"lng":-122.335167},"status":"surplus"},{"frame_index":250,"name":"ports_16","capacity":10000,"empty":3148,"full":1173,"on_shipper":84,"on_consignee":0,"shortage":0,"acc_shortage":0,"booking":65,"acc_booking":19050,"fulfillment":65,"acc_fulfillment":19050,"transfer_cost":0.0,"port_name":"Shanghai","position":{"lat":31.224361,"lng":121.46917},"status":"surplus"},{"frame_index":250,"name":"ports_17","capacity":10000,"empty":795,"full":308,"on_shipper":35,"on_consignee":0,"shortage":0,"acc_shortage":40,"booking":28,"acc_booking":7718,"fulfillment":28,"acc_fulfillment":7678,"transfer_cost":0.0,"port_name":"Singapore","position":{"lat":1.29027,"lng":103.851959},"status":"surplus"},{"frame_index":250,"name":"ports_18","capacity":10000,"empty":356,"full":142,"on_shipper":13,"on_consignee":0,"shortage":0,"acc_shortage":5,"booking":10,"acc_booking":2936,"fulfillment":10,"acc_fulfillment":2931,"transfer_cost":0.0,"port_name":"Sydney","position":{"lat":-33.865143,"lng":151.2099},"status":"surplus"},{"frame_index":250,"name":"ports_19","capacity":10000,"empty":831,"full":269,"on_shipper":18,"on_consignee":0,"shortage":0,"acc_shortage":0,"booking":15,"acc_booking":3934,"fulfillment":15,"acc_fulfillment":3934,"transfer_cost":0.0,"port_name":"Vancouver","position":{"lat":49.246292,"lng":-123.116226},"status":"surplus"},{"frame_index":250,"name":"ports_20","capacity":10000,"empty":2187,"full":739,"on_shipper":64,"on_consignee":29,"shortage":0,"acc_shortage":0,"booking":44,"acc_booking":13208,"fulfillment":44,"acc_fulfillment":13208,"transfer_cost":0.0,"port_name":"Yantian","position":{"lat":26.8533,"lng":119.8575},"status":"surplus"},{"frame_index":250,"name":"ports_21","capacity":10000,"empty":1939,"full":153,"on_shipper":54,"on_consignee":52,"shortage":0,"acc_shortage":492,"booking":40,"acc_booking":12509,"fulfillment":40,"acc_fulfillment":12017,"transfer_cost":0.0,"port_name":"Yokohama","position":{"lat":35.443707,"lng":139.638031},"status":"surplus"}]