[{"frame_index":228,"name":"ports_0","capacity":10000,"empty":3492,"full":1976,"on_shipper":76,"on_consignee":600,"shortage":0,"acc_shortage":0,"booking":71,"acc_booking":28814,"fulfillment":71,"acc_fulfillment":28814,"transfer_cost":160.0,"port_name":"Bremerhaven","position":{"lat":53.549999,"lng":8.583333},"status":"surplus"},{"frame_index":228,"name":"ports_1","capacity":10000,"empty":611,"full":267,"on_shipper":7,"on_consignee":0,"shortage":0,"acc_shortage":0,"booking":6,"acc_booking":1931,"fulfillment":6,"acc_fulfillment":1931,"transfer_cost":0.0,"port_name":"Durban","position":{"lat":-29.8579,"lng":31.0292},"status":"surplus"},{"frame_index":228,"name":"ports_2","capacity":10000,"empty":782,"full":89,"on_shipper":6,"on_consignee":0,"shortage":0,"acc_shortage":233,"booking":6,"acc_booking":1919,"fulfillment":6,"acc_fulfillment":1686,"transfer_cost":0.0,"port_name":"Itagual","position":{"lat":-22.85222,"lng":-43.77528},"status":"surplus"},{"frame_index":228,"name":"ports_3","capacity":10000,"empty":2586,"full":243,"on_shipper":38,"on_consignee":0,"shortage":0,"acc_shortage":0,"booking":31,"acc_booking":10942,"fulfillment":31,"acc_fulfillment":10942,"transfer_cost":0.0,"port_name":"LeHavre","position":{"lat":49.490002,"lng":0.1},"status":"surplus"},{"frame_index":228,"name":"ports_4","capacity":10000,"empty":1365,"full":626,"on_shipper":34,"on_consignee":0,"shortage":0,"acc_shortage":0,"booking":27,"acc_booking":9142,"fulfillment":27,"acc_fulfillment":9142,"transfer_cost":0.0,"port_name":"Los Angeles","position":{"lat":34.052235,"lng":-118.243683},"status":"surplus"},{"frame_index":228,"name":"ports_5","capacity":10000,"empty":1726,"full":76,"on_shipper":33,"on_consignee":0,"shortage":0,"acc_shortage":0,"booking":26,"acc_booking":9172,"fulfillment":26,"acc_fulfillment":9172,"transfer_cost":0.0,"port_name":"Manzanillo","position":{"lat":19.11695,"lng":-104.34214},"status":"surplus"},{"frame_index":228,"name":"ports_6","capacity":10000,"empty":228,"full":271,"on_shipper":10,"on_consignee":0,"shortage":0,"acc_shortage":0,"booking":8,"acc_booking":2812,"fulfillment":8,"acc_fulfillment":2812,"transfer_cost":0.0,"port_name":"Melbourne","position":{"lat":-37.840935,"lng":144.946457},"status":"surplus"},{"frame_index":228,"name":"ports_7","capacity":10000,"empty":2255,"full":170,"on_shipper":10,"on_consignee":0,"shortage":0,"acc_shortage":0,"booking":8,"acc_booking":2814,"fulfillment":8,"acc_fulfillment":2814,"transfer_cost":0.0,"port_name":"Montreal","position":{"lat":45.516136,"lng":-73.65683},"status":"surplus"},{"frame_index":228,"name":"ports_8","capacity":10000,"empty":1262,"full":56,"on_shipper":16,"on_consignee":0,"shortage":0,"acc_shortage":0,"booking":16,"acc_booking":5501,"fulfillment":16,"acc_fulfillment":5501,"transfer_cost":0.0,"port_name":"New York","position":{"lat":40.73061,"lng":-73.935242},"status":"surplus"},{"frame_index":228,"name":"ports_9","capacity":10000,"empty":1713,"full":223,"on_shipper":15,"on_consignee":0,"shortage":0,"acc_shortage":0,"booking":15,"acc_booking":5488,"fulfillment":15,"acc_fulfillment":5488,"transfer_cost":0.0,"port_name":"Oakland","position":{"lat":37.804363,"lng":-122.271111},"status":"surplus"},{"frame_index":228,"name":"ports_10","capacity":10000,"empty":387,"full":695,"on_shipper":11,"on_consignee":0,"shortage":0,"acc_shortage":0,"booking":10,"acc_booking":2797,"fulfillment":10,"acc_fulfillment":2797,"transfer_cost":0.0,"port_name":"Prince Rupert","position":{"lat":54.312519,"lng":-130.305405},"status":"surplus"},{"frame_index":228,"name":"ports_11","capacity":10000,"empty":1481,"full":1132,"on_shipper":33,"on_consignee":0,"shortage":0,"acc_shortage":0,"booking":30,"acc_booking":10909,"fulfillment":30,"acc_fulfillment":10909,"transfer_cost":0.0,"port_name":"Pusan","position":{"lat":35.166668,"lng":129.066666},"status":"surplus"},{"frame_index":228,"name":"ports_12","capacity":10000,"empty":2752,"full":296,"on_shipper":55,"on_consignee":0,"shortage":0,"acc_shortage":0,"booking":47,"acc_booking":14551,"fulfillment":47,"acc_fulfillment":14551,"transfer_cost":0.0,"port_name":"Qingdao","position":{"lat":36.066898,"lng":120.382698},"status":"surplus"},{"frame_index":228,"name":"ports_13","capacity":10000,"empty":565,"full":87,"on_shipper":5,"on_consignee":0,"shortage":0,"acc_shortage":55,"booking":5,"acc_booking":1915,"fulfillment":5,"acc_fulfillment":1860,"transfer_cost":0.0,"port_name":"San Antonio","position":{"lat":29.424349,"lng":-98.491142},"status":"surplus"},{"frame_index":228,"name":"ports_14","capacity":10000,"empty":664,"full":56,"on_shipper":8,"on_consignee":0,"shortage":0,"acc_shortage":697,"booking":6,"acc_booking":1937,"fulfillment":6,"acc_fulfillment":1240,"transfer_cost":0.0,"port_name":"Santos","position":{"lat":-23.96083,"lng":-46.33361},"status":"surplus"},{"frame_index":228,"name":"ports_15","capacity":10000,"empty":1764,"full":1057,"on_shipper":48,"on_consignee":0,"shortage":0,"acc_shortage":0,"booking":37,"acc_booking":12730,"fulfillment":37,"acc_fulfillment":12730,"transfer_cost":0.0,"port_name":"Seattle","position":{"lat":47.608013,"lng":-122.335167},"status":"surplus"},{"frame_index":228,"name":"ports_16","capacity":10000,"empty":806,"full":2350,"on_shipper":53,"on_consignee":0,"shortage":0,"acc_shortage":0,"booking":44,"acc_booking":18116,"fulfillment":44,"acc_fulfillment":18116,"transfer_cost":0.0,"port_name":"Shanghai","position":{"lat":31.224361,"lng":121.46917},"status":"surplus"},{"frame_index":228,"name":"ports_17","capacity":10000,"empty":732,"full":118,"on_shipper":29,"on_consignee":0,"shortage":0,"acc_shortage":40,"booking":21,"acc_booking":7340,"fulfillment":21,"acc_fulfillment":7300,"transfer_cost":0.0,"port_name":"Singapore","position":{"lat":1.29027,"lng":103.851959},"status":"surplus"},{"frame_index":228,"name":"ports_18","capacity":10000,"empty":312,"full":69,"on_shipper":13,"on_consignee":0,"shortage":0,"acc_shortage":5,"booking":9,"acc_booking":2786,"fulfillment":9,"acc_fulfillment":2781,"transfer_cost":0.0,"port_name":"Sydney","position":{"lat":-33.865143,"lng":151.2099},"status":"surplus"},{"frame_index":228,"name":"ports_19","capacity":10000,"empty":779,"full":241,"on_shipper":14,"on_consignee":0,"shortage":0,"acc_shortage":0,"booking":11,"acc_booking":3732,"fulfillment":11,"acc_fulfillment":3732,"transfer_cost":0.0,"port_name":"Vancouver","position":{"lat":49.246292,"lng":-123.116226},"status":"surplus"},{"frame_index":228,"name":"ports_20","capacity":10000,"empty":1661,"full":773,"on_shipper":37,"on_consignee":52,"shortage":0,"acc_shortage":0,"booking":33,"acc_booking":12550,"fulfillment":33,"acc_fulfillment":12550,"transfer_cost":0.0,"port_name":"Yantian","position":{"lat":26.8533,"lng":119.8575},"status":"surplus"},{"frame_index":228,"name":"ports_21","capacity":10000,"empty":746,"full":58,"on_shipper":32,"on_consignee":440,"shortage":0,"acc_shortage":492,"booking":30,"acc_booking":12033,"fulfillment":30,"acc_fulfillment":11541,"transfer_cost":0.0,"port_name":"Yokohama","position":{"lat":35.443707,"lng":139.638031},"status":"surplus"}]