[{"frame_index":539,"name":"ports_0","capacity":10000,"empty":2833,"full":3674,"on_shipper":158,"on_consignee":0,"shortage":0,"acc_shortage":522,"booking":75,"acc_booking":70061,"fulfillment":75,"acc_fulfillment":69539,"transfer_cost":0.0,"port_name":"Bremerhaven","position":{"lat":53.549999,"lng":8.583333},"status":"surplus"},{"frame_index":539,"name":"ports_1","capacity":10000,"empty":489,"full":99,"on_shipper":10,"on_consignee":0,"shortage":0,"acc_shortage":0,"booking":5,"acc_booking":4671,"fulfillment":5,"acc_fulfillment":4671,"transfer_cost":0.0,"port_name":"Durban","position":{"lat":-29.8579,"lng":31.0292},"status":"surplus"},{"frame_index":539,"name":"ports_2","capacity":10000,"empty":534,"full":487,"on_shipper":6,"on_consignee":0,"shortage":0,"acc_shortage":233,"booking":4,"acc_booking":4641,"fulfillment":4,"acc_fulfillment":4408,"transfer_cost":0.0,"port_name":"Itagual","position":{"lat":-22.85222,"lng":-43.77528},"status":"surplus"},{"frame_index":539,"name":"ports_3","capacity":10000,"empty":1126,"full":1180,"on_shipper":40,"on_consignee":0,"shortage":0,"acc_shortage":0,"booking":25,"acc_booking":26572,"fulfillment":25,"acc_fulfillment":26572,"transfer_cost":0.0,"port_name":"LeHavre","position":{"lat":49.490002,"lng":0.1},"status":"surplus"},{"frame_index":539,"name":"ports_4","capacity":10000,"empty":2141,"full":356,"on_shipper":37,"on_consignee":0,"shortage":0,"acc_shortage":0,"booking":21,"acc_booking":22218,"fulfillment":21,"acc_fulfillment":22218,"transfer_cost":0.0,"port_name":"Los Angeles","position":{"lat":34.052235,"lng":-118.243683},"status":"surplus"},{"frame_index":539,"name":"ports_5","capacity":10000,"empty":453,"full":222,"on_shipper":50,"on_consignee":0,"shortage":0,"acc_shortage":123,"booking":23,"acc_booking":22273,"fulfillment":23,"acc_fulfillment":22150,"transfer_cost":0.0,"port_name":"Manzanillo","position":{"lat":19.11695,"lng":-104.34214},"status":"surplus"},{"frame_index":539,"name":"ports_6","capacity":10000,"empty":0,"full":420,"on_shipper":0,"on_consignee":0,"shortage":6,"acc_shortage":1163,"booking":6,"acc_booking":6837,"fulfillment":0,"acc_fulfillment":5674,"transfer_cost":0.0,"port_name":"Melbourne","position":{"lat":-37.840935,"lng":144.946457},"status":"balance"},{"frame_index":539,"name":"ports_7","capacity":10000,"empty":1707,"full":210,"on_shipper":16,"on_consignee":0,"shortage":0,"acc_shortage":0,"booking":6,"acc_booking":6840,"fulfillment":6,"acc_fulfillment":6840,"transfer_cost":0.0,"port_name":"Montreal","position":{"lat":45.516136,"lng":-73.65683},"status":"surplus"},{"frame_index":539,"name":"ports_8","capacity":10000,"empty":3068,"full":31,"on_shipper":13,"on_consignee":0,"shortage":0,"acc_shortage":0,"booking":13,"acc_booking":13377,"fulfillment":13,"acc_fulfillment":13377,"transfer_cost":0.0,"port_name":"New York","position":{"lat":40.73061,"lng":-73.935242},"status":"surplus"},{"frame_index":539,"name":"ports_9","capacity":10000,"empty":153,"full":1668,"on_shipper":18,"on_consignee":0,"shortage":0,"acc_shortage":45,"booking":12,"acc_booking":13403,"fulfillment":12,"acc_fulfillment":13358,"transfer_cost":0.0,"port_name":"Oakland","position":{"lat":37.804363,"lng":-122.271111},"status":"surplus"},{"frame_index":539,"name":"ports_10","capacity":10000,"empty":716,"full":418,"on_shipper":14,"on_consignee":0,"shortage":0,"acc_shortage":314,"booking":7,"acc_booking":6855,"fulfillment":7,"acc_fulfillment":6541,"transfer_cost":0.0,"port_name":"Prince Rupert","position":{"lat":54.312519,"lng":-130.305405},"status":"surplus"},{"frame_index":539,"name":"ports_11","capacity":10000,"empty":303,"full":3203,"on_shipper":56,"on_consignee":0,"shortage":0,"acc_shortage":204,"booking":25,"acc_booking":26517,"fulfillment":25,"acc_fulfillment":26313,"transfer_cost":0.0,"port_name":"Pusan","position":{"lat":35.166668,"lng":129.066666},"status":"surplus"},{"frame_index":539,"name":"ports_12","capacity":10000,"empty":2167,"full":1200,"on_shipper":54,"on_consignee":0,"shortage":0,"acc_shortage":0,"booking":30,"acc_booking":35473,"fulfillment":30,"acc_fulfillment":35473,"transfer_cost":0.0,"port_name":"Qingdao","position":{"lat":36.066898,"lng":120.382698},"status":"surplus"},{"frame_index":539,"name":"ports_13","capacity":10000,"empty":234,"full":149,"on_shipper":8,"on_consignee":0,"shortage":0,"acc_shortage":286,"booking":4,"acc_booking":4638,"fulfillment":4,"acc_fulfillment":4352,"transfer_cost":0.0,"port_name":"San Antonio","position":{"lat":29.424349,"lng":-98.491142},"status":"surplus"},{"frame_index":539,"name":"ports_14","capacity":10000,"empty":248,"full":355,"on_shipper":10,"on_consignee":0,"shortage":0,"acc_shortage":762,"booking":4,"acc_booking":4686,"fulfillment":4,"acc_fulfillment":3924,"transfer_cost":0.0,"port_name":"Santos","position":{"lat":-23.96083,"lng":-46.33361},"status":"surplus"},{"frame_index":539,"name":"ports_15","capacity":10000,"empty":2483,"full":2021,"on_shipper":35,"on_consignee":0,"shortage":0,"acc_shortage":0,"booking":28,"acc_booking":30945,"fulfillment":28,"acc_fulfillment":30945,"transfer_cost":0.0,"port_name":"Seattle","position":{"lat":47.608013,"lng":-122.335167},"status":"surplus"},{"frame_index":539,"name":"ports_16","capacity":10000,"empty":285,"full":2128,"on_shipper":72,"on_consignee":0,"shortage":0,"acc_shortage":470,"booking":43,"acc_booking":44137,"fulfillment":43,"acc_fulfillment":43667,"transfer_cost":0.0,"port_name":"Shanghai","position":{"lat":31.224361,"lng":121.46917},"status":"surplus"},{"frame_index":539,"name":"ports_17","capacity":10000,"empty":1162,"full":526,"on_shipper":25,"on_consignee":0,"shortage":0,"acc_shortage":40,"booking":17,"acc_booking":17829,"fulfillment":17,"acc_fulfillment":17789,"transfer_cost":0.0,"port_name":"Singapore","position":{"lat":1.29027,"lng":103.851959},"status":"surplus"},{"frame_index":539,"name":"ports_18","capacity":10000,"empty":476,"full":144,"on_shipper":10,"on_consignee":0,"shortage":0,"acc_shortage":957,"booking":6,"acc_booking":6810,"fulfillment":6,"acc_fulfillment":5853,"transfer_cost":0.0,"port_name":"Sydney","position":{"lat":-33.865143,"lng":151.2099},"status":"surplus"},{"frame_index":539,"name":"ports_19","capacity":10000,"empty":814,"full":158,"on_shipper":13,"on_consignee":0,"shortage":0,"acc_shortage":0,"booking":8,"acc_booking":9094,"fulfillment":8,"acc_fulfillment":9094,"transfer_cost":0.0,"port_name":"Vancouver","position":{"lat":49.246292,"lng":-123.116226},"status":"surplus"},{"frame_index":539,"name":"ports_20","capacity":10000,"empty":121,"full":1983,"on_shipper":53,"on_consignee":42,"shortage":0,"acc_shortage":350,"booking":28,"acc_booking":30758,"fulfillment":28,"acc_fulfillment":30408,"transfer_cost":2.0,"port_name":"Yantian","position":{"lat":26.8533,"lng":119.8575},"status":"balance"},{"frame_index":539,"name":"ports_21","capacity":10000,"empty":31,"full":937,"on_shipper":33,"on_consignee":0,"shortage":0,"acc_shortage":3190,"booking":22,"acc_booking":29406,"fulfillment":22,"acc_fulfillment":26216,"transfer_cost":0.0,"port_name":"Yokohama","position":{"lat":35.443707,"lng":139.638031},"status":"demand"}]