[{"frame_index":377,"name":"ports_0","capacity":10000,"empty":2805,"full":1497,"on_shipper":412,"on_consignee":374,"shortage":0,"acc_shortage":522,"booking":262,"acc_booking":46725,"fulfillment":262,"acc_fulfillment":46203,"transfer_cost":0.0,"port_name":"Bremerhaven","position":{"lat":53.549999,"lng":8.583333},"status":"surplus"},{"frame_index":377,"name":"ports_1","capacity":10000,"empty":228,"full":268,"on_shipper":32,"on_consignee":0,"shortage":0,"acc_shortage":0,"booking":18,"acc_booking":3119,"fulfillment":18,"acc_fulfillment":3119,"transfer_cost":0.0,"port_name":"Durban","position":{"lat":-29.8579,"lng":31.0292},"status":"surplus"},{"frame_index":377,"name":"ports_2","capacity":10000,"empty":762,"full":12,"on_shipper":23,"on_consignee":130,"shortage":0,"acc_shortage":233,"booking":17,"acc_booking":3103,"fulfillment":17,"acc_fulfillment":2870,"transfer_cost":0.0,"port_name":"Itagual","position":{"lat":-22.85222,"lng":-43.77528},"status":"surplus"},{"frame_index":377,"name":"ports_3","capacity":10000,"empty":1418,"full":953,"on_shipper":150,"on_consignee":0,"shortage":0,"acc_shortage":0,"booking":99,"acc_booking":17740,"fulfillment":99,"acc_fulfillment":17740,"transfer_cost":0.0,"port_name":"LeHavre","position":{"lat":49.490002,"lng":0.1},"status":"surplus"},{"frame_index":377,"name":"ports_4","capacity":10000,"empty":2783,"full":46,"on_shipper":132,"on_consignee":522,"shortage":0,"acc_shortage":0,"booking":83,"acc_booking":14815,"fulfillment":83,"acc_fulfillment":14815,"transfer_cost":0.0,"port_name":"Los Angeles","position":{"lat":34.052235,"lng":-118.243683},"status":"surplus"},{"frame_index":377,"name":"ports_5","capacity":10000,"empty":2034,"full":425,"on_shipper":121,"on_consignee":0,"shortage":0,"acc_shortage":123,"booking":88,"acc_booking":14865,"fulfillment":88,"acc_fulfillment":14742,"transfer_cost":0.0,"port_name":"Manzanillo","position":{"lat":19.11695,"lng":-104.34214},"status":"surplus"},{"frame_index":377,"name":"ports_6","capacity":10000,"empty":106,"full":295,"on_shipper":46,"on_consignee":0,"shortage":0,"acc_shortage":340,"booking":26,"acc_booking":4562,"fulfillment":26,"acc_fulfillment":4222,"transfer_cost":0.0,"port_name":"Melbourne","position":{"lat":-37.840935,"lng":144.946457},"status":"balance"},{"frame_index":377,"name":"ports_7","capacity":10000,"empty":2515,"full":189,"on_shipper":34,"on_consignee":0,"shortage":0,"acc_shortage":0,"booking":26,"acc_booking":4570,"fulfillment":26,"acc_fulfillment":4570,"transfer_cost":0.0,"port_name":"Montreal","position":{"lat":45.516136,"lng":-73.65683},"status":"surplus"},{"frame_index":377,"name":"ports_8","capacity":10000,"empty":1543,"full":484,"on_shipper":49,"on_consignee":0,"shortage":0,"acc_shortage":0,"booking":49,"acc_booking":8917,"fulfillment":49,"acc_fulfillment":8917,"transfer_cost":0.0,"port_name":"New York","position":{"lat":40.73061,"lng":-73.935242},"status":"surplus"},{"frame_index":377,"name":"ports_9","capacity":10000,"empty":3282,"full":103,"on_shipper":79,"on_consignee":0,"shortage":0,"acc_shortage":0,"booking":56,"acc_booking":8889,"fulfillment":56,"acc_fulfillment":8889,"transfer_cost":0.0,"port_name":"Oakland","position":{"lat":37.804363,"lng":-122.271111},"status":"surplus"},{"frame_index":377,"name":"ports_10","capacity":10000,"empty":1143,"full":331,"on_shipper":41,"on_consignee":0,"shortage":0,"acc_shortage":0,"booking":25,"acc_booking":4560,"fulfillment":25,"acc_fulfillment":4560,"transfer_cost":0.0,"port_name":"Prince Rupert","position":{"lat":54.312519,"lng":-130.305405},"status":"surplus"},{"frame_index":377,"name":"ports_11","capacity":10000,"empty":1328,"full":876,"on_shipper":118,"on_consignee":0,"shortage":0,"acc_shortage":0,"booking":106,"acc_booking":17673,"fulfillment":106,"acc_fulfillment":17673,"transfer_cost":0.0,"port_name":"Pusan","position":{"lat":35.166668,"lng":129.066666},"status":"surplus"},{"frame_index":377,"name":"ports_12","capacity":10000,"empty":739,"full":1601,"on_shipper":176,"on_consignee":0,"shortage":0,"acc_shortage":0,"booking":121,"acc_booking":23616,"fulfillment":121,"acc_fulfillment":23616,"transfer_cost":0.0,"port_name":"Qingdao","position":{"lat":36.066898,"lng":120.382698},"status":"surplus"},{"frame_index":377,"name":"ports_13","capacity":10000,"empty":509,"full":21,"on_shipper":30,"on_consignee":0,"shortage":0,"acc_shortage":123,"booking":19,"acc_booking":3097,"fulfillment":19,"acc_fulfillment":2974,"transfer_cost":0.0,"port_name":"San Antonio","position":{"lat":29.424349,"lng":-98.491142},"status":"surplus"},{"frame_index":377,"name":"ports_14","capacity":10000,"empty":617,"full":272,"on_shipper":14,"on_consignee":0,"shortage":0,"acc_shortage":697,"booking":14,"acc_booking":3147,"fulfillment":14,"acc_fulfillment":2450,"transfer_cost":0.0,"port_name":"Santos","position":{"lat":-23.96083,"lng":-46.33361},"status":"surplus"},{"frame_index":377,"name":"ports_15","capacity":10000,"empty":5014,"full":788,"on_shipper":157,"on_consignee":0,"shortage":0,"acc_shortage":0,"booking":122,"acc_booking":20636,"fulfillment":122,"acc_fulfillment":20636,"transfer_cost":0.0,"port_name":"Seattle","position":{"lat":47.608013,"lng":-122.335167},"status":"surplus"},{"frame_index":377,"name":"ports_16","capacity":10000,"empty":3307,"full":906,"on_shipper":183,"on_consignee":0,"shortage":0,"acc_shortage":0,"booking":148,"acc_booking":29460,"fulfillment":148,"acc_fulfillment":29460,"transfer_cost":0.0,"port_name":"Shanghai","position":{"lat":31.224361,"lng":121.46917},"status":"surplus"},{"frame_index":377,"name":"ports_17","capacity":10000,"empty":3891,"full":205,"on_shipper":91,"on_consignee":0,"shortage":0,"acc_shortage":40,"booking":69,"acc_booking":11891,"fulfillment":69,"acc_fulfillment":11851,"transfer_cost":0.0,"port_name":"Singapore","position":{"lat":1.29027,"lng":103.851959},"status":"surplus"},{"frame_index":377,"name":"ports_18","capacity":10000,"empty":245,"full":139,"on_shipper":32,"on_consignee":0,"shortage":0,"acc_shortage":419,"booking":25,"acc_booking":4536,"fulfillment":25,"acc_fulfillment":4117,"transfer_cost":0.0,"port_name":"Sydney","position":{"lat":-33.865143,"lng":151.2099},"status":"surplus"},{"frame_index":377,"name":"ports_19","capacity":10000,"empty":891,"full":143,"on_shipper":50,"on_consignee":0,"shortage":0,"acc_shortage":0,"booking":34,"acc_booking":6065,"fulfillment":34,"acc_fulfillment":6065,"transfer_cost":0.0,"port_name":"Vancouver","position":{"lat":49.246292,"lng":-123.116226},"status":"surplus"},{"frame_index":377,"name":"ports_20","capacity":10000,"empty":1773,"full":1377,"on_shipper":164,"on_consignee":0,"shortage":0,"acc_shortage":0,"booking":119,"acc_booking":20428,"fulfillment":119,"acc_fulfillment":20428,"transfer_cost":0.0,"port_name":"Yantian","position":{"lat":26.8533,"lng":119.8575},"status":"surplus"},{"frame_index":377,"name":"ports_21","capacity":10000,"empty":1430,"full":233,"on_shipper":163,"on_consignee":0,"shortage":0,"acc_shortage":1887,"booking":122,"acc_booking":19395,"fulfillment":122,"acc_fulfillment":17508,"transfer_cost":0.0,"port_name":"Yokohama","position":{"lat":35.443707,"lng":139.638031},"status":"surplus"}]