[{"frame_index":598,"name":"ports_0","capacity":10000,"empty":6085,"full":3229,"on_shipper":126,"on_consignee":0,"shortage":0,"acc_shortage":522,"booking":118,"acc_booking":74934,"fulfillment":118,"acc_fulfillment":74412,"transfer_cost":0.0,"port_name":"Bremerhaven","position":{"lat":53.549999,"lng":8.583333},"status":"surplus"},{"frame_index":598,"name":"ports_1","capacity":10000,"empty":562,"full":5,"on_shipper":11,"on_consignee":25,"shortage":0,"acc_shortage":0,"booking":9,"acc_booking":4998,"fulfillment":9,"acc_fulfillment":4998,"transfer_cost":0.0,"port_name":"Durban","position":{"lat":-29.8579,"lng":31.0292},"status":"surplus"},{"frame_index":598,"name":"ports_2","capacity":10000,"empty":417,"full":158,"on_shipper":14,"on_consignee":0,"shortage":0,"acc_shortage":233,"booking":8,"acc_booking":4969,"fulfillment":8,"acc_fulfillment":4736,"transfer_cost":0.0,"port_name":"Itagual","position":{"lat":-22.85222,"lng":-43.77528},"status":"surplus"},{"frame_index":598,"name":"ports_3","capacity":10000,"empty":630,"full":1873,"on_shipper":58,"on_consignee":0,"shortage":0,"acc_shortage":0,"booking":46,"acc_booking":28386,"fulfillment":46,"acc_fulfillment":28386,"transfer_cost":0.0,"port_name":"LeHavre","position":{"lat":49.490002,"lng":0.1},"status":"surplus"},{"frame_index":598,"name":"ports_4","capacity":10000,"empty":999,"full":886,"on_shipper":43,"on_consignee":0,"shortage":0,"acc_shortage":0,"booking":38,"acc_booking":23753,"fulfillment":38,"acc_fulfillment":23753,"transfer_cost":0.0,"port_name":"Los Angeles","position":{"lat":34.052235,"lng":-118.243683},"status":"surplus"},{"frame_index":598,"name":"ports_5","capacity":10000,"empty":2741,"full":171,"on_shipper":65,"on_consignee":0,"shortage":0,"acc_shortage":123,"booking":44,"acc_booking":23793,"fulfillment":44,"acc_fulfillment":23670,"transfer_cost":0.0,"port_name":"Manzanillo","position":{"lat":19.11695,"lng":-104.34214},"status":"surplus"},{"frame_index":598,"name":"ports_6","capacity":10000,"empty":435,"full":184,"on_shipper":18,"on_consignee":0,"shortage":0,"acc_shortage":1259,"booking":12,"acc_booking":7315,"fulfillment":12,"acc_fulfillment":6056,"transfer_cost":0.0,"port_name":"Melbourne","position":{"lat":-37.840935,"lng":144.946457},"status":"surplus"},{"frame_index":598,"name":"ports_7","capacity":10000,"empty":1885,"full":136,"on_shipper":21,"on_consignee":0,"shortage":0,"acc_shortage":0,"booking":12,"acc_booking":7320,"fulfillment":12,"acc_fulfillment":7320,"transfer_cost":0.0,"port_name":"Montreal","position":{"lat":45.516136,"lng":-73.65683},"status":"surplus"},{"frame_index":598,"name":"ports_8","capacity":10000,"empty":1364,"full":750,"on_shipper":34,"on_consignee":0,"shortage":0,"acc_shortage":0,"booking":24,"acc_booking":14303,"fulfillment":24,"acc_fulfillment":14303,"transfer_cost":0.0,"port_name":"New York","position":{"lat":40.73061,"lng":-73.935242},"status":"surplus"},{"frame_index":598,"name":"ports_9","capacity":10000,"empty":1351,"full":116,"on_shipper":38,"on_consignee":0,"shortage":0,"acc_shortage":45,"booking":23,"acc_booking":14328,"fulfillment":23,"acc_fulfillment":14283,"transfer_cost":0.0,"port_name":"Oakland","position":{"lat":37.804363,"lng":-122.271111},"status":"surplus"},{"frame_index":598,"name":"ports_10","capacity":10000,"empty":1631,"full":124,"on_shipper":16,"on_consignee":0,"shortage":0,"acc_shortage":314,"booking":10,"acc_booking":7340,"fulfillment":10,"acc_fulfillment":7026,"transfer_cost":0.0,"port_name":"Prince Rupert","position":{"lat":54.312519,"lng":-130.305405},"status":"surplus"},{"frame_index":598,"name":"ports_11","capacity":10000,"empty":3527,"full":390,"on_shipper":65,"on_consignee":0,"shortage":0,"acc_shortage":204,"booking":48,"acc_booking":28337,"fulfillment":48,"acc_fulfillment":28133,"transfer_cost":0.0,"port_name":"Pusan","position":{"lat":35.166668,"lng":129.066666},"status":"surplus"},{"frame_index":598,"name":"ports_12","capacity":10000,"empty":2934,"full":1065,"on_shipper":78,"on_consignee":97,"shortage":0,"acc_shortage":0,"booking":56,"acc_booking":37893,"fulfillment":56,"acc_fulfillment":37893,"transfer_cost":217.0,"port_name":"Qingdao","position":{"lat":36.066898,"lng":120.382698},"status":"surplus"},{"frame_index":598,"name":"ports_13","capacity":10000,"empty":299,"full":180,"on_shipper":11,"on_consignee":0,"shortage":0,"acc_shortage":286,"booking":8,"acc_booking":4966,"fulfillment":8,"acc_fulfillment":4680,"transfer_cost":0.0,"port_name":"San Antonio","position":{"lat":29.424349,"lng":-98.491142},"status":"surplus"},{"frame_index":598,"name":"ports_14","capacity":10000,"empty":1406,"full":3,"on_shipper":11,"on_consignee":10,"shortage":0,"acc_shortage":762,"booking":7,"acc_booking":5010,"fulfillment":7,"acc_fulfillment":4248,"transfer_cost":0.0,"port_name":"Santos","position":{"lat":-23.96083,"lng":-46.33361},"status":"surplus"},{"frame_index":598,"name":"ports_15","capacity":10000,"empty":4283,"full":271,"on_shipper":64,"on_consignee":0,"shortage":0,"acc_shortage":0,"booking":52,"acc_booking":33067,"fulfillment":52,"acc_fulfillment":33067,"transfer_cost":0.0,"port_name":"Seattle","position":{"lat":47.608013,"lng":-122.335167},"status":"surplus"},{"frame_index":598,"name":"ports_16","capacity":10000,"empty":1097,"full":998,"on_shipper":119,"on_consignee":47,"shortage":0,"acc_shortage":470,"booking":71,"acc_booking":47119,"fulfillment":71,"acc_fulfillment":46649,"transfer_cost":0.0,"port_name":"Shanghai","position":{"lat":31.224361,"lng":121.46917},"status":"surplus"},{"frame_index":598,"name":"ports_17","capacity":10000,"empty":1463,"full":78,"on_shipper":46,"on_consignee":10,"shortage":0,"acc_shortage":40,"booking":31,"acc_booking":19058,"fulfillment":31,"acc_fulfillment":19018,"transfer_cost":0.0,"port_name":"Singapore","position":{"lat":1.29027,"lng":103.851959},"status":"surplus"},{"frame_index":598,"name":"ports_18","capacity":10000,"empty":513,"full":10,"on_shipper":11,"on_consignee":267,"shortage":0,"acc_shortage":957,"booking":11,"acc_booking":7284,"fulfillment":11,"acc_fulfillment":6327,"transfer_cost":0.0,"port_name":"Sydney","position":{"lat":-33.865143,"lng":151.2099},"status":"surplus"},{"frame_index":598,"name":"ports_19","capacity":10000,"empty":753,"full":178,"on_shipper":26,"on_consignee":496,"shortage":0,"acc_shortage":0,"booking":16,"acc_booking":9731,"fulfillment":16,"acc_fulfillment":9731,"transfer_cost":139.0,"port_name":"Vancouver","position":{"lat":49.246292,"lng":-123.116226},"status":"surplus"},{"frame_index":598,"name":"ports_20","capacity":10000,"empty":1418,"full":649,"on_shipper":59,"on_consignee":0,"shortage":0,"acc_shortage":395,"booking":50,"acc_booking":32886,"fulfillment":50,"acc_fulfillment":32491,"transfer_cost":0.0,"port_name":"Yantian","position":{"lat":26.8533,"lng":119.8575},"status":"surplus"},{"frame_index":598,"name":"ports_21","capacity":10000,"empty":783,"full":961,"on_shipper":75,"on_consignee":0,"shortage":0,"acc_shortage":3258,"booking":47,"acc_booking":31201,"fulfillment":47,"acc_fulfillment":27943,"transfer_cost":0.0,"port_name":"Yokohama","position":{"lat":35.443707,"lng":139.638031},"status":"surplus"}]