[{"frame_index":410,"name":"ports_0","capacity":10000,"empty":2338,"full":4453,"on_shipper":263,"on_consignee":0,"shortage":0,"acc_shortage":522,"booking":175,"acc_booking":53207,"fulfillment":175,"acc_fulfillment":52685,"transfer_cost":0.0,"port_name":"Bremerhaven","position":{"lat":53.549999,"lng":8.583333},"status":"surplus"},{"frame_index":410,"name":"ports_1","capacity":10000,"empty":210,"full":261,"on_shipper":23,"on_consignee":0,"shortage":0,"acc_shortage":0,"booking":15,"acc_booking":3566,"fulfillment":15,"acc_fulfillment":3566,"transfer_cost":0.0,"port_name":"Durban","position":{"lat":-29.8579,"lng":31.0292},"status":"surplus"},{"frame_index":410,"name":"ports_2","capacity":10000,"empty":601,"full":357,"on_shipper":18,"on_consignee":0,"shortage":0,"acc_shortage":233,"booking":13,"acc_booking":3539,"fulfillment":13,"acc_fulfillment":3306,"transfer_cost":0.0,"port_name":"Itagual","position":{"lat":-22.85222,"lng":-43.77528},"status":"surplus"},{"frame_index":410,"name":"ports_3","capacity":10000,"empty":305,"full":379,"on_shipper":134,"on_consignee":927,"shortage":0,"acc_shortage":0,"booking":78,"acc_booking":20257,"fulfillment":78,"acc_fulfillment":20257,"transfer_cost":131.0,"port_name":"LeHavre","position":{"lat":49.490002,"lng":0.1},"status":"demand"},{"frame_index":410,"name":"ports_4","capacity":10000,"empty":1188,"full":2200,"on_shipper":95,"on_consignee":0,"shortage":0,"acc_shortage":0,"booking":64,"acc_booking":16932,"fulfillment":64,"acc_fulfillment":16932,"transfer_cost":0.0,"port_name":"Los Angeles","position":{"lat":34.052235,"lng":-118.243683},"status":"surplus"},{"frame_index":410,"name":"ports_5","capacity":10000,"empty":145,"full":1226,"on_shipper":81,"on_consignee":0,"shortage":0,"acc_shortage":123,"booking":58,"acc_booking":17009,"fulfillment":58,"acc_fulfillment":16886,"transfer_cost":0.0,"port_name":"Manzanillo","position":{"lat":19.11695,"lng":-104.34214},"status":"demand"},{"frame_index":410,"name":"ports_6","capacity":10000,"empty":211,"full":16,"on_shipper":28,"on_consignee":97,"shortage":0,"acc_shortage":819,"booking":20,"acc_booking":5211,"fulfillment":20,"acc_fulfillment":4392,"transfer_cost":0.0,"port_name":"Melbourne","position":{"lat":-37.840935,"lng":144.946457},"status":"surplus"},{"frame_index":410,"name":"ports_7","capacity":10000,"empty":1874,"full":835,"on_shipper":29,"on_consignee":0,"shortage":0,"acc_shortage":0,"booking":20,"acc_booking":5211,"fulfillment":20,"acc_fulfillment":5211,"transfer_cost":0.0,"port_name":"Montreal","position":{"lat":45.516136,"lng":-73.65683},"status":"surplus"},{"frame_index":410,"name":"ports_8","capacity":10000,"empty":1352,"full":628,"on_shipper":61,"on_consignee":0,"shortage":0,"acc_shortage":0,"booking":39,"acc_booking":10173,"fulfillment":39,"acc_fulfillment":10173,"transfer_cost":0.0,"port_name":"New York","position":{"lat":40.73061,"lng":-73.935242},"status":"surplus"},{"frame_index":410,"name":"ports_9","capacity":10000,"empty":847,"full":778,"on_shipper":72,"on_consignee":0,"shortage":0,"acc_shortage":0,"booking":45,"acc_booking":10179,"fulfillment":45,"acc_fulfillment":10179,"transfer_cost":0.0,"port_name":"Oakland","position":{"lat":37.804363,"lng":-122.271111},"status":"surplus"},{"frame_index":410,"name":"ports_10","capacity":10000,"empty":502,"full":982,"on_shipper":31,"on_consignee":0,"shortage":0,"acc_shortage":0,"booking":20,"acc_booking":5201,"fulfillment":20,"acc_fulfillment":5201,"transfer_cost":0.0,"port_name":"Prince Rupert","position":{"lat":54.312519,"lng":-130.305405},"status":"surplus"},{"frame_index":410,"name":"ports_11","capacity":10000,"empty":658,"full":852,"on_shipper":103,"on_consignee":0,"shortage":0,"acc_shortage":204,"booking":76,"acc_booking":20203,"fulfillment":76,"acc_fulfillment":19999,"transfer_cost":0.0,"port_name":"Pusan","position":{"lat":35.166668,"lng":129.066666},"status":"surplus"},{"frame_index":410,"name":"ports_12","capacity":10000,"empty":2167,"full":992,"on_shipper":176,"on_consignee":4,"shortage":0,"acc_shortage":0,"booking":114,"acc_booking":27034,"fulfillment":114,"acc_fulfillment":27034,"transfer_cost":0.0,"port_name":"Qingdao","position":{"lat":36.066898,"lng":120.382698},"status":"surplus"},{"frame_index":410,"name":"ports_13","capacity":10000,"empty":71,"full":465,"on_shipper":24,"on_consignee":0,"shortage":0,"acc_shortage":123,"booking":14,"acc_booking":3535,"fulfillment":14,"acc_fulfillment":3412,"transfer_cost":0.0,"port_name":"San Antonio","position":{"lat":29.424349,"lng":-98.491142},"status":"balance"},{"frame_index":410,"name":"ports_14","capacity":10000,"empty":180,"full":698,"on_shipper":25,"on_consignee":0,"shortage":0,"acc_shortage":697,"booking":15,"acc_booking":3584,"fulfillment":15,"acc_fulfillment":2887,"transfer_cost":0.0,"port_name":"Santos","position":{"lat":-23.96083,"lng":-46.33361},"status":"surplus"},{"frame_index":410,"name":"ports_15","capacity":10000,"empty":2632,"full":1766,"on_shipper":144,"on_consignee":0,"shortage":0,"acc_shortage":0,"booking":91,"acc_booking":23583,"fulfillment":91,"acc_fulfillment":23583,"transfer_cost":0.0,"port_name":"Seattle","position":{"lat":47.608013,"lng":-122.335167},"status":"surplus"},{"frame_index":410,"name":"ports_16","capacity":10000,"empty":260,"full":3143,"on_shipper":138,"on_consignee":203,"shortage":0,"acc_shortage":0,"booking":110,"acc_booking":33664,"fulfillment":110,"acc_fulfillment":33664,"transfer_cost":0.0,"port_name":"Shanghai","position":{"lat":31.224361,"lng":121.46917},"status":"demand"},{"frame_index":410,"name":"ports_17","capacity":10000,"empty":2134,"full":1109,"on_shipper":72,"on_consignee":0,"shortage":0,"acc_shortage":40,"booking":52,"acc_booking":13590,"fulfillment":52,"acc_fulfillment":13550,"transfer_cost":0.0,"port_name":"Singapore","position":{"lat":1.29027,"lng":103.851959},"status":"surplus"},{"frame_index":410,"name":"ports_18","capacity":10000,"empty":41,"full":316,"on_shipper":25,"on_consignee":0,"shortage":0,"acc_shortage":419,"booking":20,"acc_booking":5181,"fulfillment":20,"acc_fulfillment":4762,"transfer_cost":0.0,"port_name":"Sydney","position":{"lat":-33.865143,"lng":151.2099},"status":"demand"},{"frame_index":410,"name":"ports_19","capacity":10000,"empty":390,"full":664,"on_shipper":33,"on_consignee":0,"shortage":0,"acc_shortage":0,"booking":26,"acc_booking":6927,"fulfillment":26,"acc_fulfillment":6927,"transfer_cost":0.0,"port_name":"Vancouver","position":{"lat":49.246292,"lng":-123.116226},"status":"surplus"},{"frame_index":410,"name":"ports_20","capacity":10000,"empty":127,"full":1059,"on_shipper":133,"on_consignee":45,"shortage":0,"acc_shortage":325,"booking":101,"acc_booking":23348,"fulfillment":101,"acc_fulfillment":23023,"transfer_cost":1.0,"port_name":"Yantian","position":{"lat":26.8533,"lng":119.8575},"status":"demand"},{"frame_index":410,"name":"ports_21","capacity":10000,"empty":326,"full":474,"on_shipper":118,"on_consignee":0,"shortage":0,"acc_shortage":2444,"booking":90,"acc_booking":22418,"fulfillment":90,"acc_fulfillment":19974,"transfer_cost":0.0,"port_name":"Yokohama","position":{"lat":35.443707,"lng":139.638031},"status":"demand"}]