[{"frame_index":783,"name":"ports_0","capacity":10000,"empty":2439,"full":4839,"on_shipper":86,"on_consignee":0,"shortage":0,"acc_shortage":522,"booking":64,"acc_booking":100450,"fulfillment":64,"acc_fulfillment":99928,"transfer_cost":0.0,"port_name":"Bremerhaven","position":{"lat":53.549999,"lng":8.583333},"status":"surplus"},{"frame_index":783,"name":"ports_1","capacity":10000,"empty":193,"full":67,"on_shipper":8,"on_consignee":0,"shortage":0,"acc_shortage":10,"booking":5,"acc_booking":6675,"fulfillment":5,"acc_fulfillment":6665,"transfer_cost":0.0,"port_name":"Durban","position":{"lat":-29.8579,"lng":31.0292},"status":"surplus"},{"frame_index":783,"name":"ports_2","capacity":10000,"empty":531,"full":51,"on_shipper":6,"on_consignee":0,"shortage":0,"acc_shortage":298,"booking":5,"acc_booking":6652,"fulfillment":5,"acc_fulfillment":6354,"transfer_cost":0.0,"port_name":"Itagual","position":{"lat":-22.85222,"lng":-43.77528},"status":"surplus"},{"frame_index":783,"name":"ports_3","capacity":10000,"empty":1578,"full":2444,"on_shipper":40,"on_consignee":0,"shortage":0,"acc_shortage":0,"booking":28,"acc_booking":38026,"fulfillment":28,"acc_fulfillment":38026,"transfer_cost":0.0,"port_name":"LeHavre","position":{"lat":49.490002,"lng":0.1},"status":"surplus"},{"frame_index":783,"name":"ports_4","capacity":10000,"empty":642,"full":306,"on_shipper":37,"on_consignee":0,"shortage":0,"acc_shortage":290,"booking":23,"acc_booking":31828,"fulfillment":23,"acc_fulfillment":31538,"transfer_cost":0.0,"port_name":"Los Angeles","position":{"lat":34.052235,"lng":-118.243683},"status":"surplus"},{"frame_index":783,"name":"ports_5","capacity":10000,"empty":1468,"full":929,"on_shipper":33,"on_consignee":0,"shortage":0,"acc_shortage":123,"booking":20,"acc_booking":31949,"fulfillment":20,"acc_fulfillment":31826,"transfer_cost":0.0,"port_name":"Manzanillo","position":{"lat":19.11695,"lng":-104.34214},"status":"surplus"},{"frame_index":783,"name":"ports_6","capacity":10000,"empty":313,"full":131,"on_shipper":7,"on_consignee":0,"shortage":0,"acc_shortage":1572,"booking":7,"acc_booking":9798,"fulfillment":7,"acc_fulfillment":8226,"transfer_cost":0.0,"port_name":"Melbourne","position":{"lat":-37.840935,"lng":144.946457},"status":"surplus"},{"frame_index":783,"name":"ports_7","capacity":10000,"empty":1034,"full":14,"on_shipper":10,"on_consignee":0,"shortage":0,"acc_shortage":0,"booking":7,"acc_booking":9807,"fulfillment":7,"acc_fulfillment":9807,"transfer_cost":0.0,"port_name":"Montreal","position":{"lat":45.516136,"lng":-73.65683},"status":"surplus"},{"frame_index":783,"name":"ports_8","capacity":10000,"empty":4117,"full":118,"on_shipper":22,"on_consignee":0,"shortage":0,"acc_shortage":136,"booking":15,"acc_booking":19158,"fulfillment":15,"acc_fulfillment":19022,"transfer_cost":0.0,"port_name":"New York","position":{"lat":40.73061,"lng":-73.935242},"status":"surplus"},{"frame_index":783,"name":"ports_9","capacity":10000,"empty":130,"full":808,"on_shipper":18,"on_consignee":0,"shortage":0,"acc_shortage":45,"booking":14,"acc_booking":19200,"fulfillment":14,"acc_fulfillment":19155,"transfer_cost":0.0,"port_name":"Oakland","position":{"lat":37.804363,"lng":-122.271111},"status":"surplus"},{"frame_index":783,"name":"ports_10","capacity":10000,"empty":1013,"full":195,"on_shipper":9,"on_consignee":0,"shortage":0,"acc_shortage":314,"booking":7,"acc_booking":9820,"fulfillment":7,"acc_fulfillment":9506,"transfer_cost":0.0,"port_name":"Prince Rupert","position":{"lat":54.312519,"lng":-130.305405},"status":"surplus"},{"frame_index":783,"name":"ports_11","capacity":10000,"empty":3140,"full":153,"on_shipper":38,"on_consignee":86,"shortage":0,"acc_shortage":204,"booking":27,"acc_booking":37978,"fulfillment":27,"acc_fulfillment":37774,"transfer_cost":0.0,"port_name":"Pusan","position":{"lat":35.166668,"lng":129.066666},"status":"surplus"},{"frame_index":783,"name":"ports_12","capacity":10000,"empty":2922,"full":1199,"on_shipper":47,"on_consignee":70,"shortage":0,"acc_shortage":0,"booking":35,"acc_booking":50753,"fulfillment":35,"acc_fulfillment":50753,"transfer_cost":0.0,"port_name":"Qingdao","position":{"lat":36.066898,"lng":120.382698},"status":"surplus"},{"frame_index":783,"name":"ports_13","capacity":10000,"empty":70,"full":6,"on_shipper":8,"on_consignee":0,"shortage":0,"acc_shortage":449,"booking":5,"acc_booking":6662,"fulfillment":5,"acc_fulfillment":6213,"transfer_cost":0.0,"port_name":"San Antonio","position":{"lat":29.424349,"lng":-98.491142},"status":"balance"},{"frame_index":783,"name":"ports_14","capacity":10000,"empty":276,"full":13,"on_shipper":6,"on_consignee":0,"shortage":0,"acc_shortage":762,"booking":5,"acc_booking":6700,"fulfillment":5,"acc_fulfillment":5938,"transfer_cost":0.0,"port_name":"Santos","position":{"lat":-23.96083,"lng":-46.33361},"status":"surplus"},{"frame_index":783,"name":"ports_15","capacity":10000,"empty":1469,"full":358,"on_shipper":45,"on_consignee":0,"shortage":0,"acc_shortage":0,"booking":31,"acc_booking":44353,"fulfillment":31,"acc_fulfillment":44353,"transfer_cost":0.0,"port_name":"Seattle","position":{"lat":47.608013,"lng":-122.335167},"status":"surplus"},{"frame_index":783,"name":"ports_16","capacity":10000,"empty":2010,"full":834,"on_shipper":52,"on_consignee":0,"shortage":0,"acc_shortage":760,"booking":51,"acc_booking":63120,"fulfillment":51,"acc_fulfillment":62360,"transfer_cost":0.0,"port_name":"Shanghai","position":{"lat":31.224361,"lng":121.46917},"status":"surplus"},{"frame_index":783,"name":"ports_17","capacity":10000,"empty":1560,"full":39,"on_shipper":27,"on_consignee":37,"shortage":0,"acc_shortage":283,"booking":18,"acc_booking":25551,"fulfillment":18,"acc_fulfillment":25268,"transfer_cost":0.0,"port_name":"Singapore","position":{"lat":1.29027,"lng":103.851959},"status":"surplus"},{"frame_index":783,"name":"ports_18","capacity":10000,"empty":0,"full":411,"on_shipper":0,"on_consignee":0,"shortage":8,"acc_shortage":1328,"booking":8,"acc_booking":9810,"fulfillment":0,"acc_fulfillment":8482,"transfer_cost":0.0,"port_name":"Sydney","position":{"lat":-33.865143,"lng":151.2099},"status":"balance"},{"frame_index":783,"name":"ports_19","capacity":10000,"empty":935,"full":425,"on_shipper":10,"on_consignee":0,"shortage":0,"acc_shortage":0,"booking":10,"acc_booking":13004,"fulfillment":10,"acc_fulfillment":13004,"transfer_cost":0.0,"port_name":"Vancouver","position":{"lat":49.246292,"lng":-123.116226},"status":"surplus"},{"frame_index":783,"name":"ports_20","capacity":10000,"empty":1254,"full":336,"on_shipper":47,"on_consignee":0,"shortage":0,"acc_shortage":942,"booking":34,"acc_booking":44049,"fulfillment":34,"acc_fulfillment":43107,"transfer_cost":0.0,"port_name":"Yantian","position":{"lat":26.8533,"lng":119.8575},"status":"surplus"},{"frame_index":783,"name":"ports_21","capacity":10000,"empty":0,"full":383,"on_shipper":0,"on_consignee":0,"shortage":24,"acc_shortage":6062,"booking":24,"acc_booking":42023,"fulfillment":0,"acc_fulfillment":35961,"transfer_cost":0.0,"port_name":"Yokohama","position":{"lat":35.443707,"lng":139.638031},"status":"demand"}]