[{"frame_index":616,"name":"ports_0","capacity":10000,"empty":2525,"full":5936,"on_shipper":276,"on_consignee":190,"shortage":0,"acc_shortage":522,"booking":250,"acc_booking":78764,"fulfillment":250,"acc_fulfillment":78242,"transfer_cost":0.0,"port_name":"Bremerhaven","position":{"lat":53.549999,"lng":8.583333},"status":"surplus"},{"frame_index":616,"name":"ports_1","capacity":10000,"empty":356,"full":213,"on_shipper":34,"on_consignee":0,"shortage":0,"acc_shortage":0,"booking":18,"acc_booking":5229,"fulfillment":18,"acc_fulfillment":5229,"transfer_cost":0.0,"port_name":"Durban","position":{"lat":-29.8579,"lng":31.0292},"status":"surplus"},{"frame_index":616,"name":"ports_2","capacity":10000,"empty":179,"full":384,"on_shipper":26,"on_consignee":0,"shortage":0,"acc_shortage":233,"booking":18,"acc_booking":5207,"fulfillment":18,"acc_fulfillment":4974,"transfer_cost":0.0,"port_name":"Itagual","position":{"lat":-22.85222,"lng":-43.77528},"status":"surplus"},{"frame_index":616,"name":"ports_3","capacity":10000,"empty":1604,"full":715,"on_shipper":169,"on_consignee":0,"shortage":0,"acc_shortage":0,"booking":105,"acc_booking":29784,"fulfillment":105,"acc_fulfillment":29784,"transfer_cost":0.0,"port_name":"LeHavre","position":{"lat":49.490002,"lng":0.1},"status":"surplus"},{"frame_index":616,"name":"ports_4","capacity":10000,"empty":1112,"full":672,"on_shipper":139,"on_consignee":0,"shortage":0,"acc_shortage":0,"booking":88,"acc_booking":24917,"fulfillment":88,"acc_fulfillment":24917,"transfer_cost":0.0,"port_name":"Los Angeles","position":{"lat":34.052235,"lng":-118.243683},"status":"surplus"},{"frame_index":616,"name":"ports_5","capacity":10000,"empty":1971,"full":92,"on_shipper":127,"on_consignee":505,"shortage":0,"acc_shortage":123,"booking":103,"acc_booking":24971,"fulfillment":103,"acc_fulfillment":24848,"transfer_cost":0.0,"port_name":"Manzanillo","position":{"lat":19.11695,"lng":-104.34214},"status":"surplus"},{"frame_index":616,"name":"ports_6","capacity":10000,"empty":80,"full":521,"on_shipper":36,"on_consignee":0,"shortage":0,"acc_shortage":1259,"booking":28,"acc_booking":7670,"fulfillment":28,"acc_fulfillment":6411,"transfer_cost":0.0,"port_name":"Melbourne","position":{"lat":-37.840935,"lng":144.946457},"status":"demand"},{"frame_index":616,"name":"ports_7","capacity":10000,"empty":1348,"full":123,"on_shipper":40,"on_consignee":0,"shortage":0,"acc_shortage":0,"booking":28,"acc_booking":7676,"fulfillment":28,"acc_fulfillment":7676,"transfer_cost":0.0,"port_name":"Montreal","position":{"lat":45.516136,"lng":-73.65683},"status":"surplus"},{"frame_index":616,"name":"ports_8","capacity":10000,"empty":2275,"full":571,"on_shipper":76,"on_consignee":0,"shortage":0,"acc_shortage":0,"booking":53,"acc_booking":15001,"fulfillment":53,"acc_fulfillment":15001,"transfer_cost":0.0,"port_name":"New York","position":{"lat":40.73061,"lng":-73.935242},"status":"surplus"},{"frame_index":616,"name":"ports_9","capacity":10000,"empty":638,"full":784,"on_shipper":83,"on_consignee":0,"shortage":0,"acc_shortage":45,"booking":57,"acc_booking":15041,"fulfillment":57,"acc_fulfillment":14996,"transfer_cost":0.0,"port_name":"Oakland","position":{"lat":37.804363,"lng":-122.271111},"status":"surplus"},{"frame_index":616,"name":"ports_10","capacity":10000,"empty":1646,"full":108,"on_shipper":51,"on_consignee":0,"shortage":0,"acc_shortage":314,"booking":32,"acc_booking":7695,"fulfillment":32,"acc_fulfillment":7381,"transfer_cost":0.0,"port_name":"Prince Rupert","position":{"lat":54.312519,"lng":-130.305405},"status":"surplus"},{"frame_index":616,"name":"ports_11","capacity":10000,"empty":2749,"full":900,"on_shipper":151,"on_consignee":0,"shortage":0,"acc_shortage":204,"booking":103,"acc_booking":29721,"fulfillment":103,"acc_fulfillment":29517,"transfer_cost":0.0,"port_name":"Pusan","position":{"lat":35.166668,"lng":129.066666},"status":"surplus"},{"frame_index":616,"name":"ports_12","capacity":10000,"empty":3185,"full":913,"on_shipper":206,"on_consignee":0,"shortage":0,"acc_shortage":0,"booking":160,"acc_booking":39664,"fulfillment":160,"acc_fulfillment":39664,"transfer_cost":0.0,"port_name":"Qingdao","position":{"lat":36.066898,"lng":120.382698},"status":"surplus"},{"frame_index":616,"name":"ports_13","capacity":10000,"empty":62,"full":397,"on_shipper":31,"on_consignee":0,"shortage":0,"acc_shortage":286,"booking":20,"acc_booking":5203,"fulfillment":20,"acc_fulfillment":4917,"transfer_cost":0.0,"port_name":"San Antonio","position":{"lat":29.424349,"lng":-98.491142},"status":"balance"},{"frame_index":616,"name":"ports_14","capacity":10000,"empty":1175,"full":228,"on_shipper":27,"on_consignee":0,"shortage":0,"acc_shortage":762,"booking":21,"acc_booking":5251,"fulfillment":21,"acc_fulfillment":4489,"transfer_cost":0.0,"port_name":"Santos","position":{"lat":-23.96083,"lng":-46.33361},"status":"surplus"},{"frame_index":616,"name":"ports_15","capacity":10000,"empty":2667,"full":1763,"on_shipper":188,"on_consignee":0,"shortage":0,"acc_shortage":0,"booking":122,"acc_booking":34683,"fulfillment":122,"acc_fulfillment":34683,"transfer_cost":0.0,"port_name":"Seattle","position":{"lat":47.608013,"lng":-122.335167},"status":"surplus"},{"frame_index":616,"name":"ports_16","capacity":10000,"empty":1660,"full":1628,"on_shipper":216,"on_consignee":0,"shortage":0,"acc_shortage":470,"booking":169,"acc_booking":49385,"fulfillment":169,"acc_fulfillment":48915,"transfer_cost":283.0,"port_name":"Shanghai","position":{"lat":31.224361,"lng":121.46917},"status":"surplus"},{"frame_index":616,"name":"ports_17","capacity":10000,"empty":324,"full":681,"on_shipper":118,"on_consignee":0,"shortage":0,"acc_shortage":40,"booking":72,"acc_booking":19994,"fulfillment":72,"acc_fulfillment":19954,"transfer_cost":0.0,"port_name":"Singapore","position":{"lat":1.29027,"lng":103.851959},"status":"balance"},{"frame_index":616,"name":"ports_18","capacity":10000,"empty":424,"full":334,"on_shipper":43,"on_consignee":0,"shortage":0,"acc_shortage":957,"booking":26,"acc_booking":7640,"fulfillment":26,"acc_fulfillment":6683,"transfer_cost":0.0,"port_name":"Sydney","position":{"lat":-33.865143,"lng":151.2099},"status":"surplus"},{"frame_index":616,"name":"ports_19","capacity":10000,"empty":995,"full":145,"on_shipper":54,"on_consignee":206,"shortage":0,"acc_shortage":0,"booking":36,"acc_booking":10194,"fulfillment":36,"acc_fulfillment":10194,"transfer_cost":0.0,"port_name":"Vancouver","position":{"lat":49.246292,"lng":-123.116226},"status":"surplus"},{"frame_index":616,"name":"ports_20","capacity":10000,"empty":427,"full":610,"on_shipper":186,"on_consignee":0,"shortage":0,"acc_shortage":395,"booking":138,"acc_booking":34446,"fulfillment":138,"acc_fulfillment":34051,"transfer_cost":0.0,"port_name":"Yantian","position":{"lat":26.8533,"lng":119.8575},"status":"demand"},{"frame_index":616,"name":"ports_21","capacity":10000,"empty":2034,"full":389,"on_shipper":181,"on_consignee":0,"shortage":0,"acc_shortage":3563,"booking":135,"acc_booking":32869,"fulfillment":135,"acc_fulfillment":29306,"transfer_cost":0.0,"port_name":"Yokohama","position":{"lat":35.443707,"lng":139.638031},"status":"surplus"}]