[{"frame_index":878,"name":"ports_0","capacity":10000,"empty":1175,"full":1148,"on_shipper":92,"on_consignee":0,"shortage":0,"acc_shortage":522,"booking":72,"acc_booking":113930,"fulfillment":72,"acc_fulfillment":113408,"transfer_cost":0.0,"port_name":"Bremerhaven","position":{"lat":53.549999,"lng":8.583333},"status":"surplus"},{"frame_index":878,"name":"ports_1","capacity":10000,"empty":0,"full":301,"on_shipper":0,"on_consignee":0,"shortage":6,"acc_shortage":59,"booking":6,"acc_booking":7568,"fulfillment":0,"acc_fulfillment":7509,"transfer_cost":0.0,"port_name":"Durban","position":{"lat":-29.8579,"lng":31.0292},"status":"balance"},{"frame_index":878,"name":"ports_2","capacity":10000,"empty":341,"full":355,"on_shipper":12,"on_consignee":0,"shortage":0,"acc_shortage":298,"booking":6,"acc_booking":7532,"fulfillment":6,"acc_fulfillment":7234,"transfer_cost":0.0,"port_name":"Itagual","position":{"lat":-22.85222,"lng":-43.77528},"status":"surplus"},{"frame_index":878,"name":"ports_3","capacity":10000,"empty":2434,"full":1417,"on_shipper":42,"on_consignee":796,"shortage":0,"acc_shortage":0,"booking":33,"acc_booking":43109,"fulfillment":33,"acc_fulfillment":43109,"transfer_cost":0.0,"port_name":"LeHavre","position":{"lat":49.490002,"lng":0.1},"status":"surplus"},{"frame_index":878,"name":"ports_4","capacity":10000,"empty":681,"full":226,"on_shipper":47,"on_consignee":0,"shortage":0,"acc_shortage":290,"booking":28,"acc_booking":36103,"fulfillment":28,"acc_fulfillment":35813,"transfer_cost":0.0,"port_name":"Los Angeles","position":{"lat":34.052235,"lng":-118.243683},"status":"surplus"},{"frame_index":878,"name":"ports_5","capacity":10000,"empty":69,"full":578,"on_shipper":35,"on_consignee":0,"shortage":0,"acc_shortage":123,"booking":31,"acc_booking":36216,"fulfillment":31,"acc_fulfillment":36093,"transfer_cost":0.0,"port_name":"Manzanillo","position":{"lat":19.11695,"lng":-104.34214},"status":"demand"},{"frame_index":878,"name":"ports_6","capacity":10000,"empty":0,"full":506,"on_shipper":0,"on_consignee":0,"shortage":9,"acc_shortage":1732,"booking":9,"acc_booking":11108,"fulfillment":0,"acc_fulfillment":9376,"transfer_cost":0.0,"port_name":"Melbourne","position":{"lat":-37.840935,"lng":144.946457},"status":"balance"},{"frame_index":878,"name":"ports_7","capacity":10000,"empty":429,"full":462,"on_shipper":12,"on_consignee":0,"shortage":0,"acc_shortage":0,"booking":9,"acc_booking":11119,"fulfillment":9,"acc_fulfillment":11119,"transfer_cost":0.0,"port_name":"Montreal","position":{"lat":45.516136,"lng":-73.65683},"status":"surplus"},{"frame_index":878,"name":"ports_8","capacity":10000,"empty":3395,"full":856,"on_shipper":23,"on_consignee":0,"shortage":0,"acc_shortage":136,"booking":16,"acc_booking":21729,"fulfillment":16,"acc_fulfillment":21593,"transfer_cost":0.0,"port_name":"New York","position":{"lat":40.73061,"lng":-73.935242},"status":"surplus"},{"frame_index":878,"name":"ports_9","capacity":10000,"empty":264,"full":1312,"on_shipper":27,"on_consignee":0,"shortage":0,"acc_shortage":45,"booking":17,"acc_booking":21744,"fulfillment":17,"acc_fulfillment":21699,"transfer_cost":0.0,"port_name":"Oakland","position":{"lat":37.804363,"lng":-122.271111},"status":"surplus"},{"frame_index":878,"name":"ports_10","capacity":10000,"empty":1060,"full":415,"on_shipper":11,"on_consignee":0,"shortage":0,"acc_shortage":314,"booking":9,"acc_booking":11153,"fulfillment":9,"acc_fulfillment":10839,"transfer_cost":0.0,"port_name":"Prince Rupert","position":{"lat":54.312519,"lng":-130.305405},"status":"surplus"},{"frame_index":878,"name":"ports_11","capacity":10000,"empty":745,"full":1956,"on_shipper":42,"on_consignee":0,"shortage":0,"acc_shortage":204,"booking":32,"acc_booking":43066,"fulfillment":32,"acc_fulfillment":42862,"transfer_cost":0.0,"port_name":"Pusan","position":{"lat":35.166668,"lng":129.066666},"status":"surplus"},{"frame_index":878,"name":"ports_12","capacity":10000,"empty":140,"full":3265,"on_shipper":70,"on_consignee":0,"shortage":0,"acc_shortage":0,"booking":44,"acc_booking":57569,"fulfillment":44,"acc_fulfillment":57569,"transfer_cost":0.0,"port_name":"Qingdao","position":{"lat":36.066898,"lng":120.382698},"status":"demand"},{"frame_index":878,"name":"ports_13","capacity":10000,"empty":187,"full":4,"on_shipper":9,"on_consignee":168,"shortage":0,"acc_shortage":449,"booking":6,"acc_booking":7537,"fulfillment":6,"acc_fulfillment":7088,"transfer_cost":0.0,"port_name":"San Antonio","position":{"lat":29.424349,"lng":-98.491142},"status":"surplus"},{"frame_index":878,"name":"ports_14","capacity":10000,"empty":59,"full":550,"on_shipper":8,"on_consignee":0,"shortage":0,"acc_shortage":819,"booking":6,"acc_booking":7591,"fulfillment":6,"acc_fulfillment":6772,"transfer_cost":0.0,"port_name":"Santos","position":{"lat":-23.96083,"lng":-46.33361},"status":"balance"},{"frame_index":878,"name":"ports_15","capacity":10000,"empty":862,"full":1605,"on_shipper":63,"on_consignee":0,"shortage":0,"acc_shortage":0,"booking":38,"acc_booking":50298,"fulfillment":38,"acc_fulfillment":50298,"transfer_cost":0.0,"port_name":"Seattle","position":{"lat":47.608013,"lng":-122.335167},"status":"surplus"},{"frame_index":878,"name":"ports_16","capacity":10000,"empty":649,"full":2575,"on_shipper":76,"on_consignee":382,"shortage":0,"acc_shortage":817,"booking":62,"acc_booking":71607,"fulfillment":62,"acc_fulfillment":70790,"transfer_cost":474.0,"port_name":"Shanghai","position":{"lat":31.224361,"lng":121.46917},"status":"surplus"},{"frame_index":878,"name":"ports_17","capacity":10000,"empty":1755,"full":1009,"on_shipper":35,"on_consignee":0,"shortage":0,"acc_shortage":283,"booking":22,"acc_booking":28950,"fulfillment":22,"acc_fulfillment":28667,"transfer_cost":0.0,"port_name":"Singapore","position":{"lat":1.29027,"lng":103.851959},"status":"surplus"},{"frame_index":878,"name":"ports_18","capacity":10000,"empty":566,"full":402,"on_shipper":13,"on_consignee":0,"shortage":0,"acc_shortage":1374,"booking":8,"acc_booking":11127,"fulfillment":8,"acc_fulfillment":9753,"transfer_cost":0.0,"port_name":"Sydney","position":{"lat":-33.865143,"lng":151.2099},"status":"surplus"},{"frame_index":878,"name":"ports_19","capacity":10000,"empty":1241,"full":157,"on_shipper":16,"on_consignee":12,"shortage":0,"acc_shortage":0,"booking":12,"acc_booking":14723,"fulfillment":12,"acc_fulfillment":14723,"transfer_cost":0.0,"port_name":"Vancouver","position":{"lat":49.246292,"lng":-123.116226},"status":"surplus"},{"frame_index":878,"name":"ports_20","capacity":10000,"empty":62,"full":1875,"on_shipper":56,"on_consignee":0,"shortage":0,"acc_shortage":1265,"booking":38,"acc_booking":50014,"fulfillment":38,"acc_fulfillment":48749,"transfer_cost":0.0,"port_name":"Yantian","position":{"lat":26.8533,"lng":119.8575},"status":"demand"},{"frame_index":878,"name":"ports_21","capacity":10000,"empty":849,"full":70,"on_shipper":45,"on_consignee":0,"shortage":0,"acc_shortage":7235,"booking":32,"acc_booking":47772,"fulfillment":32,"acc_fulfillment":40537,"transfer_cost":0.0,"port_name":"Yokohama","position":{"lat":35.443707,"lng":139.638031},"status":"surplus"}]