[{"frame_index":4,"name":"ports_0","capacity":10000,"empty":15813,"full":69,"on_shipper":118,"on_consignee":0,"shortage":0,"acc_shortage":0,"booking":53,"acc_booking":187,"fulfillment":53,"acc_fulfillment":187,"transfer_cost":0.0,"port_name":"Bremerhaven","position":{"lat":53.549999,"lng":8.583333},"status":"surplus"},{"frame_index":4,"name":"ports_1","capacity":10000,"empty":988,"full":4,"on_shipper":8,"on_consignee":0,"shortage":0,"acc_shortage":0,"booking":3,"acc_booking":12,"fulfillment":3,"acc_fulfillment":12,"transfer_cost":0.0,"port_name":"Durban","position":{"lat":-29.8579,"lng":31.0292},"status":"surplus"},{"frame_index":4,"name":"ports_2","capacity":10000,"empty":988,"full":8,"on_shipper":4,"on_consignee":0,"shortage":0,"acc_shortage":0,"booking":3,"acc_booking":12,"fulfillment":3,"acc_fulfillment":12,"transfer_cost":0.0,"port_name":"Itagual","position":{"lat":-22.85222,"lng":-43.77528},"status":"surplus"},{"frame_index":4,"name":"ports_3","capacity":10000,"empty":5932,"full":39,"on_shipper":29,"on_consignee":0,"shortage":0,"acc_shortage":0,"booking":19,"acc_booking":68,"fulfillment":19,"acc_fulfillment":68,"transfer_cost":0.0,"port_name":"LeHavre","position":{"lat":49.490002,"lng":0.1},"status":"surplus"},{"frame_index":4,"name":"ports_4","capacity":10000,"empty":4943,"full":37,"on_shipper":20,"on_consignee":0,"shortage":0,"acc_shortage":0,"booking":16,"acc_booking":57,"fulfillment":16,"acc_fulfillment":57,"transfer_cost":0.0,"port_name":"Los Angeles","position":{"lat":34.052235,"lng":-118.243683},"status":"surplus"},{"frame_index":4,"name":"ports_5","capacity":10000,"empty":4943,"full":29,"on_shipper":28,"on_consignee":0,"shortage":0,"acc_shortage":0,"booking":15,"acc_booking":57,"fulfillment":15,"acc_fulfillment":57,"transfer_cost":0.0,"port_name":"Manzanillo","position":{"lat":19.11695,"lng":-104.34214},"status":"surplus"},{"frame_index":4,"name":"ports_6","capacity":10000,"empty":1482,"full":9,"on_shipper":9,"on_consignee":0,"shortage":0,"acc_shortage":0,"booking":5,"acc_booking":18,"fulfillment":5,"acc_fulfillment":18,"transfer_cost":0.0,"port_name":"Melbourne","position":{"lat":-37.840935,"lng":144.946457},"status":"surplus"},{"frame_index":4,"name":"ports_7","capacity":10000,"empty":1482,"full":6,"on_shipper":12,"on_consignee":0,"shortage":0,"acc_shortage":0,"booking":5,"acc_booking":18,"fulfillment":5,"acc_fulfillment":18,"transfer_cost":0.0,"port_name":"Montreal","position":{"lat":45.516136,"lng":-73.65683},"status":"surplus"},{"frame_index":4,"name":"ports_8","capacity":10000,"empty":2965,"full":26,"on_shipper":9,"on_consignee":0,"shortage":0,"acc_shortage":0,"booking":9,"acc_booking":35,"fulfillment":9,"acc_fulfillment":35,"transfer_cost":0.0,"port_name":"New York","position":{"lat":40.73061,"lng":-73.935242},"status":"surplus"},{"frame_index":4,"name":"ports_9","capacity":10000,"empty":2967,"full":24,"on_shipper":9,"on_consignee":0,"shortage":0,"acc_shortage":0,"booking":9,"acc_booking":33,"fulfillment":9,"acc_fulfillment":33,"transfer_cost":0.0,"port_name":"Oakland","position":{"lat":37.804363,"lng":-122.271111},"status":"surplus"},{"frame_index":4,"name":"ports_10","capacity":10000,"empty":1481,"full":11,"on_shipper":8,"on_consignee":0,"shortage":0,"acc_shortage":0,"booking":5,"acc_booking":19,"fulfillment":5,"acc_fulfillment":19,"transfer_cost":0.0,"port_name":"Prince Rupert","position":{"lat":54.312519,"lng":-130.305405},"status":"surplus"},{"frame_index":4,"name":"ports_11","capacity":10000,"empty":5931,"full":35,"on_shipper":34,"on_consignee":0,"shortage":0,"acc_shortage":0,"booking":19,"acc_booking":69,"fulfillment":19,"acc_fulfillment":69,"transfer_cost":0.0,"port_name":"Pusan","position":{"lat":35.166668,"lng":129.066666},"status":"surplus"},{"frame_index":4,"name":"ports_12","capacity":10000,"empty":7908,"full":49,"on_shipper":43,"on_consignee":0,"shortage":0,"acc_shortage":0,"booking":23,"acc_booking":92,"fulfillment":23,"acc_fulfillment":92,"transfer_cost":0.0,"port_name":"Qingdao","position":{"lat":36.066898,"lng":120.382698},"status":"surplus"},{"frame_index":4,"name":"ports_13","capacity":10000,"empty":988,"full":4,"on_shipper":8,"on_consignee":0,"shortage":0,"acc_shortage":0,"booking":4,"acc_booking":12,"fulfillment":4,"acc_fulfillment":12,"transfer_cost":0.0,"port_name":"San Antonio","position":{"lat":29.424349,"lng":-98.491142},"status":"surplus"},{"frame_index":4,"name":"ports_14","capacity":10000,"empty":986,"full":8,"on_shipper":6,"on_consignee":0,"shortage":0,"acc_shortage":0,"booking":4,"acc_booking":14,"fulfillment":4,"acc_fulfillment":14,"transfer_cost":0.0,"port_name":"Santos","position":{"lat":-23.96083,"lng":-46.33361},"status":"surplus"},{"frame_index":4,"name":"ports_15","capacity":10000,"empty":6922,"full":37,"on_shipper":41,"on_consignee":0,"shortage":0,"acc_shortage":0,"booking":22,"acc_booking":78,"fulfillment":22,"acc_fulfillment":78,"transfer_cost":0.0,"port_name":"Seattle","position":{"lat":47.608013,"lng":-122.335167},"status":"surplus"},{"frame_index":4,"name":"ports_16","capacity":10000,"empty":9884,"full":78,"on_shipper":38,"on_consignee":0,"shortage":0,"acc_shortage":0,"booking":30,"acc_booking":116,"fulfillment":30,"acc_fulfillment":116,"transfer_cost":0.0,"port_name":"Shanghai","position":{"lat":31.224361,"lng":121.46917},"status":"surplus"},{"frame_index":4,"name":"ports_17","capacity":10000,"empty":3953,"full":25,"on_shipper":22,"on_consignee":0,"shortage":0,"acc_shortage":0,"booking":13,"acc_booking":47,"fulfillment":13,"acc_fulfillment":47,"transfer_cost":0.0,"port_name":"Singapore","position":{"lat":1.29027,"lng":103.851959},"status":"surplus"},{"frame_index":4,"name":"ports_18","capacity":10000,"empty":1482,"full":10,"on_shipper":8,"on_consignee":0,"shortage":0,"acc_shortage":0,"booking":5,"acc_booking":18,"fulfillment":5,"acc_fulfillment":18,"transfer_cost":0.0,"port_name":"Sydney","position":{"lat":-33.865143,"lng":151.2099},"status":"surplus"},{"frame_index":4,"name":"ports_19","capacity":10000,"empty":1976,"full":15,"on_shipper":9,"on_consignee":0,"shortage":0,"acc_shortage":0,"booking":7,"acc_booking":24,"fulfillment":7,"acc_fulfillment":24,"transfer_cost":0.0,"port_name":"Vancouver","position":{"lat":49.246292,"lng":-123.116226},"status":"surplus"},{"frame_index":4,"name":"ports_20","capacity":10000,"empty":6920,"full":37,"on_shipper":43,"on_consignee":0,"shortage":0,"acc_shortage":0,"booking":23,"acc_booking":80,"fulfillment":23,"acc_fulfillment":80,"transfer_cost":0.0,"port_name":"Yantian","position":{"lat":26.8533,"lng":119.8575},"status":"surplus"},{"frame_index":4,"name":"ports_21","capacity":10000,"empty":7952,"full":13,"on_shipper":35,"on_consignee":0,"shortage":0,"acc_shortage":0,"booking":14,"acc_booking":48,"fulfillment":14,"acc_fulfillment":48,"transfer_cost":0.0,"port_name":"Yokohama","position":{"lat":35.443707,"lng":139.638031},"status":"surplus"}]