[{"frame_index":512,"name":"ports_0","capacity":10000,"empty":1185,"full":1258,"on_shipper":130,"on_consignee":2572,"shortage":0,"acc_shortage":522,"booking":57,"acc_booking":65769,"fulfillment":57,"acc_fulfillment":65247,"transfer_cost":175.0,"port_name":"Bremerhaven","position":{"lat":53.549999,"lng":8.583333},"status":"surplus"},{"frame_index":512,"name":"ports_1","capacity":10000,"empty":374,"full":53,"on_shipper":8,"on_consignee":0,"shortage":0,"acc_shortage":0,"booking":4,"acc_booking":4389,"fulfillment":4,"acc_fulfillment":4389,"transfer_cost":0.0,"port_name":"Durban","position":{"lat":-29.8579,"lng":31.0292},"status":"surplus"},{"frame_index":512,"name":"ports_2","capacity":10000,"empty":818,"full":203,"on_shipper":6,"on_consignee":0,"shortage":0,"acc_shortage":233,"booking":4,"acc_booking":4357,"fulfillment":4,"acc_fulfillment":4124,"transfer_cost":0.0,"port_name":"Itagual","position":{"lat":-22.85222,"lng":-43.77528},"status":"surplus"},{"frame_index":512,"name":"ports_3","capacity":10000,"empty":1672,"full":1022,"on_shipper":35,"on_consignee":0,"shortage":0,"acc_shortage":0,"booking":23,"acc_booking":24918,"fulfillment":23,"acc_fulfillment":24918,"transfer_cost":0.0,"port_name":"LeHavre","position":{"lat":49.490002,"lng":0.1},"status":"surplus"},{"frame_index":512,"name":"ports_4","capacity":10000,"empty":1412,"full":2208,"on_shipper":33,"on_consignee":0,"shortage":0,"acc_shortage":0,"booking":19,"acc_booking":20830,"fulfillment":19,"acc_fulfillment":20830,"transfer_cost":0.0,"port_name":"Los Angeles","position":{"lat":34.052235,"lng":-118.243683},"status":"surplus"},{"frame_index":512,"name":"ports_5","capacity":10000,"empty":1359,"full":845,"on_shipper":39,"on_consignee":0,"shortage":0,"acc_shortage":123,"booking":18,"acc_booking":20910,"fulfillment":18,"acc_fulfillment":20787,"transfer_cost":0.0,"port_name":"Manzanillo","position":{"lat":19.11695,"lng":-104.34214},"status":"surplus"},{"frame_index":512,"name":"ports_6","capacity":10000,"empty":98,"full":316,"on_shipper":6,"on_consignee":0,"shortage":0,"acc_shortage":837,"booking":6,"acc_booking":6413,"fulfillment":6,"acc_fulfillment":5576,"transfer_cost":0.0,"port_name":"Melbourne","position":{"lat":-37.840935,"lng":144.946457},"status":"surplus"},{"frame_index":512,"name":"ports_7","capacity":10000,"empty":1722,"full":522,"on_shipper":6,"on_consignee":0,"shortage":0,"acc_shortage":0,"booking":6,"acc_booking":6416,"fulfillment":6,"acc_fulfillment":6416,"transfer_cost":0.0,"port_name":"Montreal","position":{"lat":45.516136,"lng":-73.65683},"status":"surplus"},{"frame_index":512,"name":"ports_8","capacity":10000,"empty":855,"full":480,"on_shipper":11,"on_consignee":0,"shortage":0,"acc_shortage":0,"booking":11,"acc_booking":12535,"fulfillment":11,"acc_fulfillment":12535,"transfer_cost":0.0,"port_name":"New York","position":{"lat":40.73061,"lng":-73.935242},"status":"surplus"},{"frame_index":512,"name":"ports_9","capacity":10000,"empty":1015,"full":802,"on_shipper":22,"on_consignee":0,"shortage":0,"acc_shortage":45,"booking":11,"acc_booking":12541,"fulfillment":11,"acc_fulfillment":12496,"transfer_cost":0.0,"port_name":"Oakland","position":{"lat":37.804363,"lng":-122.271111},"status":"surplus"},{"frame_index":512,"name":"ports_10","capacity":10000,"empty":1096,"full":67,"on_shipper":10,"on_consignee":0,"shortage":0,"acc_shortage":314,"booking":7,"acc_booking":6428,"fulfillment":7,"acc_fulfillment":6114,"transfer_cost":0.0,"port_name":"Prince Rupert","position":{"lat":54.312519,"lng":-130.305405},"status":"surplus"},{"frame_index":512,"name":"ports_11","capacity":10000,"empty":1696,"full":2228,"on_shipper":46,"on_consignee":0,"shortage":0,"acc_shortage":204,"booking":23,"acc_booking":24853,"fulfillment":23,"acc_fulfillment":24649,"transfer_cost":0.0,"port_name":"Pusan","position":{"lat":35.166668,"lng":129.066666},"status":"surplus"},{"frame_index":512,"name":"ports_12","capacity":10000,"empty":3118,"full":2174,"on_shipper":62,"on_consignee":17,"shortage":0,"acc_shortage":0,"booking":27,"acc_booking":33210,"fulfillment":27,"acc_fulfillment":33210,"transfer_cost":0.0,"port_name":"Qingdao","position":{"lat":36.066898,"lng":120.382698},"status":"surplus"},{"frame_index":512,"name":"ports_13","capacity":10000,"empty":474,"full":68,"on_shipper":10,"on_consignee":0,"shortage":0,"acc_shortage":286,"booking":5,"acc_booking":4353,"fulfillment":5,"acc_fulfillment":4067,"transfer_cost":0.0,"port_name":"San Antonio","position":{"lat":29.424349,"lng":-98.491142},"status":"surplus"},{"frame_index":512,"name":"ports_14","capacity":10000,"empty":541,"full":66,"on_shipper":6,"on_consignee":0,"shortage":0,"acc_shortage":762,"booking":4,"acc_booking":4393,"fulfillment":4,"acc_fulfillment":3631,"transfer_cost":0.0,"port_name":"Santos","position":{"lat":-23.96083,"lng":-46.33361},"status":"surplus"},{"frame_index":512,"name":"ports_15","capacity":10000,"empty":4047,"full":678,"on_shipper":39,"on_consignee":121,"shortage":0,"acc_shortage":0,"booking":27,"acc_booking":29002,"fulfillment":27,"acc_fulfillment":29002,"transfer_cost":0.0,"port_name":"Seattle","position":{"lat":47.608013,"lng":-122.335167},"status":"surplus"},{"frame_index":512,"name":"ports_16","capacity":10000,"empty":794,"full":1760,"on_shipper":81,"on_consignee":7,"shortage":0,"acc_shortage":70,"booking":40,"acc_booking":41407,"fulfillment":40,"acc_fulfillment":41337,"transfer_cost":221.0,"port_name":"Shanghai","position":{"lat":31.224361,"lng":121.46917},"status":"surplus"},{"frame_index":512,"name":"ports_17","capacity":10000,"empty":1359,"full":803,"on_shipper":28,"on_consignee":135,"shortage":0,"acc_shortage":40,"booking":15,"acc_booking":16719,"fulfillment":15,"acc_fulfillment":16679,"transfer_cost":0.0,"port_name":"Singapore","position":{"lat":1.29027,"lng":103.851959},"status":"surplus"},{"frame_index":512,"name":"ports_18","capacity":10000,"empty":77,"full":746,"on_shipper":6,"on_consignee":0,"shortage":0,"acc_shortage":774,"booking":6,"acc_booking":6387,"fulfillment":6,"acc_fulfillment":5613,"transfer_cost":0.0,"port_name":"Sydney","position":{"lat":-33.865143,"lng":151.2099},"status":"balance"},{"frame_index":512,"name":"ports_19","capacity":10000,"empty":476,"full":389,"on_shipper":13,"on_consignee":0,"shortage":0,"acc_shortage":0,"booking":8,"acc_booking":8532,"fulfillment":8,"acc_fulfillment":8532,"transfer_cost":0.0,"port_name":"Vancouver","position":{"lat":49.246292,"lng":-123.116226},"status":"surplus"},{"frame_index":512,"name":"ports_20","capacity":10000,"empty":327,"full":1815,"on_shipper":49,"on_consignee":46,"shortage":0,"acc_shortage":350,"booking":26,"acc_booking":28808,"fulfillment":26,"acc_fulfillment":28458,"transfer_cost":0.0,"port_name":"Yantian","position":{"lat":26.8533,"lng":119.8575},"status":"surplus"},{"frame_index":512,"name":"ports_21","capacity":10000,"empty":358,"full":2624,"on_shipper":32,"on_consignee":0,"shortage":0,"acc_shortage":2740,"booking":20,"acc_booking":27501,"fulfillment":20,"acc_fulfillment":24761,"transfer_cost":0.0,"port_name":"Yokohama","position":{"lat":35.443707,"lng":139.638031},"status":"surplus"}]