[{"frame_index":825,"name":"ports_0","capacity":10000,"empty":3596,"full":4883,"on_shipper":396,"on_consignee":0,"shortage":0,"acc_shortage":522,"booking":252,"acc_booking":104633,"fulfillment":252,"acc_fulfillment":104111,"transfer_cost":0.0,"port_name":"Bremerhaven","position":{"lat":53.549999,"lng":8.583333},"status":"surplus"},{"frame_index":825,"name":"ports_1","capacity":10000,"empty":354,"full":36,"on_shipper":23,"on_consignee":0,"shortage":0,"acc_shortage":10,"booking":15,"acc_booking":6963,"fulfillment":15,"acc_fulfillment":6953,"transfer_cost":0.0,"port_name":"Durban","position":{"lat":-29.8579,"lng":31.0292},"status":"surplus"},{"frame_index":825,"name":"ports_2","capacity":10000,"empty":249,"full":321,"on_shipper":18,"on_consignee":0,"shortage":0,"acc_shortage":298,"booking":13,"acc_booking":6934,"fulfillment":13,"acc_fulfillment":6636,"transfer_cost":0.0,"port_name":"Itagual","position":{"lat":-22.85222,"lng":-43.77528},"status":"surplus"},{"frame_index":825,"name":"ports_3","capacity":10000,"empty":4865,"full":283,"on_shipper":126,"on_consignee":0,"shortage":0,"acc_shortage":0,"booking":79,"acc_booking":39619,"fulfillment":79,"acc_fulfillment":39619,"transfer_cost":0.0,"port_name":"LeHavre","position":{"lat":49.490002,"lng":0.1},"status":"surplus"},{"frame_index":825,"name":"ports_4","capacity":10000,"empty":594,"full":613,"on_shipper":97,"on_consignee":902,"shortage":0,"acc_shortage":290,"booking":68,"acc_booking":33169,"fulfillment":68,"acc_fulfillment":32879,"transfer_cost":0.0,"port_name":"Los Angeles","position":{"lat":34.052235,"lng":-118.243683},"status":"surplus"},{"frame_index":825,"name":"ports_5","capacity":10000,"empty":2521,"full":608,"on_shipper":120,"on_consignee":0,"shortage":0,"acc_shortage":123,"booking":68,"acc_booking":33315,"fulfillment":68,"acc_fulfillment":33192,"transfer_cost":0.0,"port_name":"Manzanillo","position":{"lat":19.11695,"lng":-104.34214},"status":"surplus"},{"frame_index":825,"name":"ports_6","capacity":10000,"empty":127,"full":180,"on_shipper":21,"on_consignee":142,"shortage":0,"acc_shortage":1654,"booking":21,"acc_booking":10214,"fulfillment":21,"acc_fulfillment":8560,"transfer_cost":0.0,"port_name":"Melbourne","position":{"lat":-37.840935,"lng":144.946457},"status":"balance"},{"frame_index":825,"name":"ports_7","capacity":10000,"empty":614,"full":413,"on_shipper":31,"on_consignee":0,"shortage":0,"acc_shortage":0,"booking":20,"acc_booking":10227,"fulfillment":20,"acc_fulfillment":10227,"transfer_cost":0.0,"port_name":"Montreal","position":{"lat":45.516136,"lng":-73.65683},"status":"surplus"},{"frame_index":825,"name":"ports_8","capacity":10000,"empty":3661,"full":95,"on_shipper":42,"on_consignee":0,"shortage":0,"acc_shortage":136,"booking":42,"acc_booking":19970,"fulfillment":42,"acc_fulfillment":19834,"transfer_cost":0.0,"port_name":"New York","position":{"lat":40.73061,"lng":-73.935242},"status":"surplus"},{"frame_index":825,"name":"ports_9","capacity":10000,"empty":1019,"full":598,"on_shipper":57,"on_consignee":0,"shortage":0,"acc_shortage":45,"booking":34,"acc_booking":20002,"fulfillment":34,"acc_fulfillment":19957,"transfer_cost":0.0,"port_name":"Oakland","position":{"lat":37.804363,"lng":-122.271111},"status":"surplus"},{"frame_index":825,"name":"ports_10","capacity":10000,"empty":1129,"full":336,"on_shipper":35,"on_consignee":0,"shortage":0,"acc_shortage":314,"booking":21,"acc_booking":10246,"fulfillment":21,"acc_fulfillment":9932,"transfer_cost":0.0,"port_name":"Prince Rupert","position":{"lat":54.312519,"lng":-130.305405},"status":"surplus"},{"frame_index":825,"name":"ports_11","capacity":10000,"empty":2649,"full":1231,"on_shipper":136,"on_consignee":0,"shortage":0,"acc_shortage":204,"booking":80,"acc_booking":39586,"fulfillment":80,"acc_fulfillment":39382,"transfer_cost":0.0,"port_name":"Pusan","position":{"lat":35.166668,"lng":129.066666},"status":"surplus"},{"frame_index":825,"name":"ports_12","capacity":10000,"empty":4401,"full":1380,"on_shipper":170,"on_consignee":0,"shortage":0,"acc_shortage":0,"booking":96,"acc_booking":52849,"fulfillment":96,"acc_fulfillment":52849,"transfer_cost":0.0,"port_name":"Qingdao","position":{"lat":36.066898,"lng":120.382698},"status":"surplus"},{"frame_index":825,"name":"ports_13","capacity":10000,"empty":680,"full":33,"on_shipper":27,"on_consignee":0,"shortage":0,"acc_shortage":449,"booking":15,"acc_booking":6941,"fulfillment":15,"acc_fulfillment":6492,"transfer_cost":0.0,"port_name":"San Antonio","position":{"lat":29.424349,"lng":-98.491142},"status":"surplus"},{"frame_index":825,"name":"ports_14","capacity":10000,"empty":0,"full":276,"on_shipper":19,"on_consignee":0,"shortage":1,"acc_shortage":763,"booking":14,"acc_booking":6977,"fulfillment":13,"acc_fulfillment":6214,"transfer_cost":0.0,"port_name":"Santos","position":{"lat":-23.96083,"lng":-46.33361},"status":"demand"},{"frame_index":825,"name":"ports_15","capacity":10000,"empty":1864,"full":1162,"on_shipper":144,"on_consignee":0,"shortage":0,"acc_shortage":0,"booking":94,"acc_booking":46216,"fulfillment":94,"acc_fulfillment":46216,"transfer_cost":0.0,"port_name":"Seattle","position":{"lat":47.608013,"lng":-122.335167},"status":"surplus"},{"frame_index":825,"name":"ports_16","capacity":10000,"empty":3025,"full":1140,"on_shipper":169,"on_consignee":135,"shortage":0,"acc_shortage":760,"booking":112,"acc_booking":65718,"fulfillment":112,"acc_fulfillment":64958,"transfer_cost":0.0,"port_name":"Shanghai","position":{"lat":31.224361,"lng":121.46917},"status":"surplus"},{"frame_index":825,"name":"ports_17","capacity":10000,"empty":677,"full":313,"on_shipper":69,"on_consignee":35,"shortage":0,"acc_shortage":283,"booking":54,"acc_booking":26616,"fulfillment":54,"acc_fulfillment":26333,"transfer_cost":1.0,"port_name":"Singapore","position":{"lat":1.29027,"lng":103.851959},"status":"surplus"},{"frame_index":825,"name":"ports_18","capacity":10000,"empty":1051,"full":173,"on_shipper":26,"on_consignee":0,"shortage":0,"acc_shortage":1374,"booking":18,"acc_booking":10231,"fulfillment":18,"acc_fulfillment":8857,"transfer_cost":0.0,"port_name":"Sydney","position":{"lat":-33.865143,"lng":151.2099},"status":"surplus"},{"frame_index":825,"name":"ports_19","capacity":10000,"empty":1433,"full":115,"on_shipper":47,"on_consignee":89,"shortage":0,"acc_shortage":0,"booking":28,"acc_booking":13553,"fulfillment":28,"acc_fulfillment":13553,"transfer_cost":0.0,"port_name":"Vancouver","position":{"lat":49.246292,"lng":-123.116226},"status":"surplus"},{"frame_index":825,"name":"ports_20","capacity":10000,"empty":1516,"full":666,"on_shipper":122,"on_consignee":17,"shortage":0,"acc_shortage":942,"booking":101,"acc_booking":45928,"fulfillment":101,"acc_fulfillment":44986,"transfer_cost":31.0,"port_name":"Yantian","position":{"lat":26.8533,"lng":119.8575},"status":"surplus"},{"frame_index":825,"name":"ports_21","capacity":10000,"empty":518,"full":775,"on_shipper":121,"on_consignee":0,"shortage":0,"acc_shortage":6236,"booking":96,"acc_booking":43685,"fulfillment":96,"acc_fulfillment":37449,"transfer_cost":0.0,"port_name":"Yokohama","position":{"lat":35.443707,"lng":139.638031},"status":"balance"}]