[{"frame_index":753,"name":"ports_0","capacity":10000,"empty":4977,"full":1830,"on_shipper":203,"on_consignee":354,"shortage":0,"acc_shortage":522,"booking":121,"acc_booking":97558,"fulfillment":121,"acc_fulfillment":97036,"transfer_cost":2029.0,"port_name":"Bremerhaven","position":{"lat":53.549999,"lng":8.583333},"status":"surplus"},{"frame_index":753,"name":"ports_1","capacity":10000,"empty":300,"full":99,"on_shipper":13,"on_consignee":0,"shortage":0,"acc_shortage":10,"booking":9,"acc_booking":6478,"fulfillment":9,"acc_fulfillment":6468,"transfer_cost":0.0,"port_name":"Durban","position":{"lat":-29.8579,"lng":31.0292},"status":"surplus"},{"frame_index":753,"name":"ports_2","capacity":10000,"empty":435,"full":253,"on_shipper":9,"on_consignee":0,"shortage":0,"acc_shortage":298,"booking":9,"acc_booking":6454,"fulfillment":9,"acc_fulfillment":6156,"transfer_cost":0.0,"port_name":"Itagual","position":{"lat":-22.85222,"lng":-43.77528},"status":"surplus"},{"frame_index":753,"name":"ports_3","capacity":10000,"empty":602,"full":3062,"on_shipper":63,"on_consignee":0,"shortage":0,"acc_shortage":0,"booking":50,"acc_booking":36923,"fulfillment":50,"acc_fulfillment":36923,"transfer_cost":0.0,"port_name":"LeHavre","position":{"lat":49.490002,"lng":0.1},"status":"surplus"},{"frame_index":753,"name":"ports_4","capacity":10000,"empty":1745,"full":758,"on_shipper":54,"on_consignee":0,"shortage":0,"acc_shortage":290,"booking":42,"acc_booking":30908,"fulfillment":42,"acc_fulfillment":30618,"transfer_cost":0.0,"port_name":"Los Angeles","position":{"lat":34.052235,"lng":-118.243683},"status":"surplus"},{"frame_index":753,"name":"ports_5","capacity":10000,"empty":1293,"full":29,"on_shipper":60,"on_consignee":884,"shortage":0,"acc_shortage":123,"booking":48,"acc_booking":31015,"fulfillment":48,"acc_fulfillment":30892,"transfer_cost":0.0,"port_name":"Manzanillo","position":{"lat":19.11695,"lng":-104.34214},"status":"surplus"},{"frame_index":753,"name":"ports_6","capacity":10000,"empty":0,"full":450,"on_shipper":0,"on_consignee":0,"shortage":13,"acc_shortage":1444,"booking":13,"acc_booking":9512,"fulfillment":0,"acc_fulfillment":8068,"transfer_cost":0.0,"port_name":"Melbourne","position":{"lat":-37.840935,"lng":144.946457},"status":"demand"},{"frame_index":753,"name":"ports_7","capacity":10000,"empty":230,"full":517,"on_shipper":17,"on_consignee":0,"shortage":0,"acc_shortage":0,"booking":13,"acc_booking":9520,"fulfillment":13,"acc_fulfillment":9520,"transfer_cost":0.0,"port_name":"Montreal","position":{"lat":45.516136,"lng":-73.65683},"status":"surplus"},{"frame_index":753,"name":"ports_8","capacity":10000,"empty":289,"full":767,"on_shipper":24,"on_consignee":0,"shortage":0,"acc_shortage":0,"booking":24,"acc_booking":18593,"fulfillment":24,"acc_fulfillment":18593,"transfer_cost":0.0,"port_name":"New York","position":{"lat":40.73061,"lng":-73.935242},"status":"surplus"},{"frame_index":753,"name":"ports_9","capacity":10000,"empty":694,"full":230,"on_shipper":32,"on_consignee":0,"shortage":0,"acc_shortage":45,"booking":28,"acc_booking":18636,"fulfillment":28,"acc_fulfillment":18591,"transfer_cost":0.0,"port_name":"Oakland","position":{"lat":37.804363,"lng":-122.271111},"status":"surplus"},{"frame_index":753,"name":"ports_10","capacity":10000,"empty":1412,"full":44,"on_shipper":20,"on_consignee":0,"shortage":0,"acc_shortage":314,"booking":12,"acc_booking":9538,"fulfillment":12,"acc_fulfillment":9224,"transfer_cost":0.0,"port_name":"Prince Rupert","position":{"lat":54.312519,"lng":-130.305405},"status":"surplus"},{"frame_index":753,"name":"ports_11","capacity":10000,"empty":2244,"full":76,"on_shipper":73,"on_consignee":318,"shortage":0,"acc_shortage":204,"booking":52,"acc_booking":36881,"fulfillment":52,"acc_fulfillment":36677,"transfer_cost":0.0,"port_name":"Pusan","position":{"lat":35.166668,"lng":129.066666},"status":"surplus"},{"frame_index":753,"name":"ports_12","capacity":10000,"empty":2743,"full":1779,"on_shipper":83,"on_consignee":0,"shortage":0,"acc_shortage":0,"booking":65,"acc_booking":49247,"fulfillment":65,"acc_fulfillment":49247,"transfer_cost":0.0,"port_name":"Qingdao","position":{"lat":36.066898,"lng":120.382698},"status":"surplus"},{"frame_index":753,"name":"ports_13","capacity":10000,"empty":55,"full":554,"on_shipper":8,"on_consignee":0,"shortage":0,"acc_shortage":325,"booking":8,"acc_booking":6469,"fulfillment":8,"acc_fulfillment":6144,"transfer_cost":0.0,"port_name":"San Antonio","position":{"lat":29.424349,"lng":-98.491142},"status":"balance"},{"frame_index":753,"name":"ports_14","capacity":10000,"empty":303,"full":592,"on_shipper":13,"on_consignee":0,"shortage":0,"acc_shortage":762,"booking":9,"acc_booking":6502,"fulfillment":9,"acc_fulfillment":5740,"transfer_cost":0.0,"port_name":"Santos","position":{"lat":-23.96083,"lng":-46.33361},"status":"surplus"},{"frame_index":753,"name":"ports_15","capacity":10000,"empty":568,"full":3173,"on_shipper":91,"on_consignee":0,"shortage":0,"acc_shortage":0,"booking":57,"acc_booking":43065,"fulfillment":57,"acc_fulfillment":43065,"transfer_cost":0.0,"port_name":"Seattle","position":{"lat":47.608013,"lng":-122.335167},"status":"surplus"},{"frame_index":753,"name":"ports_16","capacity":10000,"empty":547,"full":2768,"on_shipper":95,"on_consignee":186,"shortage":0,"acc_shortage":760,"booking":73,"acc_booking":61254,"fulfillment":73,"acc_fulfillment":60494,"transfer_cost":190.0,"port_name":"Shanghai","position":{"lat":31.224361,"lng":121.46917},"status":"surplus"},{"frame_index":753,"name":"ports_17","capacity":10000,"empty":2253,"full":1080,"on_shipper":43,"on_consignee":0,"shortage":0,"acc_shortage":283,"booking":35,"acc_booking":24815,"fulfillment":35,"acc_fulfillment":24532,"transfer_cost":0.0,"port_name":"Singapore","position":{"lat":1.29027,"lng":103.851959},"status":"surplus"},{"frame_index":753,"name":"ports_18","capacity":10000,"empty":189,"full":206,"on_shipper":16,"on_consignee":0,"shortage":0,"acc_shortage":1226,"booking":14,"acc_booking":9519,"fulfillment":14,"acc_fulfillment":8293,"transfer_cost":0.0,"port_name":"Sydney","position":{"lat":-33.865143,"lng":151.2099},"status":"surplus"},{"frame_index":753,"name":"ports_19","capacity":10000,"empty":947,"full":426,"on_shipper":20,"on_consignee":0,"shortage":0,"acc_shortage":0,"booking":16,"acc_booking":12622,"fulfillment":16,"acc_fulfillment":12622,"transfer_cost":0.0,"port_name":"Vancouver","position":{"lat":49.246292,"lng":-123.116226},"status":"surplus"},{"frame_index":753,"name":"ports_20","capacity":10000,"empty":332,"full":2030,"on_shipper":83,"on_consignee":393,"shortage":0,"acc_shortage":942,"booking":61,"acc_booking":42772,"fulfillment":61,"acc_fulfillment":41830,"transfer_cost":4.0,"port_name":"Yantian","position":{"lat":26.8533,"lng":119.8575},"status":"balance"},{"frame_index":753,"name":"ports_21","capacity":10000,"empty":40,"full":108,"on_shipper":53,"on_consignee":182,"shortage":0,"acc_shortage":5142,"booking":53,"acc_booking":40881,"fulfillment":53,"acc_fulfillment":35739,"transfer_cost":0.0,"port_name":"Yokohama","position":{"lat":35.443707,"lng":139.638031},"status":"demand"}]