[{"frame_index":396,"name":"ports_0","capacity":10000,"empty":3519,"full":1880,"on_shipper":306,"on_consignee":1349,"shortage":0,"acc_shortage":522,"booking":203,"acc_booking":50677,"fulfillment":203,"acc_fulfillment":50155,"transfer_cost":0.0,"port_name":"Bremerhaven","position":{"lat":53.549999,"lng":8.583333},"status":"surplus"},{"frame_index":396,"name":"ports_1","capacity":10000,"empty":384,"full":91,"on_shipper":19,"on_consignee":0,"shortage":0,"acc_shortage":0,"booking":15,"acc_booking":3392,"fulfillment":15,"acc_fulfillment":3392,"transfer_cost":0.0,"port_name":"Durban","position":{"lat":-29.8579,"lng":31.0292},"status":"surplus"},{"frame_index":396,"name":"ports_2","capacity":10000,"empty":771,"full":182,"on_shipper":23,"on_consignee":0,"shortage":0,"acc_shortage":233,"booking":15,"acc_booking":3369,"fulfillment":15,"acc_fulfillment":3136,"transfer_cost":0.0,"port_name":"Itagual","position":{"lat":-22.85222,"lng":-43.77528},"status":"surplus"},{"frame_index":396,"name":"ports_3","capacity":10000,"empty":1641,"full":1585,"on_shipper":182,"on_consignee":0,"shortage":0,"acc_shortage":0,"booking":89,"acc_booking":19272,"fulfillment":89,"acc_fulfillment":19272,"transfer_cost":0.0,"port_name":"LeHavre","position":{"lat":49.490002,"lng":0.1},"status":"surplus"},{"frame_index":396,"name":"ports_4","capacity":10000,"empty":2016,"full":1333,"on_shipper":134,"on_consignee":0,"shortage":0,"acc_shortage":0,"booking":72,"acc_booking":16104,"fulfillment":72,"acc_fulfillment":16104,"transfer_cost":0.0,"port_name":"Los Angeles","position":{"lat":34.052235,"lng":-118.243683},"status":"surplus"},{"frame_index":396,"name":"ports_5","capacity":10000,"empty":984,"full":358,"on_shipper":110,"on_consignee":0,"shortage":0,"acc_shortage":123,"booking":65,"acc_booking":16170,"fulfillment":65,"acc_fulfillment":16047,"transfer_cost":0.0,"port_name":"Manzanillo","position":{"lat":19.11695,"lng":-104.34214},"status":"surplus"},{"frame_index":396,"name":"ports_6","capacity":10000,"empty":0,"full":447,"on_shipper":0,"on_consignee":0,"shortage":23,"acc_shortage":628,"booking":23,"acc_booking":4956,"fulfillment":0,"acc_fulfillment":4328,"transfer_cost":0.0,"port_name":"Melbourne","position":{"lat":-37.840935,"lng":144.946457},"status":"demand"},{"frame_index":396,"name":"ports_7","capacity":10000,"empty":2125,"full":565,"on_shipper":48,"on_consignee":0,"shortage":0,"acc_shortage":0,"booking":22,"acc_booking":4960,"fulfillment":22,"acc_fulfillment":4960,"transfer_cost":0.0,"port_name":"Montreal","position":{"lat":45.516136,"lng":-73.65683},"status":"surplus"},{"frame_index":396,"name":"ports_8","capacity":10000,"empty":1845,"full":103,"on_shipper":93,"on_consignee":0,"shortage":0,"acc_shortage":0,"booking":43,"acc_booking":9680,"fulfillment":43,"acc_fulfillment":9680,"transfer_cost":0.0,"port_name":"New York","position":{"lat":40.73061,"lng":-73.935242},"status":"surplus"},{"frame_index":396,"name":"ports_9","capacity":10000,"empty":1367,"full":253,"on_shipper":77,"on_consignee":0,"shortage":0,"acc_shortage":0,"booking":49,"acc_booking":9659,"fulfillment":49,"acc_fulfillment":9659,"transfer_cost":0.0,"port_name":"Oakland","position":{"lat":37.804363,"lng":-122.271111},"status":"surplus"},{"frame_index":396,"name":"ports_10","capacity":10000,"empty":759,"full":712,"on_shipper":44,"on_consignee":0,"shortage":0,"acc_shortage":0,"booking":21,"acc_booking":4944,"fulfillment":21,"acc_fulfillment":4944,"transfer_cost":0.0,"port_name":"Prince Rupert","position":{"lat":54.312519,"lng":-130.305405},"status":"surplus"},{"frame_index":396,"name":"ports_11","capacity":10000,"empty":531,"full":1250,"on_shipper":145,"on_consignee":0,"shortage":0,"acc_shortage":0,"booking":92,"acc_booking":19214,"fulfillment":92,"acc_fulfillment":19214,"transfer_cost":0.0,"port_name":"Pusan","position":{"lat":35.166668,"lng":129.066666},"status":"surplus"},{"frame_index":396,"name":"ports_12","capacity":10000,"empty":1035,"full":2277,"on_shipper":174,"on_consignee":0,"shortage":0,"acc_shortage":0,"booking":110,"acc_booking":25702,"fulfillment":110,"acc_fulfillment":25702,"transfer_cost":0.0,"port_name":"Qingdao","position":{"lat":36.066898,"lng":120.382698},"status":"surplus"},{"frame_index":396,"name":"ports_13","capacity":10000,"empty":246,"full":288,"on_shipper":26,"on_consignee":0,"shortage":0,"acc_shortage":123,"booking":14,"acc_booking":3360,"fulfillment":14,"acc_fulfillment":3237,"transfer_cost":0.0,"port_name":"San Antonio","position":{"lat":29.424349,"lng":-98.491142},"status":"surplus"},{"frame_index":396,"name":"ports_14","capacity":10000,"empty":359,"full":520,"on_shipper":24,"on_consignee":0,"shortage":0,"acc_shortage":697,"booking":15,"acc_booking":3405,"fulfillment":15,"acc_fulfillment":2708,"transfer_cost":0.0,"port_name":"Santos","position":{"lat":-23.96083,"lng":-46.33361},"status":"surplus"},{"frame_index":396,"name":"ports_15","capacity":10000,"empty":3476,"full":1486,"on_shipper":200,"on_consignee":0,"shortage":0,"acc_shortage":0,"booking":106,"acc_booking":22433,"fulfillment":106,"acc_fulfillment":22433,"transfer_cost":0.0,"port_name":"Seattle","position":{"lat":47.608013,"lng":-122.335167},"status":"surplus"},{"frame_index":396,"name":"ports_16","capacity":10000,"empty":764,"full":2929,"on_shipper":229,"on_consignee":0,"shortage":0,"acc_shortage":0,"booking":143,"acc_booking":32018,"fulfillment":143,"acc_fulfillment":32018,"transfer_cost":0.0,"port_name":"Shanghai","position":{"lat":31.224361,"lng":121.46917},"status":"balance"},{"frame_index":396,"name":"ports_17","capacity":10000,"empty":2367,"full":615,"on_shipper":107,"on_consignee":180,"shortage":0,"acc_shortage":40,"booking":60,"acc_booking":12926,"fulfillment":60,"acc_fulfillment":12886,"transfer_cost":0.0,"port_name":"Singapore","position":{"lat":1.29027,"lng":103.851959},"status":"surplus"},{"frame_index":396,"name":"ports_18","capacity":10000,"empty":276,"full":46,"on_shipper":43,"on_consignee":17,"shortage":0,"acc_shortage":419,"booking":25,"acc_booking":4929,"fulfillment":25,"acc_fulfillment":4510,"transfer_cost":0.0,"port_name":"Sydney","position":{"lat":-33.865143,"lng":151.2099},"status":"surplus"},{"frame_index":396,"name":"ports_19","capacity":10000,"empty":363,"full":669,"on_shipper":52,"on_consignee":0,"shortage":0,"acc_shortage":0,"booking":31,"acc_booking":6593,"fulfillment":31,"acc_fulfillment":6593,"transfer_cost":0.0,"port_name":"Vancouver","position":{"lat":49.246292,"lng":-123.116226},"status":"surplus"},{"frame_index":396,"name":"ports_20","capacity":10000,"empty":713,"full":978,"on_shipper":157,"on_consignee":0,"shortage":0,"acc_shortage":0,"booking":91,"acc_booking":22167,"fulfillment":91,"acc_fulfillment":22167,"transfer_cost":0.0,"port_name":"Yantian","position":{"lat":26.8533,"lng":119.8575},"status":"surplus"},{"frame_index":396,"name":"ports_21","capacity":10000,"empty":311,"full":987,"on_shipper":150,"on_consignee":0,"shortage":0,"acc_shortage":1887,"booking":104,"acc_booking":21251,"fulfillment":104,"acc_fulfillment":19364,"transfer_cost":0.0,"port_name":"Yokohama","position":{"lat":35.443707,"lng":139.638031},"status":"demand"}]