[{"frame_index":392,"name":"ports_0","capacity":10000,"empty":3288,"full":2037,"on_shipper":493,"on_consignee":0,"shortage":0,"acc_shortage":522,"booking":253,"acc_booking":49708,"fulfillment":253,"acc_fulfillment":49186,"transfer_cost":0.0,"port_name":"Bremerhaven","position":{"lat":53.549999,"lng":8.583333},"status":"surplus"},{"frame_index":392,"name":"ports_1","capacity":10000,"empty":406,"full":9,"on_shipper":30,"on_consignee":49,"shortage":0,"acc_shortage":0,"booking":18,"acc_booking":3321,"fulfillment":18,"acc_fulfillment":3321,"transfer_cost":0.0,"port_name":"Durban","position":{"lat":-29.8579,"lng":31.0292},"status":"surplus"},{"frame_index":392,"name":"ports_2","capacity":10000,"empty":838,"full":108,"on_shipper":30,"on_consignee":0,"shortage":0,"acc_shortage":233,"booking":17,"acc_booking":3302,"fulfillment":17,"acc_fulfillment":3069,"transfer_cost":0.0,"port_name":"Itagual","position":{"lat":-22.85222,"lng":-43.77528},"status":"surplus"},{"frame_index":392,"name":"ports_3","capacity":10000,"empty":2050,"full":1201,"on_shipper":157,"on_consignee":0,"shortage":0,"acc_shortage":0,"booking":102,"acc_booking":18863,"fulfillment":102,"acc_fulfillment":18863,"transfer_cost":0.0,"port_name":"LeHavre","position":{"lat":49.490002,"lng":0.1},"status":"surplus"},{"frame_index":392,"name":"ports_4","capacity":10000,"empty":2357,"full":1039,"on_shipper":87,"on_consignee":0,"shortage":0,"acc_shortage":0,"booking":87,"acc_booking":15763,"fulfillment":87,"acc_fulfillment":15763,"transfer_cost":0.0,"port_name":"Los Angeles","position":{"lat":34.052235,"lng":-118.243683},"status":"surplus"},{"frame_index":392,"name":"ports_5","capacity":10000,"empty":1221,"full":0,"on_shipper":140,"on_consignee":91,"shortage":0,"acc_shortage":123,"booking":87,"acc_booking":15842,"fulfillment":87,"acc_fulfillment":15719,"transfer_cost":54.0,"port_name":"Manzanillo","position":{"lat":19.11695,"lng":-104.34214},"status":"surplus"},{"frame_index":392,"name":"ports_6","capacity":10000,"empty":0,"full":447,"on_shipper":0,"on_consignee":0,"shortage":27,"acc_shortage":524,"booking":27,"acc_booking":4852,"fulfillment":0,"acc_fulfillment":4328,"transfer_cost":0.0,"port_name":"Melbourne","position":{"lat":-37.840935,"lng":144.946457},"status":"demand"},{"frame_index":392,"name":"ports_7","capacity":10000,"empty":2227,"full":473,"on_shipper":38,"on_consignee":0,"shortage":0,"acc_shortage":0,"booking":26,"acc_booking":4858,"fulfillment":26,"acc_fulfillment":4858,"transfer_cost":0.0,"port_name":"Montreal","position":{"lat":45.516136,"lng":-73.65683},"status":"surplus"},{"frame_index":392,"name":"ports_8","capacity":10000,"empty":976,"full":996,"on_shipper":104,"on_consignee":0,"shortage":0,"acc_shortage":0,"booking":54,"acc_booking":9484,"fulfillment":54,"acc_fulfillment":9484,"transfer_cost":0.0,"port_name":"New York","position":{"lat":40.73061,"lng":-73.935242},"status":"surplus"},{"frame_index":392,"name":"ports_9","capacity":10000,"empty":1501,"full":85,"on_shipper":51,"on_consignee":60,"shortage":0,"acc_shortage":0,"booking":51,"acc_booking":9465,"fulfillment":51,"acc_fulfillment":9465,"transfer_cost":0.0,"port_name":"Oakland","position":{"lat":37.804363,"lng":-122.271111},"status":"surplus"},{"frame_index":392,"name":"ports_10","capacity":10000,"empty":858,"full":614,"on_shipper":43,"on_consignee":0,"shortage":0,"acc_shortage":0,"booking":23,"acc_booking":4845,"fulfillment":23,"acc_fulfillment":4845,"transfer_cost":0.0,"port_name":"Prince Rupert","position":{"lat":54.312519,"lng":-130.305405},"status":"surplus"},{"frame_index":392,"name":"ports_11","capacity":10000,"empty":945,"full":827,"on_shipper":154,"on_consignee":0,"shortage":0,"acc_shortage":0,"booking":103,"acc_booking":18800,"fulfillment":103,"acc_fulfillment":18800,"transfer_cost":0.0,"port_name":"Pusan","position":{"lat":35.166668,"lng":129.066666},"status":"surplus"},{"frame_index":392,"name":"ports_12","capacity":10000,"empty":1555,"full":1689,"on_shipper":242,"on_consignee":0,"shortage":0,"acc_shortage":0,"booking":151,"acc_booking":25182,"fulfillment":151,"acc_fulfillment":25182,"transfer_cost":0.0,"port_name":"Qingdao","position":{"lat":36.066898,"lng":120.382698},"status":"surplus"},{"frame_index":392,"name":"ports_13","capacity":10000,"empty":313,"full":221,"on_shipper":26,"on_consignee":0,"shortage":0,"acc_shortage":123,"booking":16,"acc_booking":3293,"fulfillment":16,"acc_fulfillment":3170,"transfer_cost":0.0,"port_name":"San Antonio","position":{"lat":29.424349,"lng":-98.491142},"status":"surplus"},{"frame_index":392,"name":"ports_14","capacity":10000,"empty":426,"full":456,"on_shipper":21,"on_consignee":0,"shortage":0,"acc_shortage":697,"booking":17,"acc_booking":3338,"fulfillment":17,"acc_fulfillment":2641,"transfer_cost":0.0,"port_name":"Santos","position":{"lat":-23.96083,"lng":-46.33361},"status":"surplus"},{"frame_index":392,"name":"ports_15","capacity":10000,"empty":3956,"full":1014,"on_shipper":192,"on_consignee":0,"shortage":0,"acc_shortage":0,"booking":121,"acc_booking":21953,"fulfillment":121,"acc_fulfillment":21953,"transfer_cost":0.0,"port_name":"Seattle","position":{"lat":47.608013,"lng":-122.335167},"status":"surplus"},{"frame_index":392,"name":"ports_16","capacity":10000,"empty":1407,"full":2745,"on_shipper":244,"on_consignee":0,"shortage":0,"acc_shortage":0,"booking":161,"acc_booking":31360,"fulfillment":161,"acc_fulfillment":31360,"transfer_cost":0.0,"port_name":"Shanghai","position":{"lat":31.224361,"lng":121.46917},"status":"surplus"},{"frame_index":392,"name":"ports_17","capacity":10000,"empty":3467,"full":555,"on_shipper":110,"on_consignee":0,"shortage":0,"acc_shortage":40,"booking":69,"acc_booking":12650,"fulfillment":69,"acc_fulfillment":12610,"transfer_cost":0.0,"port_name":"Singapore","position":{"lat":1.29027,"lng":103.851959},"status":"surplus"},{"frame_index":392,"name":"ports_18","capacity":10000,"empty":139,"full":148,"on_shipper":24,"on_consignee":0,"shortage":0,"acc_shortage":419,"booking":24,"acc_booking":4824,"fulfillment":24,"acc_fulfillment":4405,"transfer_cost":0.0,"port_name":"Sydney","position":{"lat":-33.865143,"lng":151.2099},"status":"balance"},{"frame_index":392,"name":"ports_19","capacity":10000,"empty":504,"full":533,"on_shipper":47,"on_consignee":0,"shortage":0,"acc_shortage":0,"booking":36,"acc_booking":6452,"fulfillment":36,"acc_fulfillment":6452,"transfer_cost":0.0,"port_name":"Vancouver","position":{"lat":49.246292,"lng":-123.116226},"status":"surplus"},{"frame_index":392,"name":"ports_20","capacity":10000,"empty":1086,"full":682,"on_shipper":135,"on_consignee":46,"shortage":0,"acc_shortage":0,"booking":113,"acc_booking":21728,"fulfillment":113,"acc_fulfillment":21728,"transfer_cost":0.0,"port_name":"Yantian","position":{"lat":26.8533,"lng":119.8575},"status":"surplus"},{"frame_index":392,"name":"ports_21","capacity":10000,"empty":815,"full":403,"on_shipper":230,"on_consignee":0,"shortage":0,"acc_shortage":1887,"booking":126,"acc_booking":20747,"fulfillment":126,"acc_fulfillment":18860,"transfer_cost":0.0,"port_name":"Yokohama","position":{"lat":35.443707,"lng":139.638031},"status":"surplus"}]