[{"frame_index":1076,"name":"ports_0","capacity":10000,"empty":1786,"full":1899,"on_shipper":349,"on_consignee":0,"shortage":0,"acc_shortage":861,"booking":226,"acc_booking":139060,"fulfillment":226,"acc_fulfillment":138199,"transfer_cost":0.0,"port_name":"Bremerhaven","position":{"lat":53.549999,"lng":8.583333},"status":"surplus"},{"frame_index":1076,"name":"ports_1","capacity":10000,"empty":291,"full":305,"on_shipper":28,"on_consignee":0,"shortage":0,"acc_shortage":113,"booking":16,"acc_booking":9240,"fulfillment":16,"acc_fulfillment":9127,"transfer_cost":0.0,"port_name":"Durban","position":{"lat":-29.8579,"lng":31.0292},"status":"surplus"},{"frame_index":1076,"name":"ports_2","capacity":10000,"empty":351,"full":390,"on_shipper":21,"on_consignee":0,"shortage":0,"acc_shortage":298,"booking":15,"acc_booking":9204,"fulfillment":15,"acc_fulfillment":8906,"transfer_cost":0.0,"port_name":"Itagual","position":{"lat":-22.85222,"lng":-43.77528},"status":"surplus"},{"frame_index":1076,"name":"ports_3","capacity":10000,"empty":4442,"full":2685,"on_shipper":114,"on_consignee":0,"shortage":0,"acc_shortage":0,"booking":83,"acc_booking":52579,"fulfillment":83,"acc_fulfillment":52579,"transfer_cost":0.0,"port_name":"LeHavre","position":{"lat":49.490002,"lng":0.1},"status":"surplus"},{"frame_index":1076,"name":"ports_4","capacity":10000,"empty":978,"full":2143,"on_shipper":91,"on_consignee":0,"shortage":0,"acc_shortage":290,"booking":69,"acc_booking":44035,"fulfillment":69,"acc_fulfillment":43745,"transfer_cost":0.0,"port_name":"Los Angeles","position":{"lat":34.052235,"lng":-118.243683},"status":"surplus"},{"frame_index":1076,"name":"ports_5","capacity":10000,"empty":353,"full":943,"on_shipper":94,"on_consignee":0,"shortage":0,"acc_shortage":194,"booking":70,"acc_booking":44108,"fulfillment":70,"acc_fulfillment":43914,"transfer_cost":0.0,"port_name":"Manzanillo","position":{"lat":19.11695,"lng":-104.34214},"status":"balance"},{"frame_index":1076,"name":"ports_6","capacity":10000,"empty":79,"full":502,"on_shipper":27,"on_consignee":0,"shortage":0,"acc_shortage":2108,"booking":21,"acc_booking":13557,"fulfillment":21,"acc_fulfillment":11449,"transfer_cost":0.0,"port_name":"Melbourne","position":{"lat":-37.840935,"lng":144.946457},"status":"balance"},{"frame_index":1076,"name":"ports_7","capacity":10000,"empty":1214,"full":485,"on_shipper":21,"on_consignee":0,"shortage":0,"acc_shortage":0,"booking":21,"acc_booking":13560,"fulfillment":21,"acc_fulfillment":13560,"transfer_cost":0.0,"port_name":"Montreal","position":{"lat":45.516136,"lng":-73.65683},"status":"surplus"},{"frame_index":1076,"name":"ports_8","capacity":10000,"empty":5101,"full":793,"on_shipper":58,"on_consignee":0,"shortage":0,"acc_shortage":136,"booking":42,"acc_booking":26513,"fulfillment":42,"acc_fulfillment":26377,"transfer_cost":0.0,"port_name":"New York","position":{"lat":40.73061,"lng":-73.935242},"status":"surplus"},{"frame_index":1076,"name":"ports_9","capacity":10000,"empty":1503,"full":678,"on_shipper":57,"on_consignee":0,"shortage":0,"acc_shortage":45,"booking":43,"acc_booking":26571,"fulfillment":43,"acc_fulfillment":26526,"transfer_cost":0.0,"port_name":"Oakland","position":{"lat":37.804363,"lng":-122.271111},"status":"surplus"},{"frame_index":1076,"name":"ports_10","capacity":10000,"empty":1573,"full":94,"on_shipper":32,"on_consignee":0,"shortage":0,"acc_shortage":314,"booking":22,"acc_booking":13555,"fulfillment":22,"acc_fulfillment":13241,"transfer_cost":0.0,"port_name":"Prince Rupert","position":{"lat":54.312519,"lng":-130.305405},"status":"surplus"},{"frame_index":1076,"name":"ports_11","capacity":10000,"empty":2483,"full":824,"on_shipper":111,"on_consignee":252,"shortage":0,"acc_shortage":204,"booking":86,"acc_booking":52545,"fulfillment":86,"acc_fulfillment":52341,"transfer_cost":0.0,"port_name":"Pusan","position":{"lat":35.166668,"lng":129.066666},"status":"surplus"},{"frame_index":1076,"name":"ports_12","capacity":10000,"empty":3487,"full":562,"on_shipper":144,"on_consignee":223,"shortage":0,"acc_shortage":0,"booking":107,"acc_booking":70178,"fulfillment":107,"acc_fulfillment":70178,"transfer_cost":0.0,"port_name":"Qingdao","position":{"lat":36.066898,"lng":120.382698},"status":"surplus"},{"frame_index":1076,"name":"ports_13","capacity":10000,"empty":201,"full":344,"on_shipper":19,"on_consignee":0,"shortage":0,"acc_shortage":459,"booking":14,"acc_booking":9201,"fulfillment":14,"acc_fulfillment":8742,"transfer_cost":0.0,"port_name":"San Antonio","position":{"lat":29.424349,"lng":-98.491142},"status":"surplus"},{"frame_index":1076,"name":"ports_14","capacity":10000,"empty":0,"full":378,"on_shipper":0,"on_consignee":0,"shortage":16,"acc_shortage":1099,"booking":16,"acc_booking":9261,"fulfillment":0,"acc_fulfillment":8162,"transfer_cost":0.0,"port_name":"Santos","position":{"lat":-23.96083,"lng":-46.33361},"status":"demand"},{"frame_index":1076,"name":"ports_15","capacity":10000,"empty":1039,"full":2135,"on_shipper":149,"on_consignee":0,"shortage":0,"acc_shortage":1489,"booking":95,"acc_booking":61316,"fulfillment":95,"acc_fulfillment":59827,"transfer_cost":0.0,"port_name":"Seattle","position":{"lat":47.608013,"lng":-122.335167},"status":"surplus"},{"frame_index":1076,"name":"ports_16","capacity":10000,"empty":2700,"full":1425,"on_shipper":186,"on_consignee":149,"shortage":0,"acc_shortage":817,"booking":148,"acc_booking":87427,"fulfillment":148,"acc_fulfillment":86610,"transfer_cost":0.0,"port_name":"Shanghai","position":{"lat":31.224361,"lng":121.46917},"status":"surplus"},{"frame_index":1076,"name":"ports_17","capacity":10000,"empty":2102,"full":798,"on_shipper":69,"on_consignee":115,"shortage":0,"acc_shortage":619,"booking":56,"acc_booking":35310,"fulfillment":56,"acc_fulfillment":34691,"transfer_cost":0.0,"port_name":"Singapore","position":{"lat":1.29027,"lng":103.851959},"status":"surplus"},{"frame_index":1076,"name":"ports_18","capacity":10000,"empty":297,"full":339,"on_shipper":24,"on_consignee":0,"shortage":0,"acc_shortage":1374,"booking":18,"acc_booking":13546,"fulfillment":18,"acc_fulfillment":12172,"transfer_cost":0.0,"port_name":"Sydney","position":{"lat":-33.865143,"lng":151.2099},"status":"surplus"},{"frame_index":1076,"name":"ports_19","capacity":10000,"empty":957,"full":501,"on_shipper":38,"on_consignee":0,"shortage":0,"acc_shortage":0,"booking":30,"acc_booking":17953,"fulfillment":30,"acc_fulfillment":17953,"transfer_cost":0.0,"port_name":"Vancouver","position":{"lat":49.246292,"lng":-123.116226},"status":"surplus"},{"frame_index":1076,"name":"ports_20","capacity":10000,"empty":0,"full":2180,"on_shipper":0,"on_consignee":0,"shortage":101,"acc_shortage":1948,"booking":101,"acc_booking":61077,"fulfillment":0,"acc_fulfillment":59129,"transfer_cost":0.0,"port_name":"Yantian","position":{"lat":26.8533,"lng":119.8575},"status":"demand"},{"frame_index":1076,"name":"ports_21","capacity":10000,"empty":0,"full":1139,"on_shipper":0,"on_consignee":0,"shortage":99,"acc_shortage":9415,"booking":99,"acc_booking":58181,"fulfillment":0,"acc_fulfillment":48766,"transfer_cost":0.0,"port_name":"Yokohama","position":{"lat":35.443707,"lng":139.638031},"status":"demand"}]