[{"frame_index":876,"name":"ports_0","capacity":10000,"empty":1314,"full":1014,"on_shipper":87,"on_consignee":0,"shortage":0,"acc_shortage":522,"booking":37,"acc_booking":113791,"fulfillment":37,"acc_fulfillment":113269,"transfer_cost":0.0,"port_name":"Bremerhaven","position":{"lat":53.549999,"lng":8.583333},"status":"surplus"},{"frame_index":876,"name":"ports_1","capacity":10000,"empty":0,"full":301,"on_shipper":0,"on_consignee":0,"shortage":3,"acc_shortage":47,"booking":3,"acc_booking":7556,"fulfillment":0,"acc_fulfillment":7509,"transfer_cost":0.0,"port_name":"Durban","position":{"lat":-29.8579,"lng":31.0292},"status":"balance"},{"frame_index":876,"name":"ports_2","capacity":10000,"empty":353,"full":353,"on_shipper":2,"on_consignee":0,"shortage":0,"acc_shortage":298,"booking":2,"acc_booking":7520,"fulfillment":2,"acc_fulfillment":7222,"transfer_cost":0.0,"port_name":"Itagual","position":{"lat":-22.85222,"lng":-43.77528},"status":"surplus"},{"frame_index":876,"name":"ports_3","capacity":10000,"empty":3521,"full":2383,"on_shipper":32,"on_consignee":0,"shortage":0,"acc_shortage":0,"booking":13,"acc_booking":43045,"fulfillment":13,"acc_fulfillment":43045,"transfer_cost":0.0,"port_name":"LeHavre","position":{"lat":49.490002,"lng":0.1},"status":"surplus"},{"frame_index":876,"name":"ports_4","capacity":10000,"empty":735,"full":199,"on_shipper":20,"on_consignee":0,"shortage":0,"acc_shortage":290,"booking":11,"acc_booking":36049,"fulfillment":11,"acc_fulfillment":35759,"transfer_cost":0.0,"port_name":"Los Angeles","position":{"lat":34.052235,"lng":-118.243683},"status":"surplus"},{"frame_index":876,"name":"ports_5","capacity":10000,"empty":125,"full":534,"on_shipper":23,"on_consignee":0,"shortage":0,"acc_shortage":123,"booking":12,"acc_booking":36160,"fulfillment":12,"acc_fulfillment":36037,"transfer_cost":0.0,"port_name":"Manzanillo","position":{"lat":19.11695,"lng":-104.34214},"status":"surplus"},{"frame_index":876,"name":"ports_6","capacity":10000,"empty":0,"full":506,"on_shipper":0,"on_consignee":0,"shortage":4,"acc_shortage":1715,"booking":4,"acc_booking":11091,"fulfillment":0,"acc_fulfillment":9376,"transfer_cost":0.0,"port_name":"Melbourne","position":{"lat":-37.840935,"lng":144.946457},"status":"balance"},{"frame_index":876,"name":"ports_7","capacity":10000,"empty":446,"full":448,"on_shipper":9,"on_consignee":0,"shortage":0,"acc_shortage":0,"booking":4,"acc_booking":11102,"fulfillment":4,"acc_fulfillment":11102,"transfer_cost":0.0,"port_name":"Montreal","position":{"lat":45.516136,"lng":-73.65683},"status":"surplus"},{"frame_index":876,"name":"ports_8","capacity":10000,"empty":3426,"full":835,"on_shipper":13,"on_consignee":0,"shortage":0,"acc_shortage":136,"booking":7,"acc_booking":21698,"fulfillment":7,"acc_fulfillment":21562,"transfer_cost":0.0,"port_name":"New York","position":{"lat":40.73061,"lng":-73.935242},"status":"surplus"},{"frame_index":876,"name":"ports_9","capacity":10000,"empty":295,"full":1293,"on_shipper":15,"on_consignee":0,"shortage":0,"acc_shortage":45,"booking":8,"acc_booking":21713,"fulfillment":8,"acc_fulfillment":21668,"transfer_cost":0.0,"port_name":"Oakland","position":{"lat":37.804363,"lng":-122.271111},"status":"surplus"},{"frame_index":876,"name":"ports_10","capacity":10000,"empty":1076,"full":405,"on_shipper":5,"on_consignee":0,"shortage":0,"acc_shortage":314,"booking":3,"acc_booking":11137,"fulfillment":3,"acc_fulfillment":10823,"transfer_cost":0.0,"port_name":"Prince Rupert","position":{"lat":54.312519,"lng":-130.305405},"status":"surplus"},{"frame_index":876,"name":"ports_11","capacity":10000,"empty":308,"full":1914,"on_shipper":22,"on_consignee":499,"shortage":0,"acc_shortage":204,"booking":13,"acc_booking":43004,"fulfillment":13,"acc_fulfillment":42800,"transfer_cost":0.0,"port_name":"Pusan","position":{"lat":35.166668,"lng":129.066666},"status":"surplus"},{"frame_index":876,"name":"ports_12","capacity":10000,"empty":226,"full":3220,"on_shipper":29,"on_consignee":0,"shortage":0,"acc_shortage":0,"booking":19,"acc_booking":57483,"fulfillment":19,"acc_fulfillment":57483,"transfer_cost":0.0,"port_name":"Qingdao","position":{"lat":36.066898,"lng":120.382698},"status":"surplus"},{"frame_index":876,"name":"ports_13","capacity":10000,"empty":222,"full":301,"on_shipper":4,"on_consignee":0,"shortage":0,"acc_shortage":449,"booking":2,"acc_booking":7525,"fulfillment":2,"acc_fulfillment":7076,"transfer_cost":0.0,"port_name":"San Antonio","position":{"lat":29.424349,"lng":-98.491142},"status":"surplus"},{"frame_index":876,"name":"ports_14","capacity":10000,"empty":70,"full":543,"on_shipper":4,"on_consignee":0,"shortage":0,"acc_shortage":819,"booking":2,"acc_booking":7580,"fulfillment":2,"acc_fulfillment":6761,"transfer_cost":0.0,"port_name":"Santos","position":{"lat":-23.96083,"lng":-46.33361},"status":"surplus"},{"frame_index":876,"name":"ports_15","capacity":10000,"empty":936,"full":1563,"on_shipper":31,"on_consignee":0,"shortage":0,"acc_shortage":0,"booking":15,"acc_booking":50224,"fulfillment":15,"acc_fulfillment":50224,"transfer_cost":0.0,"port_name":"Seattle","position":{"lat":47.608013,"lng":-122.335167},"status":"surplus"},{"frame_index":876,"name":"ports_16","capacity":10000,"empty":284,"full":3564,"on_shipper":48,"on_consignee":0,"shortage":0,"acc_shortage":817,"booking":22,"acc_booking":71498,"fulfillment":22,"acc_fulfillment":70681,"transfer_cost":0.0,"port_name":"Shanghai","position":{"lat":31.224361,"lng":121.46917},"status":"surplus"},{"frame_index":876,"name":"ports_17","capacity":10000,"empty":1764,"full":986,"on_shipper":16,"on_consignee":33,"shortage":0,"acc_shortage":283,"booking":9,"acc_booking":28908,"fulfillment":9,"acc_fulfillment":28625,"transfer_cost":16.0,"port_name":"Singapore","position":{"lat":1.29027,"lng":103.851959},"status":"surplus"},{"frame_index":876,"name":"ports_18","capacity":10000,"empty":582,"full":395,"on_shipper":4,"on_consignee":0,"shortage":0,"acc_shortage":1374,"booking":4,"acc_booking":11111,"fulfillment":4,"acc_fulfillment":9737,"transfer_cost":0.0,"port_name":"Sydney","position":{"lat":-33.865143,"lng":151.2099},"status":"surplus"},{"frame_index":876,"name":"ports_19","capacity":10000,"empty":1133,"full":287,"on_shipper":6,"on_consignee":0,"shortage":0,"acc_shortage":0,"booking":5,"acc_booking":14700,"fulfillment":5,"acc_fulfillment":14700,"transfer_cost":0.0,"port_name":"Vancouver","position":{"lat":49.246292,"lng":-123.116226},"status":"surplus"},{"frame_index":876,"name":"ports_20","capacity":10000,"empty":134,"full":1837,"on_shipper":22,"on_consignee":0,"shortage":0,"acc_shortage":1265,"booking":15,"acc_booking":49942,"fulfillment":15,"acc_fulfillment":48677,"transfer_cost":0.0,"port_name":"Yantian","position":{"lat":26.8533,"lng":119.8575},"status":"surplus"},{"frame_index":876,"name":"ports_21","capacity":10000,"empty":592,"full":54,"on_shipper":0,"on_consignee":318,"shortage":5,"acc_shortage":7235,"booking":5,"acc_booking":47711,"fulfillment":0,"acc_fulfillment":40476,"transfer_cost":592.0,"port_name":"Yokohama","position":{"lat":35.443707,"lng":139.638031},"status":"surplus"}]