[{"frame_index":1031,"name":"ports_0","capacity":10000,"empty":5574,"full":535,"on_shipper":74,"on_consignee":0,"shortage":0,"acc_shortage":861,"booking":45,"acc_booking":131031,"fulfillment":45,"acc_fulfillment":130170,"transfer_cost":0.0,"port_name":"Bremerhaven","position":{"lat":53.549999,"lng":8.583333},"status":"surplus"},{"frame_index":1031,"name":"ports_1","capacity":10000,"empty":241,"full":51,"on_shipper":6,"on_consignee":316,"shortage":0,"acc_shortage":113,"booking":3,"acc_booking":8716,"fulfillment":3,"acc_fulfillment":8603,"transfer_cost":5.0,"port_name":"Durban","position":{"lat":-29.8579,"lng":31.0292},"status":"surplus"},{"frame_index":1031,"name":"ports_2","capacity":10000,"empty":227,"full":406,"on_shipper":3,"on_consignee":0,"shortage":0,"acc_shortage":298,"booking":3,"acc_booking":8685,"fulfillment":3,"acc_fulfillment":8387,"transfer_cost":0.0,"port_name":"Itagual","position":{"lat":-22.85222,"lng":-43.77528},"status":"surplus"},{"frame_index":1031,"name":"ports_3","capacity":10000,"empty":6345,"full":458,"on_shipper":22,"on_consignee":0,"shortage":0,"acc_shortage":0,"booking":15,"acc_booking":49602,"fulfillment":15,"acc_fulfillment":49602,"transfer_cost":0.0,"port_name":"LeHavre","position":{"lat":49.490002,"lng":0.1},"status":"surplus"},{"frame_index":1031,"name":"ports_4","capacity":10000,"empty":2659,"full":348,"on_shipper":22,"on_consignee":0,"shortage":0,"acc_shortage":290,"booking":13,"acc_booking":41540,"fulfillment":13,"acc_fulfillment":41250,"transfer_cost":0.0,"port_name":"Los Angeles","position":{"lat":34.052235,"lng":-118.243683},"status":"surplus"},{"frame_index":1031,"name":"ports_5","capacity":10000,"empty":2003,"full":160,"on_shipper":20,"on_consignee":0,"shortage":0,"acc_shortage":194,"booking":11,"acc_booking":41556,"fulfillment":11,"acc_fulfillment":41362,"transfer_cost":0.0,"port_name":"Manzanillo","position":{"lat":19.11695,"lng":-104.34214},"status":"surplus"},{"frame_index":1031,"name":"ports_6","capacity":10000,"empty":313,"full":173,"on_shipper":4,"on_consignee":0,"shortage":0,"acc_shortage":2108,"booking":4,"acc_booking":12793,"fulfillment":4,"acc_fulfillment":10685,"transfer_cost":0.0,"port_name":"Melbourne","position":{"lat":-37.840935,"lng":144.946457},"status":"surplus"},{"frame_index":1031,"name":"ports_7","capacity":10000,"empty":1681,"full":50,"on_shipper":7,"on_consignee":0,"shortage":0,"acc_shortage":0,"booking":4,"acc_booking":12800,"fulfillment":4,"acc_fulfillment":12800,"transfer_cost":0.0,"port_name":"Montreal","position":{"lat":45.516136,"lng":-73.65683},"status":"surplus"},{"frame_index":1031,"name":"ports_8","capacity":10000,"empty":5327,"full":94,"on_shipper":8,"on_consignee":0,"shortage":0,"acc_shortage":136,"booking":8,"acc_booking":25008,"fulfillment":8,"acc_fulfillment":24872,"transfer_cost":0.0,"port_name":"New York","position":{"lat":40.73061,"lng":-73.935242},"status":"surplus"},{"frame_index":1031,"name":"ports_9","capacity":10000,"empty":1683,"full":145,"on_shipper":18,"on_consignee":0,"shortage":0,"acc_shortage":45,"booking":8,"acc_booking":25039,"fulfillment":8,"acc_fulfillment":24994,"transfer_cost":0.0,"port_name":"Oakland","position":{"lat":37.804363,"lng":-122.271111},"status":"surplus"},{"frame_index":1031,"name":"ports_10","capacity":10000,"empty":1515,"full":101,"on_shipper":7,"on_consignee":0,"shortage":0,"acc_shortage":314,"booking":5,"acc_booking":12810,"fulfillment":5,"acc_fulfillment":12496,"transfer_cost":0.0,"port_name":"Prince Rupert","position":{"lat":54.312519,"lng":-130.305405},"status":"surplus"},{"frame_index":1031,"name":"ports_11","capacity":10000,"empty":2630,"full":1200,"on_shipper":33,"on_consignee":0,"shortage":0,"acc_shortage":204,"booking":15,"acc_booking":49550,"fulfillment":15,"acc_fulfillment":49346,"transfer_cost":0.0,"port_name":"Pusan","position":{"lat":35.166668,"lng":129.066666},"status":"surplus"},{"frame_index":1031,"name":"ports_12","capacity":10000,"empty":4605,"full":1811,"on_shipper":26,"on_consignee":0,"shortage":0,"acc_shortage":0,"booking":17,"acc_booking":66256,"fulfillment":17,"acc_fulfillment":66256,"transfer_cost":0.0,"port_name":"Qingdao","position":{"lat":36.066898,"lng":120.382698},"status":"surplus"},{"frame_index":1031,"name":"ports_13","capacity":10000,"empty":246,"full":113,"on_shipper":5,"on_consignee":0,"shortage":0,"acc_shortage":459,"booking":3,"acc_booking":8686,"fulfillment":3,"acc_fulfillment":8227,"transfer_cost":0.0,"port_name":"San Antonio","position":{"lat":29.424349,"lng":-98.491142},"status":"surplus"},{"frame_index":1031,"name":"ports_14","capacity":10000,"empty":5,"full":237,"on_shipper":5,"on_consignee":0,"shortage":0,"acc_shortage":876,"booking":3,"acc_booking":8737,"fulfillment":3,"acc_fulfillment":7861,"transfer_cost":0.0,"port_name":"Santos","position":{"lat":-23.96083,"lng":-46.33361},"status":"balance"},{"frame_index":1031,"name":"ports_15","capacity":10000,"empty":2938,"full":209,"on_shipper":27,"on_consignee":737,"shortage":0,"acc_shortage":1489,"booking":17,"acc_booking":57843,"fulfillment":17,"acc_fulfillment":56354,"transfer_cost":0.0,"port_name":"Seattle","position":{"lat":47.608013,"lng":-122.335167},"status":"surplus"},{"frame_index":1031,"name":"ports_16","capacity":10000,"empty":3118,"full":1290,"on_shipper":42,"on_consignee":0,"shortage":0,"acc_shortage":817,"booking":23,"acc_booking":82533,"fulfillment":23,"acc_fulfillment":81716,"transfer_cost":0.0,"port_name":"Shanghai","position":{"lat":31.224361,"lng":121.46917},"status":"surplus"},{"frame_index":1031,"name":"ports_17","capacity":10000,"empty":930,"full":363,"on_shipper":16,"on_consignee":2,"shortage":0,"acc_shortage":619,"booking":10,"acc_booking":33314,"fulfillment":10,"acc_fulfillment":32695,"transfer_cost":48.0,"port_name":"Singapore","position":{"lat":1.29027,"lng":103.851959},"status":"surplus"},{"frame_index":1031,"name":"ports_18","capacity":10000,"empty":907,"full":70,"on_shipper":7,"on_consignee":0,"shortage":0,"acc_shortage":1374,"booking":4,"acc_booking":12802,"fulfillment":4,"acc_fulfillment":11428,"transfer_cost":0.0,"port_name":"Sydney","position":{"lat":-33.865143,"lng":151.2099},"status":"surplus"},{"frame_index":1031,"name":"ports_19","capacity":10000,"empty":1622,"full":84,"on_shipper":9,"on_consignee":0,"shortage":0,"acc_shortage":0,"booking":5,"acc_booking":16937,"fulfillment":5,"acc_fulfillment":16937,"transfer_cost":0.0,"port_name":"Vancouver","position":{"lat":49.246292,"lng":-123.116226},"status":"surplus"},{"frame_index":1031,"name":"ports_20","capacity":10000,"empty":869,"full":908,"on_shipper":26,"on_consignee":0,"shortage":0,"acc_shortage":1425,"booking":18,"acc_booking":57558,"fulfillment":18,"acc_fulfillment":56133,"transfer_cost":0.0,"port_name":"Yantian","position":{"lat":26.8533,"lng":119.8575},"status":"surplus"},{"frame_index":1031,"name":"ports_21","capacity":10000,"empty":712,"full":364,"on_shipper":19,"on_consignee":0,"shortage":0,"acc_shortage":7747,"booking":7,"acc_booking":54690,"fulfillment":7,"acc_fulfillment":46943,"transfer_cost":0.0,"port_name":"Yokohama","position":{"lat":35.443707,"lng":139.638031},"status":"surplus"}]