[{"frame_index":700,"name":"ports_0","capacity":10000,"empty":4044,"full":616,"on_shipper":260,"on_consignee":1968,"shortage":0,"acc_shortage":522,"booking":136,"acc_booking":88145,"fulfillment":136,"acc_fulfillment":87623,"transfer_cost":1590.0,"port_name":"Bremerhaven","position":{"lat":53.549999,"lng":8.583333},"status":"surplus"},{"frame_index":700,"name":"ports_1","capacity":10000,"empty":364,"full":98,"on_shipper":14,"on_consignee":0,"shortage":0,"acc_shortage":0,"booking":9,"acc_booking":5859,"fulfillment":9,"acc_fulfillment":5859,"transfer_cost":0.0,"port_name":"Durban","position":{"lat":-29.8579,"lng":31.0292},"status":"surplus"},{"frame_index":700,"name":"ports_2","capacity":10000,"empty":287,"full":234,"on_shipper":14,"on_consignee":0,"shortage":0,"acc_shortage":298,"booking":9,"acc_booking":5841,"fulfillment":9,"acc_fulfillment":5543,"transfer_cost":0.0,"port_name":"Itagual","position":{"lat":-22.85222,"lng":-43.77528},"status":"surplus"},{"frame_index":700,"name":"ports_3","capacity":10000,"empty":2336,"full":841,"on_shipper":82,"on_consignee":0,"shortage":0,"acc_shortage":0,"booking":56,"acc_booking":33341,"fulfillment":56,"acc_fulfillment":33341,"transfer_cost":0.0,"port_name":"LeHavre","position":{"lat":49.490002,"lng":0.1},"status":"surplus"},{"frame_index":700,"name":"ports_4","capacity":10000,"empty":461,"full":623,"on_shipper":77,"on_consignee":0,"shortage":0,"acc_shortage":150,"booking":46,"acc_booking":27903,"fulfillment":46,"acc_fulfillment":27753,"transfer_cost":0.0,"port_name":"Los Angeles","position":{"lat":34.052235,"lng":-118.243683},"status":"surplus"},{"frame_index":700,"name":"ports_5","capacity":10000,"empty":2926,"full":168,"on_shipper":78,"on_consignee":0,"shortage":0,"acc_shortage":123,"booking":42,"acc_booking":27971,"fulfillment":42,"acc_fulfillment":27848,"transfer_cost":0.0,"port_name":"Manzanillo","position":{"lat":19.11695,"lng":-104.34214},"status":"surplus"},{"frame_index":700,"name":"ports_6","capacity":10000,"empty":596,"full":39,"on_shipper":14,"on_consignee":0,"shortage":0,"acc_shortage":1336,"booking":14,"acc_booking":8593,"fulfillment":14,"acc_fulfillment":7257,"transfer_cost":0.0,"port_name":"Melbourne","position":{"lat":-37.840935,"lng":144.946457},"status":"surplus"},{"frame_index":700,"name":"ports_7","capacity":10000,"empty":574,"full":190,"on_shipper":23,"on_consignee":0,"shortage":0,"acc_shortage":0,"booking":14,"acc_booking":8599,"fulfillment":14,"acc_fulfillment":8599,"transfer_cost":0.0,"port_name":"Montreal","position":{"lat":45.516136,"lng":-73.65683},"status":"surplus"},{"frame_index":700,"name":"ports_8","capacity":10000,"empty":4496,"full":445,"on_shipper":55,"on_consignee":0,"shortage":0,"acc_shortage":0,"booking":26,"acc_booking":16797,"fulfillment":26,"acc_fulfillment":16797,"transfer_cost":0.0,"port_name":"New York","position":{"lat":40.73061,"lng":-73.935242},"status":"surplus"},{"frame_index":700,"name":"ports_9","capacity":10000,"empty":1647,"full":90,"on_shipper":56,"on_consignee":0,"shortage":0,"acc_shortage":45,"booking":23,"acc_booking":16861,"fulfillment":23,"acc_fulfillment":16816,"transfer_cost":0.0,"port_name":"Oakland","position":{"lat":37.804363,"lng":-122.271111},"status":"surplus"},{"frame_index":700,"name":"ports_10","capacity":10000,"empty":1799,"full":32,"on_shipper":14,"on_consignee":0,"shortage":0,"acc_shortage":314,"booking":12,"acc_booking":8612,"fulfillment":12,"acc_fulfillment":8298,"transfer_cost":0.0,"port_name":"Prince Rupert","position":{"lat":54.312519,"lng":-130.305405},"status":"surplus"},{"frame_index":700,"name":"ports_11","capacity":10000,"empty":3505,"full":1360,"on_shipper":99,"on_consignee":0,"shortage":0,"acc_shortage":204,"booking":54,"acc_booking":33305,"fulfillment":54,"acc_fulfillment":33101,"transfer_cost":0.0,"port_name":"Pusan","position":{"lat":35.166668,"lng":129.066666},"status":"surplus"},{"frame_index":700,"name":"ports_12","capacity":10000,"empty":1133,"full":2034,"on_shipper":109,"on_consignee":0,"shortage":0,"acc_shortage":0,"booking":69,"acc_booking":44437,"fulfillment":69,"acc_fulfillment":44437,"transfer_cost":0.0,"port_name":"Qingdao","position":{"lat":36.066898,"lng":120.382698},"status":"surplus"},{"frame_index":700,"name":"ports_13","capacity":10000,"empty":402,"full":134,"on_shipper":9,"on_consignee":0,"shortage":0,"acc_shortage":325,"booking":9,"acc_booking":5844,"fulfillment":9,"acc_fulfillment":5519,"transfer_cost":0.0,"port_name":"San Antonio","position":{"lat":29.424349,"lng":-98.491142},"status":"surplus"},{"frame_index":700,"name":"ports_14","capacity":10000,"empty":432,"full":134,"on_shipper":12,"on_consignee":0,"shortage":0,"acc_shortage":762,"booking":9,"acc_booking":5882,"fulfillment":9,"acc_fulfillment":5120,"transfer_cost":0.0,"port_name":"Santos","position":{"lat":-23.96083,"lng":-46.33361},"status":"surplus"},{"frame_index":700,"name":"ports_15","capacity":10000,"empty":3634,"full":518,"on_shipper":131,"on_consignee":0,"shortage":0,"acc_shortage":0,"booking":65,"acc_booking":38850,"fulfillment":65,"acc_fulfillment":38850,"transfer_cost":0.0,"port_name":"Seattle","position":{"lat":47.608013,"lng":-122.335167},"status":"surplus"},{"frame_index":700,"name":"ports_16","capacity":10000,"empty":2293,"full":1268,"on_shipper":147,"on_consignee":0,"shortage":0,"acc_shortage":712,"booking":93,"acc_booking":55316,"fulfillment":93,"acc_fulfillment":54604,"transfer_cost":0.0,"port_name":"Shanghai","position":{"lat":31.224361,"lng":121.46917},"status":"surplus"},{"frame_index":700,"name":"ports_17","capacity":10000,"empty":3332,"full":155,"on_shipper":54,"on_consignee":0,"shortage":0,"acc_shortage":283,"booking":38,"acc_booking":22401,"fulfillment":38,"acc_fulfillment":22118,"transfer_cost":0.0,"port_name":"Singapore","position":{"lat":1.29027,"lng":103.851959},"status":"surplus"},{"frame_index":700,"name":"ports_18","capacity":10000,"empty":255,"full":216,"on_shipper":20,"on_consignee":0,"shortage":0,"acc_shortage":1082,"booking":14,"acc_booking":8570,"fulfillment":14,"acc_fulfillment":7488,"transfer_cost":0.0,"port_name":"Sydney","position":{"lat":-33.865143,"lng":151.2099},"status":"surplus"},{"frame_index":700,"name":"ports_19","capacity":10000,"empty":510,"full":615,"on_shipper":27,"on_consignee":0,"shortage":0,"acc_shortage":0,"booking":18,"acc_booking":11411,"fulfillment":18,"acc_fulfillment":11411,"transfer_cost":0.0,"port_name":"Vancouver","position":{"lat":49.246292,"lng":-123.116226},"status":"surplus"},{"frame_index":700,"name":"ports_20","capacity":10000,"empty":707,"full":937,"on_shipper":90,"on_consignee":42,"shortage":0,"acc_shortage":395,"booking":69,"acc_booking":38616,"fulfillment":69,"acc_fulfillment":38221,"transfer_cost":0.0,"port_name":"Yantian","position":{"lat":26.8533,"lng":119.8575},"status":"surplus"},{"frame_index":700,"name":"ports_21","capacity":10000,"empty":852,"full":538,"on_shipper":94,"on_consignee":0,"shortage":0,"acc_shortage":4175,"booking":60,"acc_booking":36678,"fulfillment":60,"acc_fulfillment":32503,"transfer_cost":0.0,"port_name":"Yokohama","position":{"lat":35.443707,"lng":139.638031},"status":"surplus"}]