[{"frame_index":1097,"name":"ports_0","capacity":10000,"empty":0,"full":4034,"on_shipper":0,"on_consignee":0,"shortage":116,"acc_shortage":2480,"booking":116,"acc_booking":142465,"fulfillment":0,"acc_fulfillment":139985,"transfer_cost":0.0,"port_name":"Bremerhaven","position":{"lat":53.549999,"lng":8.583333},"status":"demand"},{"frame_index":1097,"name":"ports_1","capacity":10000,"empty":329,"full":205,"on_shipper":18,"on_consignee":0,"shortage":0,"acc_shortage":113,"booking":8,"acc_booking":9464,"fulfillment":8,"acc_fulfillment":9351,"transfer_cost":0.0,"port_name":"Durban","position":{"lat":-29.8579,"lng":31.0292},"status":"surplus"},{"frame_index":1097,"name":"ports_2","capacity":10000,"empty":730,"full":380,"on_shipper":10,"on_consignee":0,"shortage":0,"acc_shortage":298,"booking":8,"acc_booking":9427,"fulfillment":8,"acc_fulfillment":9129,"transfer_cost":0.0,"port_name":"Itagual","position":{"lat":-22.85222,"lng":-43.77528},"status":"surplus"},{"frame_index":1097,"name":"ports_3","capacity":10000,"empty":3281,"full":2019,"on_shipper":90,"on_consignee":233,"shortage":0,"acc_shortage":0,"booking":46,"acc_booking":53869,"fulfillment":46,"acc_fulfillment":53869,"transfer_cost":1.0,"port_name":"LeHavre","position":{"lat":49.490002,"lng":0.1},"status":"surplus"},{"frame_index":1097,"name":"ports_4","capacity":10000,"empty":1869,"full":277,"on_shipper":79,"on_consignee":0,"shortage":0,"acc_shortage":290,"booking":39,"acc_booking":45116,"fulfillment":39,"acc_fulfillment":44826,"transfer_cost":0.0,"port_name":"Los Angeles","position":{"lat":34.052235,"lng":-118.243683},"status":"surplus"},{"frame_index":1097,"name":"ports_5","capacity":10000,"empty":291,"full":639,"on_shipper":55,"on_consignee":173,"shortage":0,"acc_shortage":194,"booking":35,"acc_booking":45192,"fulfillment":35,"acc_fulfillment":44998,"transfer_cost":291.0,"port_name":"Manzanillo","position":{"lat":19.11695,"lng":-104.34214},"status":"surplus"},{"frame_index":1097,"name":"ports_6","capacity":10000,"empty":0,"full":608,"on_shipper":0,"on_consignee":0,"shortage":12,"acc_shortage":2361,"booking":12,"acc_booking":13889,"fulfillment":0,"acc_fulfillment":11528,"transfer_cost":0.0,"port_name":"Melbourne","position":{"lat":-37.840935,"lng":144.946457},"status":"demand"},{"frame_index":1097,"name":"ports_7","capacity":10000,"empty":1348,"full":124,"on_shipper":27,"on_consignee":0,"shortage":0,"acc_shortage":0,"booking":12,"acc_booking":13889,"fulfillment":12,"acc_fulfillment":13889,"transfer_cost":0.0,"port_name":"Montreal","position":{"lat":45.516136,"lng":-73.65683},"status":"surplus"},{"frame_index":1097,"name":"ports_8","capacity":10000,"empty":4092,"full":260,"on_shipper":53,"on_consignee":0,"shortage":0,"acc_shortage":136,"booking":25,"acc_booking":27168,"fulfillment":25,"acc_fulfillment":27032,"transfer_cost":0.0,"port_name":"New York","position":{"lat":40.73061,"lng":-73.935242},"status":"surplus"},{"frame_index":1097,"name":"ports_9","capacity":10000,"empty":853,"full":1359,"on_shipper":26,"on_consignee":0,"shortage":0,"acc_shortage":45,"booking":20,"acc_booking":27221,"fulfillment":20,"acc_fulfillment":27176,"transfer_cost":0.0,"port_name":"Oakland","position":{"lat":37.804363,"lng":-122.271111},"status":"surplus"},{"frame_index":1097,"name":"ports_10","capacity":10000,"empty":1254,"full":427,"on_shipper":18,"on_consignee":0,"shortage":0,"acc_shortage":314,"booking":10,"acc_booking":13874,"fulfillment":10,"acc_fulfillment":13560,"transfer_cost":0.0,"port_name":"Prince Rupert","position":{"lat":54.312519,"lng":-130.305405},"status":"surplus"},{"frame_index":1097,"name":"ports_11","capacity":10000,"empty":1640,"full":998,"on_shipper":81,"on_consignee":32,"shortage":0,"acc_shortage":204,"booking":46,"acc_booking":53836,"fulfillment":46,"acc_fulfillment":53632,"transfer_cost":0.0,"port_name":"Pusan","position":{"lat":35.166668,"lng":129.066666},"status":"surplus"},{"frame_index":1097,"name":"ports_12","capacity":10000,"empty":2001,"full":1908,"on_shipper":111,"on_consignee":0,"shortage":0,"acc_shortage":0,"booking":65,"acc_booking":71877,"fulfillment":65,"acc_fulfillment":71877,"transfer_cost":0.0,"port_name":"Qingdao","position":{"lat":36.066898,"lng":120.382698},"status":"surplus"},{"frame_index":1097,"name":"ports_13","capacity":10000,"empty":183,"full":358,"on_shipper":14,"on_consignee":0,"shortage":0,"acc_shortage":459,"booking":8,"acc_booking":9427,"fulfillment":8,"acc_fulfillment":8968,"transfer_cost":0.0,"port_name":"San Antonio","position":{"lat":29.424349,"lng":-98.491142},"status":"surplus"},{"frame_index":1097,"name":"ports_14","capacity":10000,"empty":141,"full":163,"on_shipper":18,"on_consignee":0,"shortage":0,"acc_shortage":1294,"booking":10,"acc_booking":9484,"fulfillment":10,"acc_fulfillment":8190,"transfer_cost":0.0,"port_name":"Santos","position":{"lat":-23.96083,"lng":-46.33361},"status":"surplus"},{"frame_index":1097,"name":"ports_15","capacity":10000,"empty":0,"full":3323,"on_shipper":0,"on_consignee":0,"shortage":56,"acc_shortage":1955,"booking":56,"acc_booking":62821,"fulfillment":0,"acc_fulfillment":60866,"transfer_cost":0.0,"port_name":"Seattle","position":{"lat":47.608013,"lng":-122.335167},"status":"demand"},{"frame_index":1097,"name":"ports_16","capacity":10000,"empty":1753,"full":1954,"on_shipper":130,"on_consignee":2,"shortage":0,"acc_shortage":817,"booking":91,"acc_booking":89586,"fulfillment":91,"acc_fulfillment":88769,"transfer_cost":0.0,"port_name":"Shanghai","position":{"lat":31.224361,"lng":121.46917},"status":"surplus"},{"frame_index":1097,"name":"ports_17","capacity":10000,"empty":877,"full":1223,"on_shipper":47,"on_consignee":0,"shortage":0,"acc_shortage":619,"booking":32,"acc_booking":36173,"fulfillment":32,"acc_fulfillment":35554,"transfer_cost":0.0,"port_name":"Singapore","position":{"lat":1.29027,"lng":103.851959},"status":"surplus"},{"frame_index":1097,"name":"ports_18","capacity":10000,"empty":480,"full":75,"on_shipper":17,"on_consignee":0,"shortage":0,"acc_shortage":1374,"booking":11,"acc_booking":13878,"fulfillment":11,"acc_fulfillment":12504,"transfer_cost":0.0,"port_name":"Sydney","position":{"lat":-33.865143,"lng":151.2099},"status":"surplus"},{"frame_index":1097,"name":"ports_19","capacity":10000,"empty":520,"full":951,"on_shipper":25,"on_consignee":0,"shortage":0,"acc_shortage":0,"booking":16,"acc_booking":18390,"fulfillment":16,"acc_fulfillment":18390,"transfer_cost":0.0,"port_name":"Vancouver","position":{"lat":49.246292,"lng":-123.116226},"status":"surplus"},{"frame_index":1097,"name":"ports_20","capacity":10000,"empty":143,"full":1557,"on_shipper":123,"on_consignee":324,"shortage":0,"acc_shortage":2447,"booking":60,"acc_booking":62637,"fulfillment":60,"acc_fulfillment":60190,"transfer_cost":0.0,"port_name":"Yantian","position":{"lat":26.8533,"lng":119.8575},"status":"demand"},{"frame_index":1097,"name":"ports_21","capacity":10000,"empty":836,"full":1117,"on_shipper":99,"on_consignee":0,"shortage":0,"acc_shortage":10285,"booking":50,"acc_booking":59676,"fulfillment":50,"acc_fulfillment":49391,"transfer_cost":0.0,"port_name":"Yokohama","position":{"lat":35.443707,"lng":139.638031},"status":"surplus"}]