[{"frame_index":510,"name":"ports_0","capacity":10000,"empty":1180,"full":3062,"on_shipper":243,"on_consignee":0,"shortage":0,"acc_shortage":522,"booking":197,"acc_booking":65599,"fulfillment":197,"acc_fulfillment":65077,"transfer_cost":0.0,"port_name":"Bremerhaven","position":{"lat":53.549999,"lng":8.583333},"status":"surplus"},{"frame_index":510,"name":"ports_1","capacity":10000,"empty":386,"full":35,"on_shipper":14,"on_consignee":0,"shortage":0,"acc_shortage":0,"booking":12,"acc_booking":4377,"fulfillment":12,"acc_fulfillment":4377,"transfer_cost":0.0,"port_name":"Durban","position":{"lat":-29.8579,"lng":31.0292},"status":"surplus"},{"frame_index":510,"name":"ports_2","capacity":10000,"empty":830,"full":179,"on_shipper":18,"on_consignee":0,"shortage":0,"acc_shortage":233,"booking":12,"acc_booking":4345,"fulfillment":12,"acc_fulfillment":4112,"transfer_cost":0.0,"port_name":"Itagual","position":{"lat":-22.85222,"lng":-43.77528},"status":"surplus"},{"frame_index":510,"name":"ports_3","capacity":10000,"empty":1737,"full":897,"on_shipper":95,"on_consignee":0,"shortage":0,"acc_shortage":0,"booking":64,"acc_booking":24853,"fulfillment":64,"acc_fulfillment":24853,"transfer_cost":0.0,"port_name":"LeHavre","position":{"lat":49.490002,"lng":0.1},"status":"surplus"},{"frame_index":510,"name":"ports_4","capacity":10000,"empty":1466,"full":2133,"on_shipper":54,"on_consignee":0,"shortage":0,"acc_shortage":0,"booking":54,"acc_booking":20776,"fulfillment":54,"acc_fulfillment":20776,"transfer_cost":0.0,"port_name":"Los Angeles","position":{"lat":34.052235,"lng":-118.243683},"status":"surplus"},{"frame_index":510,"name":"ports_5","capacity":10000,"empty":1411,"full":746,"on_shipper":86,"on_consignee":0,"shortage":0,"acc_shortage":123,"booking":47,"acc_booking":20858,"fulfillment":47,"acc_fulfillment":20735,"transfer_cost":0.0,"port_name":"Manzanillo","position":{"lat":19.11695,"lng":-104.34214},"status":"surplus"},{"frame_index":510,"name":"ports_6","capacity":10000,"empty":114,"full":277,"on_shipper":29,"on_consignee":0,"shortage":0,"acc_shortage":837,"booking":17,"acc_booking":6397,"fulfillment":17,"acc_fulfillment":5560,"transfer_cost":0.0,"port_name":"Melbourne","position":{"lat":-37.840935,"lng":144.946457},"status":"balance"},{"frame_index":510,"name":"ports_7","capacity":10000,"empty":1739,"full":487,"on_shipper":24,"on_consignee":0,"shortage":0,"acc_shortage":0,"booking":17,"acc_booking":6399,"fulfillment":17,"acc_fulfillment":6399,"transfer_cost":0.0,"port_name":"Montreal","position":{"lat":45.516136,"lng":-73.65683},"status":"surplus"},{"frame_index":510,"name":"ports_8","capacity":10000,"empty":885,"full":429,"on_shipper":32,"on_consignee":0,"shortage":0,"acc_shortage":0,"booking":32,"acc_booking":12505,"fulfillment":32,"acc_fulfillment":12505,"transfer_cost":0.0,"port_name":"New York","position":{"lat":40.73061,"lng":-73.935242},"status":"surplus"},{"frame_index":510,"name":"ports_9","capacity":10000,"empty":1049,"full":755,"on_shipper":35,"on_consignee":0,"shortage":0,"acc_shortage":45,"booking":28,"acc_booking":12507,"fulfillment":28,"acc_fulfillment":12462,"transfer_cost":0.0,"port_name":"Oakland","position":{"lat":37.804363,"lng":-122.271111},"status":"surplus"},{"frame_index":510,"name":"ports_10","capacity":10000,"empty":1113,"full":33,"on_shipper":27,"on_consignee":0,"shortage":0,"acc_shortage":314,"booking":17,"acc_booking":6411,"fulfillment":17,"acc_fulfillment":6097,"transfer_cost":0.0,"port_name":"Prince Rupert","position":{"lat":54.312519,"lng":-130.305405},"status":"surplus"},{"frame_index":510,"name":"ports_11","capacity":10000,"empty":1762,"full":2120,"on_shipper":88,"on_consignee":0,"shortage":0,"acc_shortage":204,"booking":67,"acc_booking":24787,"fulfillment":67,"acc_fulfillment":24583,"transfer_cost":0.0,"port_name":"Pusan","position":{"lat":35.166668,"lng":129.066666},"status":"surplus"},{"frame_index":510,"name":"ports_12","capacity":10000,"empty":3835,"full":2072,"on_shipper":163,"on_consignee":0,"shortage":0,"acc_shortage":0,"booking":87,"acc_booking":33133,"fulfillment":87,"acc_fulfillment":33133,"transfer_cost":0.0,"port_name":"Qingdao","position":{"lat":36.066898,"lng":120.382698},"status":"surplus"},{"frame_index":510,"name":"ports_13","capacity":10000,"empty":486,"full":50,"on_shipper":16,"on_consignee":0,"shortage":0,"acc_shortage":286,"booking":12,"acc_booking":4341,"fulfillment":12,"acc_fulfillment":4055,"transfer_cost":0.0,"port_name":"San Antonio","position":{"lat":29.424349,"lng":-98.491142},"status":"surplus"},{"frame_index":510,"name":"ports_14","capacity":10000,"empty":553,"full":38,"on_shipper":22,"on_consignee":0,"shortage":0,"acc_shortage":762,"booking":12,"acc_booking":4381,"fulfillment":12,"acc_fulfillment":3619,"transfer_cost":0.0,"port_name":"Santos","position":{"lat":-23.96083,"lng":-46.33361},"status":"surplus"},{"frame_index":510,"name":"ports_15","capacity":10000,"empty":3765,"full":938,"on_shipper":110,"on_consignee":0,"shortage":0,"acc_shortage":0,"booking":76,"acc_booking":28929,"fulfillment":76,"acc_fulfillment":28929,"transfer_cost":0.0,"port_name":"Seattle","position":{"lat":47.608013,"lng":-122.335167},"status":"surplus"},{"frame_index":510,"name":"ports_16","capacity":10000,"empty":678,"full":1634,"on_shipper":170,"on_consignee":0,"shortage":0,"acc_shortage":70,"booking":101,"acc_booking":41302,"fulfillment":101,"acc_fulfillment":41232,"transfer_cost":0.0,"port_name":"Shanghai","position":{"lat":31.224361,"lng":121.46917},"status":"surplus"},{"frame_index":510,"name":"ports_17","capacity":10000,"empty":1324,"full":1040,"on_shipper":66,"on_consignee":0,"shortage":0,"acc_shortage":40,"booking":44,"acc_booking":16676,"fulfillment":44,"acc_fulfillment":16636,"transfer_cost":0.0,"port_name":"Singapore","position":{"lat":1.29027,"lng":103.851959},"status":"surplus"},{"frame_index":510,"name":"ports_18","capacity":10000,"empty":95,"full":707,"on_shipper":27,"on_consignee":0,"shortage":0,"acc_shortage":774,"booking":17,"acc_booking":6369,"fulfillment":17,"acc_fulfillment":5595,"transfer_cost":0.0,"port_name":"Sydney","position":{"lat":-33.865143,"lng":151.2099},"status":"balance"},{"frame_index":510,"name":"ports_19","capacity":10000,"empty":498,"full":345,"on_shipper":35,"on_consignee":0,"shortage":0,"acc_shortage":0,"booking":22,"acc_booking":8510,"fulfillment":22,"acc_fulfillment":8510,"transfer_cost":0.0,"port_name":"Vancouver","position":{"lat":49.246292,"lng":-123.116226},"status":"surplus"},{"frame_index":510,"name":"ports_20","capacity":10000,"empty":374,"full":1854,"on_shipper":109,"on_consignee":0,"shortage":0,"acc_shortage":350,"booking":76,"acc_booking":28737,"fulfillment":76,"acc_fulfillment":28387,"transfer_cost":0.0,"port_name":"Yantian","position":{"lat":26.8533,"lng":119.8575},"status":"balance"},{"frame_index":510,"name":"ports_21","capacity":10000,"empty":422,"full":2484,"on_shipper":108,"on_consignee":0,"shortage":0,"acc_shortage":2740,"booking":77,"acc_booking":27437,"fulfillment":77,"acc_fulfillment":24697,"transfer_cost":0.0,"port_name":"Yokohama","position":{"lat":35.443707,"lng":139.638031},"status":"balance"}]