[{"frame_index":1104,"name":"ports_0","capacity":10000,"empty":0,"full":4034,"on_shipper":0,"on_consignee":0,"shortage":100,"acc_shortage":2902,"booking":100,"acc_booking":142887,"fulfillment":0,"acc_fulfillment":139985,"transfer_cost":0.0,"port_name":"Bremerhaven","position":{"lat":53.549999,"lng":8.583333},"status":"demand"},{"frame_index":1104,"name":"ports_1","capacity":10000,"empty":297,"full":246,"on_shipper":9,"on_consignee":0,"shortage":0,"acc_shortage":113,"booking":7,"acc_booking":9496,"fulfillment":7,"acc_fulfillment":9383,"transfer_cost":0.0,"port_name":"Durban","position":{"lat":-29.8579,"lng":31.0292},"status":"surplus"},{"frame_index":1104,"name":"ports_2","capacity":10000,"empty":700,"full":414,"on_shipper":6,"on_consignee":0,"shortage":0,"acc_shortage":298,"booking":6,"acc_booking":9457,"fulfillment":6,"acc_fulfillment":9159,"transfer_cost":0.0,"port_name":"Itagual","position":{"lat":-22.85222,"lng":-43.77528},"status":"surplus"},{"frame_index":1104,"name":"ports_3","capacity":10000,"empty":5410,"full":1336,"on_shipper":48,"on_consignee":0,"shortage":0,"acc_shortage":0,"booking":34,"acc_booking":54038,"fulfillment":34,"acc_fulfillment":54038,"transfer_cost":0.0,"port_name":"LeHavre","position":{"lat":49.490002,"lng":0.1},"status":"surplus"},{"frame_index":1104,"name":"ports_4","capacity":10000,"empty":794,"full":133,"on_shipper":38,"on_consignee":0,"shortage":0,"acc_shortage":290,"booking":28,"acc_booking":45257,"fulfillment":28,"acc_fulfillment":44967,"transfer_cost":0.0,"port_name":"Los Angeles","position":{"lat":34.052235,"lng":-118.243683},"status":"surplus"},{"frame_index":1104,"name":"ports_5","capacity":10000,"empty":325,"full":800,"on_shipper":33,"on_consignee":0,"shortage":0,"acc_shortage":194,"booking":26,"acc_booking":45331,"fulfillment":26,"acc_fulfillment":45137,"transfer_cost":0.0,"port_name":"Manzanillo","position":{"lat":19.11695,"lng":-104.34214},"status":"surplus"},{"frame_index":1104,"name":"ports_6","capacity":10000,"empty":246,"full":332,"on_shipper":15,"on_consignee":0,"shortage":0,"acc_shortage":2377,"booking":9,"acc_booking":13934,"fulfillment":9,"acc_fulfillment":11557,"transfer_cost":0.0,"port_name":"Melbourne","position":{"lat":-37.840935,"lng":144.946457},"status":"surplus"},{"frame_index":1104,"name":"ports_7","capacity":10000,"empty":1618,"full":5,"on_shipper":16,"on_consignee":0,"shortage":0,"acc_shortage":0,"booking":9,"acc_booking":13934,"fulfillment":9,"acc_fulfillment":13934,"transfer_cost":0.0,"port_name":"Montreal","position":{"lat":45.516136,"lng":-73.65683},"status":"surplus"},{"frame_index":1104,"name":"ports_8","capacity":10000,"empty":3334,"full":37,"on_shipper":24,"on_consignee":0,"shortage":0,"acc_shortage":136,"booking":17,"acc_booking":27254,"fulfillment":17,"acc_fulfillment":27118,"transfer_cost":0.0,"port_name":"New York","position":{"lat":40.73061,"lng":-73.935242},"status":"surplus"},{"frame_index":1104,"name":"ports_9","capacity":10000,"empty":1615,"full":19,"on_shipper":21,"on_consignee":0,"shortage":0,"acc_shortage":45,"booking":18,"acc_booking":27309,"fulfillment":18,"acc_fulfillment":27264,"transfer_cost":0.0,"port_name":"Oakland","position":{"lat":37.804363,"lng":-122.271111},"status":"surplus"},{"frame_index":1104,"name":"ports_10","capacity":10000,"empty":1644,"full":70,"on_shipper":12,"on_consignee":0,"shortage":0,"acc_shortage":314,"booking":10,"acc_booking":13919,"fulfillment":10,"acc_fulfillment":13605,"transfer_cost":0.0,"port_name":"Prince Rupert","position":{"lat":54.312519,"lng":-130.305405},"status":"surplus"},{"frame_index":1104,"name":"ports_11","capacity":10000,"empty":1506,"full":1204,"on_shipper":41,"on_consignee":0,"shortage":0,"acc_shortage":204,"booking":33,"acc_booking":54002,"fulfillment":33,"acc_fulfillment":53798,"transfer_cost":0.0,"port_name":"Pusan","position":{"lat":35.166668,"lng":129.066666},"status":"surplus"},{"frame_index":1104,"name":"ports_12","capacity":10000,"empty":2440,"full":2148,"on_shipper":52,"on_consignee":0,"shortage":0,"acc_shortage":0,"booking":43,"acc_booking":72091,"fulfillment":43,"acc_fulfillment":72091,"transfer_cost":0.0,"port_name":"Qingdao","position":{"lat":36.066898,"lng":120.382698},"status":"surplus"},{"frame_index":1104,"name":"ports_13","capacity":10000,"empty":152,"full":395,"on_shipper":8,"on_consignee":0,"shortage":0,"acc_shortage":459,"booking":6,"acc_booking":9458,"fulfillment":6,"acc_fulfillment":8999,"transfer_cost":0.0,"port_name":"San Antonio","position":{"lat":29.424349,"lng":-98.491142},"status":"surplus"},{"frame_index":1104,"name":"ports_14","capacity":10000,"empty":238,"full":168,"on_shipper":9,"on_consignee":316,"shortage":0,"acc_shortage":1294,"booking":6,"acc_booking":9514,"fulfillment":6,"acc_fulfillment":8220,"transfer_cost":0.0,"port_name":"Santos","position":{"lat":-23.96083,"lng":-46.33361},"status":"surplus"},{"frame_index":1104,"name":"ports_15","capacity":10000,"empty":532,"full":2150,"on_shipper":47,"on_consignee":0,"shortage":0,"acc_shortage":1985,"booking":39,"acc_booking":63016,"fulfillment":39,"acc_fulfillment":61031,"transfer_cost":0.0,"port_name":"Seattle","position":{"lat":47.608013,"lng":-122.335167},"status":"surplus"},{"frame_index":1104,"name":"ports_16","capacity":10000,"empty":1593,"full":969,"on_shipper":83,"on_consignee":96,"shortage":0,"acc_shortage":817,"booking":58,"acc_booking":89846,"fulfillment":58,"acc_fulfillment":89029,"transfer_cost":0.0,"port_name":"Shanghai","position":{"lat":31.224361,"lng":121.46917},"status":"surplus"},{"frame_index":1104,"name":"ports_17","capacity":10000,"empty":1119,"full":1117,"on_shipper":31,"on_consignee":0,"shortage":0,"acc_shortage":619,"booking":22,"acc_booking":36285,"fulfillment":22,"acc_fulfillment":35666,"transfer_cost":0.0,"port_name":"Singapore","position":{"lat":1.29027,"lng":103.851959},"status":"surplus"},{"frame_index":1104,"name":"ports_18","capacity":10000,"empty":434,"full":128,"on_shipper":10,"on_consignee":0,"shortage":0,"acc_shortage":1374,"booking":9,"acc_booking":13924,"fulfillment":9,"acc_fulfillment":12550,"transfer_cost":0.0,"port_name":"Sydney","position":{"lat":-33.865143,"lng":151.2099},"status":"surplus"},{"frame_index":1104,"name":"ports_19","capacity":10000,"empty":465,"full":1012,"on_shipper":19,"on_consignee":0,"shortage":0,"acc_shortage":0,"booking":10,"acc_booking":18445,"fulfillment":10,"acc_fulfillment":18445,"transfer_cost":0.0,"port_name":"Vancouver","position":{"lat":49.246292,"lng":-123.116226},"status":"surplus"},{"frame_index":1104,"name":"ports_20","capacity":10000,"empty":1035,"full":1356,"on_shipper":57,"on_consignee":117,"shortage":0,"acc_shortage":2447,"booking":39,"acc_booking":62832,"fulfillment":39,"acc_fulfillment":60385,"transfer_cost":0.0,"port_name":"Yantian","position":{"lat":26.8533,"lng":119.8575},"status":"surplus"},{"frame_index":1104,"name":"ports_21","capacity":10000,"empty":699,"full":1305,"on_shipper":48,"on_consignee":0,"shortage":0,"acc_shortage":10285,"booking":34,"acc_booking":59813,"fulfillment":34,"acc_fulfillment":49528,"transfer_cost":0.0,"port_name":"Yokohama","position":{"lat":35.443707,"lng":139.638031},"status":"surplus"}]