[{"frame_index":846,"name":"ports_0","capacity":10000,"empty":5240,"full":4787,"on_shipper":308,"on_consignee":0,"shortage":0,"acc_shortage":522,"booking":180,"acc_booking":109080,"fulfillment":180,"acc_fulfillment":108558,"transfer_cost":0.0,"port_name":"Bremerhaven","position":{"lat":53.549999,"lng":8.583333},"status":"surplus"},{"frame_index":846,"name":"ports_1","capacity":10000,"empty":161,"full":12,"on_shipper":24,"on_consignee":104,"shortage":0,"acc_shortage":10,"booking":10,"acc_booking":7254,"fulfillment":10,"acc_fulfillment":7244,"transfer_cost":0.0,"port_name":"Durban","position":{"lat":-29.8579,"lng":31.0292},"status":"surplus"},{"frame_index":846,"name":"ports_2","capacity":10000,"empty":652,"full":38,"on_shipper":18,"on_consignee":0,"shortage":0,"acc_shortage":298,"booking":11,"acc_booking":7221,"fulfillment":11,"acc_fulfillment":6923,"transfer_cost":0.0,"port_name":"Itagual","position":{"lat":-22.85222,"lng":-43.77528},"status":"surplus"},{"frame_index":846,"name":"ports_3","capacity":10000,"empty":5250,"full":562,"on_shipper":124,"on_consignee":0,"shortage":0,"acc_shortage":0,"booking":64,"acc_booking":41316,"fulfillment":64,"acc_fulfillment":41316,"transfer_cost":0.0,"port_name":"LeHavre","position":{"lat":49.490002,"lng":0.1},"status":"surplus"},{"frame_index":846,"name":"ports_4","capacity":10000,"empty":2434,"full":1109,"on_shipper":106,"on_consignee":0,"shortage":0,"acc_shortage":290,"booking":52,"acc_booking":34593,"fulfillment":52,"acc_fulfillment":34303,"transfer_cost":0.0,"port_name":"Los Angeles","position":{"lat":34.052235,"lng":-118.243683},"status":"surplus"},{"frame_index":846,"name":"ports_5","capacity":10000,"empty":2037,"full":726,"on_shipper":91,"on_consignee":0,"shortage":0,"acc_shortage":123,"booking":53,"acc_booking":34723,"fulfillment":53,"acc_fulfillment":34600,"transfer_cost":0.0,"port_name":"Manzanillo","position":{"lat":19.11695,"lng":-104.34214},"status":"surplus"},{"frame_index":846,"name":"ports_6","capacity":10000,"empty":386,"full":90,"on_shipper":30,"on_consignee":0,"shortage":0,"acc_shortage":1654,"booking":16,"acc_booking":10644,"fulfillment":16,"acc_fulfillment":8990,"transfer_cost":0.0,"port_name":"Melbourne","position":{"lat":-37.840935,"lng":144.946457},"status":"surplus"},{"frame_index":846,"name":"ports_7","capacity":10000,"empty":648,"full":0,"on_shipper":16,"on_consignee":239,"shortage":0,"acc_shortage":0,"booking":16,"acc_booking":10661,"fulfillment":16,"acc_fulfillment":10661,"transfer_cost":1.0,"port_name":"Montreal","position":{"lat":45.516136,"lng":-73.65683},"status":"surplus"},{"frame_index":846,"name":"ports_8","capacity":10000,"empty":2813,"full":911,"on_shipper":74,"on_consignee":0,"shortage":0,"acc_shortage":136,"booking":33,"acc_booking":20818,"fulfillment":33,"acc_fulfillment":20682,"transfer_cost":0.0,"port_name":"New York","position":{"lat":40.73061,"lng":-73.935242},"status":"surplus"},{"frame_index":846,"name":"ports_9","capacity":10000,"empty":1156,"full":375,"on_shipper":72,"on_consignee":0,"shortage":0,"acc_shortage":45,"booking":37,"acc_booking":20852,"fulfillment":37,"acc_fulfillment":20807,"transfer_cost":0.0,"port_name":"Oakland","position":{"lat":37.804363,"lng":-122.271111},"status":"surplus"},{"frame_index":846,"name":"ports_10","capacity":10000,"empty":763,"full":0,"on_shipper":28,"on_consignee":44,"shortage":0,"acc_shortage":314,"booking":15,"acc_booking":10688,"fulfillment":15,"acc_fulfillment":10374,"transfer_cost":76.0,"port_name":"Prince Rupert","position":{"lat":54.312519,"lng":-130.305405},"status":"surplus"},{"frame_index":846,"name":"ports_11","capacity":10000,"empty":1560,"full":1700,"on_shipper":106,"on_consignee":0,"shortage":0,"acc_shortage":204,"booking":60,"acc_booking":41269,"fulfillment":60,"acc_fulfillment":41065,"transfer_cost":0.0,"port_name":"Pusan","position":{"lat":35.166668,"lng":129.066666},"status":"surplus"},{"frame_index":846,"name":"ports_12","capacity":10000,"empty":2283,"full":3152,"on_shipper":128,"on_consignee":0,"shortage":0,"acc_shortage":0,"booking":87,"acc_booking":55138,"fulfillment":87,"acc_fulfillment":55138,"transfer_cost":0.0,"port_name":"Qingdao","position":{"lat":36.066898,"lng":120.382698},"status":"surplus"},{"frame_index":846,"name":"ports_13","capacity":10000,"empty":333,"full":0,"on_shipper":11,"on_consignee":183,"shortage":0,"acc_shortage":449,"booking":11,"acc_booking":7231,"fulfillment":11,"acc_fulfillment":6782,"transfer_cost":142.0,"port_name":"San Antonio","position":{"lat":29.424349,"lng":-98.491142},"status":"surplus"},{"frame_index":846,"name":"ports_14","capacity":10000,"empty":377,"full":226,"on_shipper":14,"on_consignee":0,"shortage":0,"acc_shortage":819,"booking":10,"acc_booking":7273,"fulfillment":10,"acc_fulfillment":6454,"transfer_cost":0.0,"port_name":"Santos","position":{"lat":-23.96083,"lng":-46.33361},"status":"surplus"},{"frame_index":846,"name":"ports_15","capacity":10000,"empty":412,"full":2329,"on_shipper":132,"on_consignee":0,"shortage":0,"acc_shortage":0,"booking":75,"acc_booking":48195,"fulfillment":75,"acc_fulfillment":48195,"transfer_cost":0.0,"port_name":"Seattle","position":{"lat":47.608013,"lng":-122.335167},"status":"balance"},{"frame_index":846,"name":"ports_16","capacity":10000,"empty":1436,"full":1970,"on_shipper":159,"on_consignee":0,"shortage":0,"acc_shortage":760,"booking":99,"acc_booking":68582,"fulfillment":99,"acc_fulfillment":67822,"transfer_cost":0.0,"port_name":"Shanghai","position":{"lat":31.224361,"lng":121.46917},"status":"surplus"},{"frame_index":846,"name":"ports_17","capacity":10000,"empty":867,"full":761,"on_shipper":69,"on_consignee":433,"shortage":0,"acc_shortage":283,"booking":41,"acc_booking":27745,"fulfillment":41,"acc_fulfillment":27462,"transfer_cost":0.0,"port_name":"Singapore","position":{"lat":1.29027,"lng":103.851959},"status":"surplus"},{"frame_index":846,"name":"ports_18","capacity":10000,"empty":614,"full":608,"on_shipper":28,"on_consignee":0,"shortage":0,"acc_shortage":1374,"booking":15,"acc_booking":10668,"fulfillment":15,"acc_fulfillment":9294,"transfer_cost":0.0,"port_name":"Sydney","position":{"lat":-33.865143,"lng":151.2099},"status":"surplus"},{"frame_index":846,"name":"ports_19","capacity":10000,"empty":1136,"full":331,"on_shipper":43,"on_consignee":0,"shortage":0,"acc_shortage":0,"booking":21,"acc_booking":14118,"fulfillment":21,"acc_fulfillment":14118,"transfer_cost":0.0,"port_name":"Vancouver","position":{"lat":49.246292,"lng":-123.116226},"status":"surplus"},{"frame_index":846,"name":"ports_20","capacity":10000,"empty":855,"full":1839,"on_shipper":126,"on_consignee":0,"shortage":0,"acc_shortage":942,"booking":66,"acc_booking":47917,"fulfillment":66,"acc_fulfillment":46975,"transfer_cost":0.0,"port_name":"Yantian","position":{"lat":26.8533,"lng":119.8575},"status":"surplus"},{"frame_index":846,"name":"ports_21","capacity":10000,"empty":0,"full":1896,"on_shipper":1,"on_consignee":0,"shortage":76,"acc_shortage":6373,"booking":76,"acc_booking":45726,"fulfillment":0,"acc_fulfillment":39353,"transfer_cost":0.0,"port_name":"Yokohama","position":{"lat":35.443707,"lng":139.638031},"status":"demand"}]