[{"frame_index":670,"name":"ports_0","capacity":10000,"empty":5339,"full":3567,"on_shipper":134,"on_consignee":0,"shortage":0,"acc_shortage":522,"booking":66,"acc_booking":85887,"fulfillment":66,"acc_fulfillment":85365,"transfer_cost":0.0,"port_name":"Bremerhaven","position":{"lat":53.549999,"lng":8.583333},"status":"surplus"},{"frame_index":670,"name":"ports_1","capacity":10000,"empty":87,"full":149,"on_shipper":10,"on_consignee":0,"shortage":0,"acc_shortage":0,"booking":5,"acc_booking":5706,"fulfillment":5,"acc_fulfillment":5706,"transfer_cost":0.0,"port_name":"Durban","position":{"lat":-29.8579,"lng":31.0292},"status":"surplus"},{"frame_index":670,"name":"ports_2","capacity":10000,"empty":441,"full":85,"on_shipper":9,"on_consignee":0,"shortage":0,"acc_shortage":298,"booking":5,"acc_booking":5687,"fulfillment":5,"acc_fulfillment":5389,"transfer_cost":0.0,"port_name":"Itagual","position":{"lat":-22.85222,"lng":-43.77528},"status":"surplus"},{"frame_index":670,"name":"ports_3","capacity":10000,"empty":4151,"full":204,"on_shipper":38,"on_consignee":0,"shortage":0,"acc_shortage":0,"booking":26,"acc_booking":32494,"fulfillment":26,"acc_fulfillment":32494,"transfer_cost":0.0,"port_name":"LeHavre","position":{"lat":49.490002,"lng":0.1},"status":"surplus"},{"frame_index":670,"name":"ports_4","capacity":10000,"empty":2058,"full":538,"on_shipper":42,"on_consignee":0,"shortage":0,"acc_shortage":150,"booking":22,"acc_booking":27188,"fulfillment":22,"acc_fulfillment":27038,"transfer_cost":0.0,"port_name":"Los Angeles","position":{"lat":34.052235,"lng":-118.243683},"status":"surplus"},{"frame_index":670,"name":"ports_5","capacity":10000,"empty":1568,"full":162,"on_shipper":37,"on_consignee":0,"shortage":0,"acc_shortage":123,"booking":21,"acc_booking":27257,"fulfillment":21,"acc_fulfillment":27134,"transfer_cost":0.0,"port_name":"Manzanillo","position":{"lat":19.11695,"lng":-104.34214},"status":"surplus"},{"frame_index":670,"name":"ports_6","capacity":10000,"empty":265,"full":290,"on_shipper":13,"on_consignee":0,"shortage":0,"acc_shortage":1336,"booking":7,"acc_booking":8369,"fulfillment":7,"acc_fulfillment":7033,"transfer_cost":0.0,"port_name":"Melbourne","position":{"lat":-37.840935,"lng":144.946457},"status":"surplus"},{"frame_index":670,"name":"ports_7","capacity":10000,"empty":668,"full":158,"on_shipper":10,"on_consignee":0,"shortage":0,"acc_shortage":0,"booking":7,"acc_booking":8376,"fulfillment":7,"acc_fulfillment":8376,"transfer_cost":0.0,"port_name":"Montreal","position":{"lat":45.516136,"lng":-73.65683},"status":"surplus"},{"frame_index":670,"name":"ports_8","capacity":10000,"empty":4920,"full":63,"on_shipper":13,"on_consignee":0,"shortage":0,"acc_shortage":0,"booking":13,"acc_booking":16373,"fulfillment":13,"acc_fulfillment":16373,"transfer_cost":0.0,"port_name":"New York","position":{"lat":40.73061,"lng":-73.935242},"status":"surplus"},{"frame_index":670,"name":"ports_9","capacity":10000,"empty":730,"full":287,"on_shipper":22,"on_consignee":0,"shortage":0,"acc_shortage":45,"booking":12,"acc_booking":16436,"fulfillment":12,"acc_fulfillment":16391,"transfer_cost":0.0,"port_name":"Oakland","position":{"lat":37.804363,"lng":-122.271111},"status":"surplus"},{"frame_index":670,"name":"ports_10","capacity":10000,"empty":909,"full":183,"on_shipper":12,"on_consignee":0,"shortage":0,"acc_shortage":314,"booking":6,"acc_booking":8395,"fulfillment":6,"acc_fulfillment":8081,"transfer_cost":0.0,"port_name":"Prince Rupert","position":{"lat":54.312519,"lng":-130.305405},"status":"surplus"},{"frame_index":670,"name":"ports_11","capacity":10000,"empty":3472,"full":699,"on_shipper":42,"on_consignee":0,"shortage":0,"acc_shortage":204,"booking":27,"acc_booking":32455,"fulfillment":27,"acc_fulfillment":32251,"transfer_cost":0.0,"port_name":"Pusan","position":{"lat":35.166668,"lng":129.066666},"status":"surplus"},{"frame_index":670,"name":"ports_12","capacity":10000,"empty":2757,"full":1343,"on_shipper":44,"on_consignee":137,"shortage":0,"acc_shortage":0,"booking":39,"acc_booking":43318,"fulfillment":39,"acc_fulfillment":43318,"transfer_cost":327.0,"port_name":"Qingdao","position":{"lat":36.066898,"lng":120.382698},"status":"surplus"},{"frame_index":670,"name":"ports_13","capacity":10000,"empty":692,"full":12,"on_shipper":5,"on_consignee":0,"shortage":0,"acc_shortage":325,"booking":5,"acc_booking":5685,"fulfillment":5,"acc_fulfillment":5360,"transfer_cost":0.0,"port_name":"San Antonio","position":{"lat":29.424349,"lng":-98.491142},"status":"surplus"},{"frame_index":670,"name":"ports_14","capacity":10000,"empty":538,"full":226,"on_shipper":7,"on_consignee":0,"shortage":0,"acc_shortage":762,"booking":5,"acc_booking":5731,"fulfillment":5,"acc_fulfillment":4969,"transfer_cost":0.0,"port_name":"Santos","position":{"lat":-23.96083,"lng":-46.33361},"status":"surplus"},{"frame_index":670,"name":"ports_15","capacity":10000,"empty":1769,"full":2146,"on_shipper":41,"on_consignee":0,"shortage":0,"acc_shortage":0,"booking":32,"acc_booking":37853,"fulfillment":32,"acc_fulfillment":37853,"transfer_cost":0.0,"port_name":"Seattle","position":{"lat":47.608013,"lng":-122.335167},"status":"surplus"},{"frame_index":670,"name":"ports_16","capacity":10000,"empty":1273,"full":715,"on_shipper":68,"on_consignee":15,"shortage":0,"acc_shortage":712,"booking":45,"acc_booking":53922,"fulfillment":45,"acc_fulfillment":53210,"transfer_cost":0.0,"port_name":"Shanghai","position":{"lat":31.224361,"lng":121.46917},"status":"surplus"},{"frame_index":670,"name":"ports_17","capacity":10000,"empty":703,"full":306,"on_shipper":25,"on_consignee":33,"shortage":0,"acc_shortage":283,"booking":17,"acc_booking":21825,"fulfillment":17,"acc_fulfillment":21542,"transfer_cost":11.0,"port_name":"Singapore","position":{"lat":1.29027,"lng":103.851959},"status":"surplus"},{"frame_index":670,"name":"ports_18","capacity":10000,"empty":396,"full":0,"on_shipper":8,"on_consignee":87,"shortage":0,"acc_shortage":1082,"booking":8,"acc_booking":8342,"fulfillment":8,"acc_fulfillment":7260,"transfer_cost":9.0,"port_name":"Sydney","position":{"lat":-33.865143,"lng":151.2099},"status":"surplus"},{"frame_index":670,"name":"ports_19","capacity":10000,"empty":570,"full":748,"on_shipper":16,"on_consignee":0,"shortage":0,"acc_shortage":0,"booking":10,"acc_booking":11115,"fulfillment":10,"acc_fulfillment":11115,"transfer_cost":0.0,"port_name":"Vancouver","position":{"lat":49.246292,"lng":-123.116226},"status":"surplus"},{"frame_index":670,"name":"ports_20","capacity":10000,"empty":973,"full":597,"on_shipper":41,"on_consignee":0,"shortage":0,"acc_shortage":395,"booking":29,"acc_booking":37603,"fulfillment":29,"acc_fulfillment":37208,"transfer_cost":0.0,"port_name":"Yantian","position":{"lat":26.8533,"lng":119.8575},"status":"surplus"},{"frame_index":670,"name":"ports_21","capacity":10000,"empty":0,"full":65,"on_shipper":0,"on_consignee":198,"shortage":24,"acc_shortage":4175,"booking":24,"acc_booking":35888,"fulfillment":0,"acc_fulfillment":31713,"transfer_cost":0.0,"port_name":"Yokohama","position":{"lat":35.443707,"lng":139.638031},"status":"demand"}]