[{"frame_index":923,"name":"ports_0","capacity":10000,"empty":3034,"full":1490,"on_shipper":261,"on_consignee":0,"shortage":0,"acc_shortage":522,"booking":155,"acc_booking":117137,"fulfillment":155,"acc_fulfillment":116615,"transfer_cost":0.0,"port_name":"Bremerhaven","position":{"lat":53.549999,"lng":8.583333},"status":"surplus"},{"frame_index":923,"name":"ports_1","capacity":10000,"empty":376,"full":109,"on_shipper":17,"on_consignee":0,"shortage":0,"acc_shortage":113,"booking":12,"acc_booking":7794,"fulfillment":12,"acc_fulfillment":7681,"transfer_cost":0.0,"port_name":"Durban","position":{"lat":-29.8579,"lng":31.0292},"status":"surplus"},{"frame_index":923,"name":"ports_2","capacity":10000,"empty":766,"full":81,"on_shipper":17,"on_consignee":0,"shortage":0,"acc_shortage":298,"booking":11,"acc_booking":7755,"fulfillment":11,"acc_fulfillment":7457,"transfer_cost":0.0,"port_name":"Itagual","position":{"lat":-22.85222,"lng":-43.77528},"status":"surplus"},{"frame_index":923,"name":"ports_3","capacity":10000,"empty":1938,"full":1976,"on_shipper":79,"on_consignee":0,"shortage":0,"acc_shortage":0,"booking":69,"acc_booking":44334,"fulfillment":69,"acc_fulfillment":44334,"transfer_cost":0.0,"port_name":"LeHavre","position":{"lat":49.490002,"lng":0.1},"status":"surplus"},{"frame_index":923,"name":"ports_4","capacity":10000,"empty":3418,"full":179,"on_shipper":90,"on_consignee":0,"shortage":0,"acc_shortage":290,"booking":57,"acc_booking":37131,"fulfillment":57,"acc_fulfillment":36841,"transfer_cost":0.0,"port_name":"Los Angeles","position":{"lat":34.052235,"lng":-118.243683},"status":"surplus"},{"frame_index":923,"name":"ports_5","capacity":10000,"empty":987,"full":383,"on_shipper":66,"on_consignee":0,"shortage":0,"acc_shortage":163,"booking":49,"acc_booking":37226,"fulfillment":49,"acc_fulfillment":37063,"transfer_cost":0.0,"port_name":"Manzanillo","position":{"lat":19.11695,"lng":-104.34214},"status":"surplus"},{"frame_index":923,"name":"ports_6","capacity":10000,"empty":416,"full":216,"on_shipper":22,"on_consignee":0,"shortage":0,"acc_shortage":1855,"booking":17,"acc_booking":11433,"fulfillment":17,"acc_fulfillment":9578,"transfer_cost":0.0,"port_name":"Melbourne","position":{"lat":-37.840935,"lng":144.946457},"status":"surplus"},{"frame_index":923,"name":"ports_7","capacity":10000,"empty":1434,"full":142,"on_shipper":24,"on_consignee":0,"shortage":0,"acc_shortage":0,"booking":17,"acc_booking":11442,"fulfillment":17,"acc_fulfillment":11442,"transfer_cost":0.0,"port_name":"Montreal","position":{"lat":45.516136,"lng":-73.65683},"status":"surplus"},{"frame_index":923,"name":"ports_8","capacity":10000,"empty":2800,"full":237,"on_shipper":36,"on_consignee":0,"shortage":0,"acc_shortage":136,"booking":36,"acc_booking":22351,"fulfillment":36,"acc_fulfillment":22215,"transfer_cost":0.0,"port_name":"New York","position":{"lat":40.73061,"lng":-73.935242},"status":"surplus"},{"frame_index":923,"name":"ports_9","capacity":10000,"empty":539,"full":330,"on_shipper":40,"on_consignee":0,"shortage":0,"acc_shortage":45,"booking":37,"acc_booking":22371,"fulfillment":37,"acc_fulfillment":22326,"transfer_cost":0.0,"port_name":"Oakland","position":{"lat":37.804363,"lng":-122.271111},"status":"surplus"},{"frame_index":923,"name":"ports_10","capacity":10000,"empty":932,"full":234,"on_shipper":27,"on_consignee":0,"shortage":0,"acc_shortage":314,"booking":20,"acc_booking":11469,"fulfillment":20,"acc_fulfillment":11155,"transfer_cost":0.0,"port_name":"Prince Rupert","position":{"lat":54.312519,"lng":-130.305405},"status":"surplus"},{"frame_index":923,"name":"ports_11","capacity":10000,"empty":882,"full":384,"on_shipper":94,"on_consignee":0,"shortage":0,"acc_shortage":204,"booking":67,"acc_booking":44281,"fulfillment":67,"acc_fulfillment":44077,"transfer_cost":0.0,"port_name":"Pusan","position":{"lat":35.166668,"lng":129.066666},"status":"surplus"},{"frame_index":923,"name":"ports_12","capacity":10000,"empty":5059,"full":400,"on_shipper":100,"on_consignee":262,"shortage":0,"acc_shortage":0,"booking":83,"acc_booking":59172,"fulfillment":83,"acc_fulfillment":59172,"transfer_cost":629.0,"port_name":"Qingdao","position":{"lat":36.066898,"lng":120.382698},"status":"surplus"},{"frame_index":923,"name":"ports_13","capacity":10000,"empty":305,"full":65,"on_shipper":17,"on_consignee":0,"shortage":0,"acc_shortage":449,"booking":11,"acc_booking":7763,"fulfillment":11,"acc_fulfillment":7314,"transfer_cost":0.0,"port_name":"San Antonio","position":{"lat":29.424349,"lng":-98.491142},"status":"surplus"},{"frame_index":923,"name":"ports_14","capacity":10000,"empty":192,"full":128,"on_shipper":16,"on_consignee":0,"shortage":0,"acc_shortage":819,"booking":13,"acc_booking":7819,"fulfillment":13,"acc_fulfillment":7000,"transfer_cost":0.0,"port_name":"Santos","position":{"lat":-23.96083,"lng":-46.33361},"status":"surplus"},{"frame_index":923,"name":"ports_15","capacity":10000,"empty":1168,"full":1245,"on_shipper":110,"on_consignee":0,"shortage":0,"acc_shortage":0,"booking":80,"acc_booking":51717,"fulfillment":80,"acc_fulfillment":51717,"transfer_cost":0.0,"port_name":"Seattle","position":{"lat":47.608013,"lng":-122.335167},"status":"surplus"},{"frame_index":923,"name":"ports_16","capacity":10000,"empty":2085,"full":1442,"on_shipper":195,"on_consignee":103,"shortage":0,"acc_shortage":817,"booking":116,"acc_booking":73636,"fulfillment":116,"acc_fulfillment":72819,"transfer_cost":0.0,"port_name":"Shanghai","position":{"lat":31.224361,"lng":121.46917},"status":"surplus"},{"frame_index":923,"name":"ports_17","capacity":10000,"empty":1620,"full":269,"on_shipper":57,"on_consignee":0,"shortage":0,"acc_shortage":283,"booking":47,"acc_booking":29777,"fulfillment":47,"acc_fulfillment":29494,"transfer_cost":0.0,"port_name":"Singapore","position":{"lat":1.29027,"lng":103.851959},"status":"surplus"},{"frame_index":923,"name":"ports_18","capacity":10000,"empty":920,"full":262,"on_shipper":24,"on_consignee":0,"shortage":0,"acc_shortage":1374,"booking":19,"acc_booking":11450,"fulfillment":19,"acc_fulfillment":10076,"transfer_cost":0.0,"port_name":"Sydney","position":{"lat":-33.865143,"lng":151.2099},"status":"surplus"},{"frame_index":923,"name":"ports_19","capacity":10000,"empty":1276,"full":381,"on_shipper":26,"on_consignee":0,"shortage":0,"acc_shortage":0,"booking":22,"acc_booking":15151,"fulfillment":22,"acc_fulfillment":15151,"transfer_cost":0.0,"port_name":"Vancouver","position":{"lat":49.246292,"lng":-123.116226},"status":"surplus"},{"frame_index":923,"name":"ports_20","capacity":10000,"empty":1711,"full":2128,"on_shipper":102,"on_consignee":0,"shortage":0,"acc_shortage":1292,"booking":77,"acc_booking":51412,"fulfillment":77,"acc_fulfillment":50120,"transfer_cost":0.0,"port_name":"Yantian","position":{"lat":26.8533,"lng":119.8575},"status":"surplus"},{"frame_index":923,"name":"ports_21","capacity":10000,"empty":676,"full":672,"on_shipper":117,"on_consignee":0,"shortage":0,"acc_shortage":7235,"booking":79,"acc_booking":48898,"fulfillment":79,"acc_fulfillment":41663,"transfer_cost":0.0,"port_name":"Yokohama","position":{"lat":35.443707,"lng":139.638031},"status":"surplus"}]