[{"frame_index":132,"name":"ports_0","capacity":10000,"empty":5079,"full":1037,"on_shipper":136,"on_consignee":0,"shortage":0,"acc_shortage":0,"booking":87,"acc_booking":15520,"fulfillment":87,"acc_fulfillment":15520,"transfer_cost":0.0,"port_name":"Bremerhaven","position":{"lat":53.549999,"lng":8.583333},"status":"surplus"},{"frame_index":132,"name":"ports_1","capacity":10000,"empty":820,"full":53,"on_shipper":7,"on_consignee":0,"shortage":0,"acc_shortage":0,"booking":5,"acc_booking":1051,"fulfillment":5,"acc_fulfillment":1051,"transfer_cost":0.0,"port_name":"Durban","position":{"lat":-29.8579,"lng":31.0292},"status":"surplus"},{"frame_index":132,"name":"ports_2","capacity":10000,"empty":41,"full":671,"on_shipper":8,"on_consignee":0,"shortage":0,"acc_shortage":0,"booking":6,"acc_booking":1039,"fulfillment":6,"acc_fulfillment":1039,"transfer_cost":0.0,"port_name":"Itagual","position":{"lat":-22.85222,"lng":-43.77528},"status":"balance"},{"frame_index":132,"name":"ports_3","capacity":10000,"empty":2765,"full":341,"on_shipper":42,"on_consignee":0,"shortage":0,"acc_shortage":0,"booking":31,"acc_booking":5934,"fulfillment":31,"acc_fulfillment":5934,"transfer_cost":0.0,"port_name":"LeHavre","position":{"lat":49.490002,"lng":0.1},"status":"surplus"},{"frame_index":132,"name":"ports_4","capacity":10000,"empty":3194,"full":468,"on_shipper":40,"on_consignee":0,"shortage":0,"acc_shortage":0,"booking":27,"acc_booking":4954,"fulfillment":27,"acc_fulfillment":4954,"transfer_cost":0.0,"port_name":"Los Angeles","position":{"lat":34.052235,"lng":-118.243683},"status":"surplus"},{"frame_index":132,"name":"ports_5","capacity":10000,"empty":694,"full":251,"on_shipper":30,"on_consignee":0,"shortage":0,"acc_shortage":0,"booking":23,"acc_booking":4903,"fulfillment":23,"acc_fulfillment":4903,"transfer_cost":0.0,"port_name":"Manzanillo","position":{"lat":19.11695,"lng":-104.34214},"status":"surplus"},{"frame_index":132,"name":"ports_6","capacity":10000,"empty":450,"full":185,"on_shipper":11,"on_consignee":220,"shortage":0,"acc_shortage":0,"booking":8,"acc_booking":1532,"fulfillment":8,"acc_fulfillment":1532,"transfer_cost":0.0,"port_name":"Melbourne","position":{"lat":-37.840935,"lng":144.946457},"status":"surplus"},{"frame_index":132,"name":"ports_7","capacity":10000,"empty":2194,"full":96,"on_shipper":14,"on_consignee":0,"shortage":0,"acc_shortage":0,"booking":8,"acc_booking":1526,"fulfillment":8,"acc_fulfillment":1526,"transfer_cost":0.0,"port_name":"Montreal","position":{"lat":45.516136,"lng":-73.65683},"status":"surplus"},{"frame_index":132,"name":"ports_8","capacity":10000,"empty":1575,"full":287,"on_shipper":23,"on_consignee":0,"shortage":0,"acc_shortage":0,"booking":16,"acc_booking":2994,"fulfillment":16,"acc_fulfillment":2994,"transfer_cost":0.0,"port_name":"New York","position":{"lat":40.73061,"lng":-73.935242},"status":"surplus"},{"frame_index":132,"name":"ports_9","capacity":10000,"empty":2276,"full":121,"on_shipper":19,"on_consignee":0,"shortage":0,"acc_shortage":0,"booking":16,"acc_booking":2962,"fulfillment":16,"acc_fulfillment":2962,"transfer_cost":0.0,"port_name":"Oakland","position":{"lat":37.804363,"lng":-122.271111},"status":"surplus"},{"frame_index":132,"name":"ports_10","capacity":10000,"empty":314,"full":375,"on_shipper":10,"on_consignee":0,"shortage":0,"acc_shortage":0,"booking":8,"acc_booking":1527,"fulfillment":8,"acc_fulfillment":1527,"transfer_cost":0.0,"port_name":"Prince Rupert","position":{"lat":54.312519,"lng":-130.305405},"status":"surplus"},{"frame_index":132,"name":"ports_11","capacity":10000,"empty":1751,"full":699,"on_shipper":41,"on_consignee":0,"shortage":0,"acc_shortage":0,"booking":32,"acc_booking":5907,"fulfillment":32,"acc_fulfillment":5907,"transfer_cost":0.0,"port_name":"Pusan","position":{"lat":35.166668,"lng":129.066666},"status":"surplus"},{"frame_index":132,"name":"ports_12","capacity":10000,"empty":4326,"full":742,"on_shipper":65,"on_consignee":0,"shortage":0,"acc_shortage":0,"booking":45,"acc_booking":7873,"fulfillment":45,"acc_fulfillment":7873,"transfer_cost":0.0,"port_name":"Qingdao","position":{"lat":36.066898,"lng":120.382698},"status":"surplus"},{"frame_index":132,"name":"ports_13","capacity":10000,"empty":360,"full":119,"on_shipper":6,"on_consignee":0,"shortage":0,"acc_shortage":0,"booking":5,"acc_booking":1044,"fulfillment":5,"acc_fulfillment":1044,"transfer_cost":0.0,"port_name":"San Antonio","position":{"lat":29.424349,"lng":-98.491142},"status":"surplus"},{"frame_index":132,"name":"ports_14","capacity":10000,"empty":123,"full":94,"on_shipper":7,"on_consignee":0,"shortage":0,"acc_shortage":0,"booking":5,"acc_booking":1053,"fulfillment":5,"acc_fulfillment":1053,"transfer_cost":0.0,"port_name":"Santos","position":{"lat":-23.96083,"lng":-46.33361},"status":"surplus"},{"frame_index":132,"name":"ports_15","capacity":10000,"empty":2626,"full":1164,"on_shipper":59,"on_consignee":0,"shortage":0,"acc_shortage":0,"booking":36,"acc_booking":6902,"fulfillment":36,"acc_fulfillment":6902,"transfer_cost":0.0,"port_name":"Seattle","position":{"lat":47.608013,"lng":-122.335167},"status":"surplus"},{"frame_index":132,"name":"ports_16","capacity":10000,"empty":1798,"full":1417,"on_shipper":62,"on_consignee":0,"shortage":0,"acc_shortage":0,"booking":51,"acc_booking":9908,"fulfillment":51,"acc_fulfillment":9908,"transfer_cost":0.0,"port_name":"Shanghai","position":{"lat":31.224361,"lng":121.46917},"status":"surplus"},{"frame_index":132,"name":"ports_17","capacity":10000,"empty":2413,"full":300,"on_shipper":25,"on_consignee":17,"shortage":0,"acc_shortage":0,"booking":21,"acc_booking":3982,"fulfillment":21,"acc_fulfillment":3982,"transfer_cost":0.0,"port_name":"Singapore","position":{"lat":1.29027,"lng":103.851959},"status":"surplus"},{"frame_index":132,"name":"ports_18","capacity":10000,"empty":718,"full":93,"on_shipper":11,"on_consignee":0,"shortage":0,"acc_shortage":0,"booking":8,"acc_booking":1506,"fulfillment":8,"acc_fulfillment":1506,"transfer_cost":0.0,"port_name":"Sydney","position":{"lat":-33.865143,"lng":151.2099},"status":"surplus"},{"frame_index":132,"name":"ports_19","capacity":10000,"empty":486,"full":566,"on_shipper":18,"on_consignee":0,"shortage":0,"acc_shortage":0,"booking":11,"acc_booking":2031,"fulfillment":11,"acc_fulfillment":2031,"transfer_cost":0.0,"port_name":"Vancouver","position":{"lat":49.246292,"lng":-123.116226},"status":"surplus"},{"frame_index":132,"name":"ports_20","capacity":10000,"empty":1845,"full":394,"on_shipper":49,"on_consignee":4,"shortage":0,"acc_shortage":0,"booking":35,"acc_booking":6765,"fulfillment":35,"acc_fulfillment":6765,"transfer_cost":0.0,"port_name":"Yantian","position":{"lat":26.8533,"lng":119.8575},"status":"surplus"},{"frame_index":132,"name":"ports_21","capacity":10000,"empty":3184,"full":493,"on_shipper":39,"on_consignee":0,"shortage":0,"acc_shortage":0,"booking":30,"acc_booking":6411,"fulfillment":30,"acc_fulfillment":6411,"transfer_cost":0.0,"port_name":"Yokohama","position":{"lat":35.443707,"lng":139.638031},"status":"surplus"}]