[{"frame_index":931,"name":"ports_0","capacity":10000,"empty":5330,"full":959,"on_shipper":183,"on_consignee":36,"shortage":0,"acc_shortage":522,"booking":85,"acc_booking":118402,"fulfillment":85,"acc_fulfillment":117880,"transfer_cost":0.0,"port_name":"Bremerhaven","position":{"lat":53.549999,"lng":8.583333},"status":"surplus"},{"frame_index":931,"name":"ports_1","capacity":10000,"empty":542,"full":69,"on_shipper":9,"on_consignee":0,"shortage":0,"acc_shortage":113,"booking":5,"acc_booking":7877,"fulfillment":5,"acc_fulfillment":7764,"transfer_cost":0.0,"port_name":"Durban","position":{"lat":-29.8579,"lng":31.0292},"status":"surplus"},{"frame_index":931,"name":"ports_2","capacity":10000,"empty":790,"full":39,"on_shipper":8,"on_consignee":0,"shortage":0,"acc_shortage":298,"booking":5,"acc_booking":7838,"fulfillment":5,"acc_fulfillment":7540,"transfer_cost":0.0,"port_name":"Itagual","position":{"lat":-22.85222,"lng":-43.77528},"status":"surplus"},{"frame_index":931,"name":"ports_3","capacity":10000,"empty":1452,"full":2480,"on_shipper":61,"on_consignee":0,"shortage":0,"acc_shortage":0,"booking":29,"acc_booking":44820,"fulfillment":29,"acc_fulfillment":44820,"transfer_cost":0.0,"port_name":"LeHavre","position":{"lat":49.490002,"lng":0.1},"status":"surplus"},{"frame_index":931,"name":"ports_4","capacity":10000,"empty":3165,"full":397,"on_shipper":49,"on_consignee":0,"shortage":0,"acc_shortage":290,"booking":24,"acc_booking":37538,"fulfillment":24,"acc_fulfillment":37248,"transfer_cost":0.0,"port_name":"Los Angeles","position":{"lat":34.052235,"lng":-118.243683},"status":"surplus"},{"frame_index":931,"name":"ports_5","capacity":10000,"empty":878,"full":105,"on_shipper":33,"on_consignee":0,"shortage":0,"acc_shortage":163,"booking":23,"acc_booking":37610,"fulfillment":23,"acc_fulfillment":37447,"transfer_cost":0.0,"port_name":"Manzanillo","position":{"lat":19.11695,"lng":-104.34214},"status":"surplus"},{"frame_index":931,"name":"ports_6","capacity":10000,"empty":502,"full":122,"on_shipper":16,"on_consignee":0,"shortage":0,"acc_shortage":1855,"booking":7,"acc_booking":11556,"fulfillment":7,"acc_fulfillment":9701,"transfer_cost":0.0,"port_name":"Melbourne","position":{"lat":-37.840935,"lng":144.946457},"status":"surplus"},{"frame_index":931,"name":"ports_7","capacity":10000,"empty":1309,"full":270,"on_shipper":21,"on_consignee":0,"shortage":0,"acc_shortage":0,"booking":7,"acc_booking":11567,"fulfillment":7,"acc_fulfillment":11567,"transfer_cost":0.0,"port_name":"Montreal","position":{"lat":45.516136,"lng":-73.65683},"status":"surplus"},{"frame_index":931,"name":"ports_8","capacity":10000,"empty":2555,"full":488,"on_shipper":30,"on_consignee":0,"shortage":0,"acc_shortage":136,"booking":15,"acc_booking":22596,"fulfillment":15,"acc_fulfillment":22460,"transfer_cost":0.0,"port_name":"New York","position":{"lat":40.73061,"lng":-73.935242},"status":"surplus"},{"frame_index":931,"name":"ports_9","capacity":10000,"empty":299,"full":588,"on_shipper":22,"on_consignee":0,"shortage":0,"acc_shortage":45,"booking":14,"acc_booking":22611,"fulfillment":14,"acc_fulfillment":22566,"transfer_cost":0.0,"port_name":"Oakland","position":{"lat":37.804363,"lng":-122.271111},"status":"surplus"},{"frame_index":931,"name":"ports_10","capacity":10000,"empty":1790,"full":41,"on_shipper":8,"on_consignee":0,"shortage":0,"acc_shortage":314,"booking":6,"acc_booking":11595,"fulfillment":6,"acc_fulfillment":11281,"transfer_cost":0.0,"port_name":"Prince Rupert","position":{"lat":54.312519,"lng":-130.305405},"status":"surplus"},{"frame_index":931,"name":"ports_11","capacity":10000,"empty":1335,"full":250,"on_shipper":49,"on_consignee":1497,"shortage":0,"acc_shortage":204,"booking":30,"acc_booking":44767,"fulfillment":30,"acc_fulfillment":44563,"transfer_cost":0.0,"port_name":"Pusan","position":{"lat":35.166668,"lng":129.066666},"status":"surplus"},{"frame_index":931,"name":"ports_12","capacity":10000,"empty":5181,"full":750,"on_shipper":81,"on_consignee":0,"shortage":0,"acc_shortage":0,"booking":39,"acc_booking":59807,"fulfillment":39,"acc_fulfillment":59807,"transfer_cost":0.0,"port_name":"Qingdao","position":{"lat":36.066898,"lng":120.382698},"status":"surplus"},{"frame_index":931,"name":"ports_13","capacity":10000,"empty":223,"full":156,"on_shipper":8,"on_consignee":0,"shortage":0,"acc_shortage":449,"booking":6,"acc_booking":7845,"fulfillment":6,"acc_fulfillment":7396,"transfer_cost":0.0,"port_name":"San Antonio","position":{"lat":29.424349,"lng":-98.491142},"status":"surplus"},{"frame_index":931,"name":"ports_14","capacity":10000,"empty":108,"full":213,"on_shipper":15,"on_consignee":0,"shortage":0,"acc_shortage":819,"booking":6,"acc_booking":7903,"fulfillment":6,"acc_fulfillment":7084,"transfer_cost":0.0,"port_name":"Santos","position":{"lat":-23.96083,"lng":-46.33361},"status":"surplus"},{"frame_index":931,"name":"ports_15","capacity":10000,"empty":612,"full":1868,"on_shipper":43,"on_consignee":0,"shortage":0,"acc_shortage":0,"booking":32,"acc_booking":52273,"fulfillment":32,"acc_fulfillment":52273,"transfer_cost":0.0,"port_name":"Seattle","position":{"lat":47.608013,"lng":-122.335167},"status":"surplus"},{"frame_index":931,"name":"ports_16","capacity":10000,"empty":1999,"full":2161,"on_shipper":80,"on_consignee":107,"shortage":0,"acc_shortage":817,"booking":47,"acc_booking":74453,"fulfillment":47,"acc_fulfillment":73636,"transfer_cost":442.0,"port_name":"Shanghai","position":{"lat":31.224361,"lng":121.46917},"status":"surplus"},{"frame_index":931,"name":"ports_17","capacity":10000,"empty":1294,"full":615,"on_shipper":37,"on_consignee":0,"shortage":0,"acc_shortage":283,"booking":19,"acc_booking":30103,"fulfillment":19,"acc_fulfillment":29820,"transfer_cost":0.0,"port_name":"Singapore","position":{"lat":1.29027,"lng":103.851959},"status":"surplus"},{"frame_index":931,"name":"ports_18","capacity":10000,"empty":796,"full":393,"on_shipper":17,"on_consignee":0,"shortage":0,"acc_shortage":1374,"booking":8,"acc_booking":11574,"fulfillment":8,"acc_fulfillment":10200,"transfer_cost":0.0,"port_name":"Sydney","position":{"lat":-33.865143,"lng":151.2099},"status":"surplus"},{"frame_index":931,"name":"ports_19","capacity":10000,"empty":1115,"full":547,"on_shipper":21,"on_consignee":0,"shortage":0,"acc_shortage":0,"booking":10,"acc_booking":15312,"fulfillment":10,"acc_fulfillment":15312,"transfer_cost":0.0,"port_name":"Vancouver","position":{"lat":49.246292,"lng":-123.116226},"status":"surplus"},{"frame_index":931,"name":"ports_20","capacity":10000,"empty":1373,"full":2326,"on_shipper":79,"on_consignee":40,"shortage":0,"acc_shortage":1292,"booking":36,"acc_booking":51965,"fulfillment":36,"acc_fulfillment":50673,"transfer_cost":0.0,"port_name":"Yantian","position":{"lat":26.8533,"lng":119.8575},"status":"surplus"},{"frame_index":931,"name":"ports_21","capacity":10000,"empty":1118,"full":511,"on_shipper":67,"on_consignee":0,"shortage":0,"acc_shortage":7235,"booking":25,"acc_booking":49447,"fulfillment":25,"acc_fulfillment":42212,"transfer_cost":0.0,"port_name":"Yokohama","position":{"lat":35.443707,"lng":139.638031},"status":"surplus"}]