[{"frame_index":733,"name":"ports_0","capacity":10000,"empty":1424,"full":5739,"on_shipper":278,"on_consignee":0,"shortage":0,"acc_shortage":522,"booking":178,"acc_booking":94251,"fulfillment":178,"acc_fulfillment":93729,"transfer_cost":0.0,"port_name":"Bremerhaven","position":{"lat":53.549999,"lng":8.583333},"status":"surplus"},{"frame_index":733,"name":"ports_1","capacity":10000,"empty":106,"full":315,"on_shipper":20,"on_consignee":0,"shortage":0,"acc_shortage":0,"booking":12,"acc_booking":6268,"fulfillment":12,"acc_fulfillment":6268,"transfer_cost":0.0,"port_name":"Durban","position":{"lat":-29.8579,"lng":31.0292},"status":"balance"},{"frame_index":733,"name":"ports_2","capacity":10000,"empty":644,"full":35,"on_shipper":18,"on_consignee":0,"shortage":0,"acc_shortage":298,"booking":13,"acc_booking":6245,"fulfillment":13,"acc_fulfillment":5947,"transfer_cost":0.0,"port_name":"Itagual","position":{"lat":-22.85222,"lng":-43.77528},"status":"surplus"},{"frame_index":733,"name":"ports_3","capacity":10000,"empty":1816,"full":1812,"on_shipper":99,"on_consignee":0,"shortage":0,"acc_shortage":0,"booking":73,"acc_booking":35709,"fulfillment":73,"acc_fulfillment":35709,"transfer_cost":0.0,"port_name":"LeHavre","position":{"lat":49.490002,"lng":0.1},"status":"surplus"},{"frame_index":733,"name":"ports_4","capacity":10000,"empty":198,"full":964,"on_shipper":75,"on_consignee":0,"shortage":0,"acc_shortage":290,"booking":62,"acc_booking":29886,"fulfillment":62,"acc_fulfillment":29596,"transfer_cost":0.0,"port_name":"Los Angeles","position":{"lat":34.052235,"lng":-118.243683},"status":"demand"},{"frame_index":733,"name":"ports_5","capacity":10000,"empty":1159,"full":707,"on_shipper":112,"on_consignee":0,"shortage":0,"acc_shortage":123,"booking":58,"acc_booking":29981,"fulfillment":58,"acc_fulfillment":29858,"transfer_cost":0.0,"port_name":"Manzanillo","position":{"lat":19.11695,"lng":-104.34214},"status":"surplus"},{"frame_index":733,"name":"ports_6","capacity":10000,"empty":0,"full":639,"on_shipper":10,"on_consignee":0,"shortage":10,"acc_shortage":1346,"booking":20,"acc_booking":9199,"fulfillment":10,"acc_fulfillment":7853,"transfer_cost":0.0,"port_name":"Melbourne","position":{"lat":-37.840935,"lng":144.946457},"status":"demand"},{"frame_index":733,"name":"ports_7","capacity":10000,"empty":543,"full":177,"on_shipper":44,"on_consignee":0,"shortage":0,"acc_shortage":0,"booking":19,"acc_booking":9207,"fulfillment":19,"acc_fulfillment":9207,"transfer_cost":0.0,"port_name":"Montreal","position":{"lat":45.516136,"lng":-73.65683},"status":"surplus"},{"frame_index":733,"name":"ports_8","capacity":10000,"empty":899,"full":100,"on_shipper":81,"on_consignee":0,"shortage":0,"acc_shortage":0,"booking":35,"acc_booking":17983,"fulfillment":35,"acc_fulfillment":17983,"transfer_cost":0.0,"port_name":"New York","position":{"lat":40.73061,"lng":-73.935242},"status":"surplus"},{"frame_index":733,"name":"ports_9","capacity":10000,"empty":680,"full":658,"on_shipper":59,"on_consignee":0,"shortage":0,"acc_shortage":45,"booking":36,"acc_booking":18029,"fulfillment":36,"acc_fulfillment":17984,"transfer_cost":0.0,"port_name":"Oakland","position":{"lat":37.804363,"lng":-122.271111},"status":"surplus"},{"frame_index":733,"name":"ports_10","capacity":10000,"empty":1201,"full":614,"on_shipper":30,"on_consignee":0,"shortage":0,"acc_shortage":314,"booking":21,"acc_booking":9210,"fulfillment":21,"acc_fulfillment":8896,"transfer_cost":0.0,"port_name":"Prince Rupert","position":{"lat":54.312519,"lng":-130.305405},"status":"surplus"},{"frame_index":733,"name":"ports_11","capacity":10000,"empty":1185,"full":3587,"on_shipper":124,"on_consignee":0,"shortage":0,"acc_shortage":204,"booking":71,"acc_booking":35651,"fulfillment":71,"acc_fulfillment":35447,"transfer_cost":0.0,"port_name":"Pusan","position":{"lat":35.166668,"lng":129.066666},"status":"surplus"},{"frame_index":733,"name":"ports_12","capacity":10000,"empty":2531,"full":1300,"on_shipper":177,"on_consignee":0,"shortage":0,"acc_shortage":0,"booking":96,"acc_booking":47629,"fulfillment":96,"acc_fulfillment":47629,"transfer_cost":0.0,"port_name":"Qingdao","position":{"lat":36.066898,"lng":120.382698},"status":"surplus"},{"frame_index":733,"name":"ports_13","capacity":10000,"empty":265,"full":332,"on_shipper":20,"on_consignee":0,"shortage":0,"acc_shortage":325,"booking":13,"acc_booking":6259,"fulfillment":13,"acc_fulfillment":5934,"transfer_cost":0.0,"port_name":"San Antonio","position":{"lat":29.424349,"lng":-98.491142},"status":"surplus"},{"frame_index":733,"name":"ports_14","capacity":10000,"empty":511,"full":373,"on_shipper":24,"on_consignee":0,"shortage":0,"acc_shortage":762,"booking":14,"acc_booking":6294,"fulfillment":14,"acc_fulfillment":5532,"transfer_cost":0.0,"port_name":"Santos","position":{"lat":-23.96083,"lng":-46.33361},"status":"surplus"},{"frame_index":733,"name":"ports_15","capacity":10000,"empty":1739,"full":2134,"on_shipper":166,"on_consignee":0,"shortage":0,"acc_shortage":0,"booking":90,"acc_booking":41633,"fulfillment":90,"acc_fulfillment":41633,"transfer_cost":0.0,"port_name":"Seattle","position":{"lat":47.608013,"lng":-122.335167},"status":"surplus"},{"frame_index":733,"name":"ports_16","capacity":10000,"empty":392,"full":2947,"on_shipper":200,"on_consignee":228,"shortage":0,"acc_shortage":712,"booking":129,"acc_booking":59347,"fulfillment":129,"acc_fulfillment":58635,"transfer_cost":343.0,"port_name":"Shanghai","position":{"lat":31.224361,"lng":121.46917},"status":"demand"},{"frame_index":733,"name":"ports_17","capacity":10000,"empty":2507,"full":880,"on_shipper":93,"on_consignee":0,"shortage":0,"acc_shortage":283,"booking":50,"acc_booking":23995,"fulfillment":50,"acc_fulfillment":23712,"transfer_cost":0.0,"port_name":"Singapore","position":{"lat":1.29027,"lng":103.851959},"status":"surplus"},{"frame_index":733,"name":"ports_18","capacity":10000,"empty":0,"full":257,"on_shipper":0,"on_consignee":0,"shortage":21,"acc_shortage":1154,"booking":21,"acc_booking":9199,"fulfillment":0,"acc_fulfillment":8045,"transfer_cost":0.0,"port_name":"Sydney","position":{"lat":-33.865143,"lng":151.2099},"status":"demand"},{"frame_index":733,"name":"ports_19","capacity":10000,"empty":786,"full":560,"on_shipper":47,"on_consignee":0,"shortage":0,"acc_shortage":0,"booking":26,"acc_booking":12201,"fulfillment":26,"acc_fulfillment":12201,"transfer_cost":0.0,"port_name":"Vancouver","position":{"lat":49.246292,"lng":-123.116226},"status":"surplus"},{"frame_index":733,"name":"ports_20","capacity":10000,"empty":1193,"full":1665,"on_shipper":145,"on_consignee":0,"shortage":0,"acc_shortage":942,"booking":84,"acc_booking":41380,"fulfillment":84,"acc_fulfillment":40438,"transfer_cost":0.0,"port_name":"Yantian","position":{"lat":26.8533,"lng":119.8575},"status":"surplus"},{"frame_index":733,"name":"ports_21","capacity":10000,"empty":0,"full":746,"on_shipper":0,"on_consignee":0,"shortage":90,"acc_shortage":4830,"booking":90,"acc_booking":39474,"fulfillment":0,"acc_fulfillment":34644,"transfer_cost":0.0,"port_name":"Yokohama","position":{"lat":35.443707,"lng":139.638031},"status":"demand"}]