[{"frame_index":270,"name":"ports_0","capacity":10000,"empty":3537,"full":2735,"on_shipper":233,"on_consignee":0,"shortage":0,"acc_shortage":0,"booking":217,"acc_booking":33670,"fulfillment":217,"acc_fulfillment":33670,"transfer_cost":0.0,"port_name":"Bremerhaven","position":{"lat":53.549999,"lng":8.583333},"status":"surplus"},{"frame_index":270,"name":"ports_1","capacity":10000,"empty":842,"full":11,"on_shipper":28,"on_consignee":25,"shortage":0,"acc_shortage":0,"booking":14,"acc_booking":2262,"fulfillment":14,"acc_fulfillment":2262,"transfer_cost":0.0,"port_name":"Durban","position":{"lat":-29.8579,"lng":31.0292},"status":"surplus"},{"frame_index":270,"name":"ports_2","capacity":10000,"empty":788,"full":150,"on_shipper":15,"on_consignee":0,"shortage":0,"acc_shortage":233,"booking":13,"acc_booking":2241,"fulfillment":13,"acc_fulfillment":2008,"transfer_cost":0.0,"port_name":"Itagual","position":{"lat":-22.85222,"lng":-43.77528},"status":"surplus"},{"frame_index":270,"name":"ports_3","capacity":10000,"empty":2289,"full":1002,"on_shipper":143,"on_consignee":0,"shortage":0,"acc_shortage":0,"booking":88,"acc_booking":12801,"fulfillment":88,"acc_fulfillment":12801,"transfer_cost":0.0,"port_name":"LeHavre","position":{"lat":49.490002,"lng":0.1},"status":"surplus"},{"frame_index":270,"name":"ports_4","capacity":10000,"empty":2805,"full":297,"on_shipper":140,"on_consignee":0,"shortage":0,"acc_shortage":0,"booking":72,"acc_booking":10690,"fulfillment":72,"acc_fulfillment":10690,"transfer_cost":0.0,"port_name":"Los Angeles","position":{"lat":34.052235,"lng":-118.243683},"status":"surplus"},{"frame_index":270,"name":"ports_5","capacity":10000,"empty":318,"full":886,"on_shipper":110,"on_consignee":0,"shortage":0,"acc_shortage":0,"booking":74,"acc_booking":10739,"fulfillment":74,"acc_fulfillment":10739,"transfer_cost":0.0,"port_name":"Manzanillo","position":{"lat":19.11695,"lng":-104.34214},"status":"demand"},{"frame_index":270,"name":"ports_6","capacity":10000,"empty":150,"full":256,"on_shipper":31,"on_consignee":0,"shortage":0,"acc_shortage":0,"booking":22,"acc_booking":3291,"fulfillment":22,"acc_fulfillment":3291,"transfer_cost":0.0,"port_name":"Melbourne","position":{"lat":-37.840935,"lng":144.946457},"status":"balance"},{"frame_index":270,"name":"ports_7","capacity":10000,"empty":2085,"full":189,"on_shipper":37,"on_consignee":0,"shortage":0,"acc_shortage":0,"booking":22,"acc_booking":3295,"fulfillment":22,"acc_fulfillment":3295,"transfer_cost":0.0,"port_name":"Montreal","position":{"lat":45.516136,"lng":-73.65683},"status":"surplus"},{"frame_index":270,"name":"ports_8","capacity":10000,"empty":4033,"full":861,"on_shipper":66,"on_consignee":0,"shortage":0,"acc_shortage":0,"booking":45,"acc_booking":6428,"fulfillment":45,"acc_fulfillment":6428,"transfer_cost":0.0,"port_name":"New York","position":{"lat":40.73061,"lng":-73.935242},"status":"surplus"},{"frame_index":270,"name":"ports_9","capacity":10000,"empty":807,"full":1064,"on_shipper":80,"on_consignee":0,"shortage":0,"acc_shortage":0,"booking":37,"acc_booking":6394,"fulfillment":37,"acc_fulfillment":6394,"transfer_cost":0.0,"port_name":"Oakland","position":{"lat":37.804363,"lng":-122.271111},"status":"surplus"},{"frame_index":270,"name":"ports_10","capacity":10000,"empty":1316,"full":271,"on_shipper":42,"on_consignee":0,"shortage":0,"acc_shortage":0,"booking":24,"acc_booking":3273,"fulfillment":24,"acc_fulfillment":3273,"transfer_cost":0.0,"port_name":"Prince Rupert","position":{"lat":54.312519,"lng":-130.305405},"status":"surplus"},{"frame_index":270,"name":"ports_11","capacity":10000,"empty":995,"full":1281,"on_shipper":94,"on_consignee":0,"shortage":0,"acc_shortage":0,"booking":83,"acc_booking":12755,"fulfillment":83,"acc_fulfillment":12755,"transfer_cost":0.0,"port_name":"Pusan","position":{"lat":35.166668,"lng":129.066666},"status":"surplus"},{"frame_index":270,"name":"ports_12","capacity":10000,"empty":1551,"full":1412,"on_shipper":172,"on_consignee":0,"shortage":0,"acc_shortage":0,"booking":107,"acc_booking":17058,"fulfillment":107,"acc_fulfillment":17058,"transfer_cost":0.0,"port_name":"Qingdao","position":{"lat":36.066898,"lng":120.382698},"status":"surplus"},{"frame_index":270,"name":"ports_13","capacity":10000,"empty":369,"full":271,"on_shipper":26,"on_consignee":0,"shortage":0,"acc_shortage":55,"booking":14,"acc_booking":2244,"fulfillment":14,"acc_fulfillment":2189,"transfer_cost":0.0,"port_name":"San Antonio","position":{"lat":29.424349,"lng":-98.491142},"status":"surplus"},{"frame_index":270,"name":"ports_14","capacity":10000,"empty":1113,"full":150,"on_shipper":26,"on_consignee":0,"shortage":0,"acc_shortage":697,"booking":16,"acc_booking":2263,"fulfillment":16,"acc_fulfillment":1566,"transfer_cost":0.0,"port_name":"Santos","position":{"lat":-23.96083,"lng":-46.33361},"status":"surplus"},{"frame_index":270,"name":"ports_15","capacity":10000,"empty":3705,"full":1483,"on_shipper":157,"on_consignee":0,"shortage":0,"acc_shortage":0,"booking":97,"acc_booking":14887,"fulfillment":97,"acc_fulfillment":14887,"transfer_cost":0.0,"port_name":"Seattle","position":{"lat":47.608013,"lng":-122.335167},"status":"surplus"},{"frame_index":270,"name":"ports_16","capacity":10000,"empty":2861,"full":1283,"on_shipper":173,"on_consignee":255,"shortage":0,"acc_shortage":0,"booking":152,"acc_booking":21208,"fulfillment":152,"acc_fulfillment":21208,"transfer_cost":0.0,"port_name":"Shanghai","position":{"lat":31.224361,"lng":121.46917},"status":"surplus"},{"frame_index":270,"name":"ports_17","capacity":10000,"empty":1223,"full":490,"on_shipper":99,"on_consignee":0,"shortage":0,"acc_shortage":40,"booking":56,"acc_booking":8574,"fulfillment":56,"acc_fulfillment":8534,"transfer_cost":0.0,"port_name":"Singapore","position":{"lat":1.29027,"lng":103.851959},"status":"surplus"},{"frame_index":270,"name":"ports_18","capacity":10000,"empty":133,"full":258,"on_shipper":42,"on_consignee":0,"shortage":0,"acc_shortage":5,"booking":22,"acc_booking":3271,"fulfillment":22,"acc_fulfillment":3266,"transfer_cost":0.0,"port_name":"Sydney","position":{"lat":-33.865143,"lng":151.2099},"status":"balance"},{"frame_index":270,"name":"ports_19","capacity":10000,"empty":842,"full":309,"on_shipper":53,"on_consignee":0,"shortage":0,"acc_shortage":0,"booking":29,"acc_booking":4372,"fulfillment":29,"acc_fulfillment":4372,"transfer_cost":0.0,"port_name":"Vancouver","position":{"lat":49.246292,"lng":-123.116226},"status":"surplus"},{"frame_index":270,"name":"ports_20","capacity":10000,"empty":1796,"full":738,"on_shipper":146,"on_consignee":441,"shortage":0,"acc_shortage":0,"booking":102,"acc_booking":14662,"fulfillment":102,"acc_fulfillment":14662,"transfer_cost":0.0,"port_name":"Yantian","position":{"lat":26.8533,"lng":119.8575},"status":"surplus"},{"frame_index":270,"name":"ports_21","capacity":10000,"empty":725,"full":1308,"on_shipper":201,"on_consignee":0,"shortage":0,"acc_shortage":492,"booking":106,"acc_booking":14001,"fulfillment":106,"acc_fulfillment":13509,"transfer_cost":0.0,"port_name":"Yokohama","position":{"lat":35.443707,"lng":139.638031},"status":"surplus"}]