[{"frame_index":372,"name":"ports_0","capacity":10000,"empty":4461,"full":1666,"on_shipper":76,"on_consignee":0,"shortage":0,"acc_shortage":522,"booking":22,"acc_booking":45834,"fulfillment":22,"acc_fulfillment":45312,"transfer_cost":0.0,"port_name":"Bremerhaven","position":{"lat":53.549999,"lng":8.583333},"status":"surplus"},{"frame_index":372,"name":"ports_1","capacity":10000,"empty":289,"full":235,"on_shipper":4,"on_consignee":0,"shortage":0,"acc_shortage":0,"booking":2,"acc_booking":3058,"fulfillment":2,"acc_fulfillment":3058,"transfer_cost":0.0,"port_name":"Durban","position":{"lat":-29.8579,"lng":31.0292},"status":"surplus"},{"frame_index":372,"name":"ports_2","capacity":10000,"empty":702,"full":33,"on_shipper":4,"on_consignee":0,"shortage":0,"acc_shortage":233,"booking":2,"acc_booking":3044,"fulfillment":2,"acc_fulfillment":2811,"transfer_cost":0.0,"port_name":"Itagual","position":{"lat":-22.85222,"lng":-43.77528},"status":"surplus"},{"frame_index":372,"name":"ports_3","capacity":10000,"empty":1759,"full":744,"on_shipper":18,"on_consignee":0,"shortage":0,"acc_shortage":0,"booking":10,"acc_booking":17399,"fulfillment":10,"acc_fulfillment":17399,"transfer_cost":0.0,"port_name":"LeHavre","position":{"lat":49.490002,"lng":0.1},"status":"surplus"},{"frame_index":372,"name":"ports_4","capacity":10000,"empty":2767,"full":476,"on_shipper":17,"on_consignee":0,"shortage":0,"acc_shortage":0,"booking":8,"acc_booking":14527,"fulfillment":8,"acc_fulfillment":14527,"transfer_cost":0.0,"port_name":"Los Angeles","position":{"lat":34.052235,"lng":-118.243683},"status":"surplus"},{"frame_index":372,"name":"ports_5","capacity":10000,"empty":2331,"full":236,"on_shipper":13,"on_consignee":0,"shortage":0,"acc_shortage":123,"booking":9,"acc_booking":14568,"fulfillment":9,"acc_fulfillment":14445,"transfer_cost":0.0,"port_name":"Manzanillo","position":{"lat":19.11695,"lng":-104.34214},"status":"surplus"},{"frame_index":372,"name":"ports_6","capacity":10000,"empty":194,"full":246,"on_shipper":7,"on_consignee":0,"shortage":0,"acc_shortage":340,"booking":3,"acc_booking":4474,"fulfillment":3,"acc_fulfillment":4134,"transfer_cost":0.0,"port_name":"Melbourne","position":{"lat":-37.840935,"lng":144.946457},"status":"surplus"},{"frame_index":372,"name":"ports_7","capacity":10000,"empty":2602,"full":131,"on_shipper":5,"on_consignee":0,"shortage":0,"acc_shortage":0,"booking":3,"acc_booking":4483,"fulfillment":3,"acc_fulfillment":4483,"transfer_cost":0.0,"port_name":"Montreal","position":{"lat":45.516136,"lng":-73.65683},"status":"surplus"},{"frame_index":372,"name":"ports_8","capacity":10000,"empty":1714,"full":353,"on_shipper":9,"on_consignee":0,"shortage":0,"acc_shortage":0,"booking":5,"acc_booking":8746,"fulfillment":5,"acc_fulfillment":8746,"transfer_cost":0.0,"port_name":"New York","position":{"lat":40.73061,"lng":-73.935242},"status":"surplus"},{"frame_index":372,"name":"ports_9","capacity":10000,"empty":237,"full":1500,"on_shipper":8,"on_consignee":0,"shortage":0,"acc_shortage":0,"booking":5,"acc_booking":8709,"fulfillment":5,"acc_fulfillment":8709,"transfer_cost":0.0,"port_name":"Oakland","position":{"lat":37.804363,"lng":-122.271111},"status":"surplus"},{"frame_index":372,"name":"ports_10","capacity":10000,"empty":1233,"full":279,"on_shipper":3,"on_consignee":0,"shortage":0,"acc_shortage":0,"booking":3,"acc_booking":4470,"fulfillment":3,"acc_fulfillment":4470,"transfer_cost":0.0,"port_name":"Prince Rupert","position":{"lat":54.312519,"lng":-130.305405},"status":"surplus"},{"frame_index":372,"name":"ports_11","capacity":10000,"empty":1673,"full":630,"on_shipper":19,"on_consignee":0,"shortage":0,"acc_shortage":0,"booking":10,"acc_booking":17328,"fulfillment":10,"acc_fulfillment":17328,"transfer_cost":0.0,"port_name":"Pusan","position":{"lat":35.166668,"lng":129.066666},"status":"surplus"},{"frame_index":372,"name":"ports_12","capacity":10000,"empty":1036,"full":1613,"on_shipper":27,"on_consignee":0,"shortage":0,"acc_shortage":0,"booking":14,"acc_booking":23169,"fulfillment":14,"acc_fulfillment":23169,"transfer_cost":0.0,"port_name":"Qingdao","position":{"lat":36.066898,"lng":120.382698},"status":"surplus"},{"frame_index":372,"name":"ports_13","capacity":10000,"empty":286,"full":83,"on_shipper":6,"on_consignee":0,"shortage":0,"acc_shortage":123,"booking":2,"acc_booking":3035,"fulfillment":2,"acc_fulfillment":2912,"transfer_cost":0.0,"port_name":"San Antonio","position":{"lat":29.424349,"lng":-98.491142},"status":"surplus"},{"frame_index":372,"name":"ports_14","capacity":10000,"empty":673,"full":225,"on_shipper":5,"on_consignee":0,"shortage":0,"acc_shortage":697,"booking":2,"acc_booking":3091,"fulfillment":2,"acc_fulfillment":2394,"transfer_cost":0.0,"port_name":"Santos","position":{"lat":-23.96083,"lng":-46.33361},"status":"surplus"},{"frame_index":372,"name":"ports_15","capacity":10000,"empty":5177,"full":918,"on_shipper":26,"on_consignee":0,"shortage":0,"acc_shortage":0,"booking":12,"acc_booking":20233,"fulfillment":12,"acc_fulfillment":20233,"transfer_cost":0.0,"port_name":"Seattle","position":{"lat":47.608013,"lng":-122.335167},"status":"surplus"},{"frame_index":372,"name":"ports_16","capacity":10000,"empty":3002,"full":1504,"on_shipper":47,"on_consignee":0,"shortage":0,"acc_shortage":0,"booking":18,"acc_booking":28901,"fulfillment":18,"acc_fulfillment":28901,"transfer_cost":0.0,"port_name":"Shanghai","position":{"lat":31.224361,"lng":121.46917},"status":"surplus"},{"frame_index":372,"name":"ports_17","capacity":10000,"empty":2465,"full":360,"on_shipper":15,"on_consignee":31,"shortage":0,"acc_shortage":40,"booking":7,"acc_booking":11658,"fulfillment":7,"acc_fulfillment":11618,"transfer_cost":24.0,"port_name":"Singapore","position":{"lat":1.29027,"lng":103.851959},"status":"surplus"},{"frame_index":372,"name":"ports_18","capacity":10000,"empty":334,"full":79,"on_shipper":3,"on_consignee":0,"shortage":0,"acc_shortage":419,"booking":3,"acc_booking":4447,"fulfillment":3,"acc_fulfillment":4028,"transfer_cost":0.0,"port_name":"Sydney","position":{"lat":-33.865143,"lng":151.2099},"status":"surplus"},{"frame_index":372,"name":"ports_19","capacity":10000,"empty":1011,"full":62,"on_shipper":11,"on_consignee":0,"shortage":0,"acc_shortage":0,"booking":3,"acc_booking":5945,"fulfillment":3,"acc_fulfillment":5945,"transfer_cost":0.0,"port_name":"Vancouver","position":{"lat":49.246292,"lng":-123.116226},"status":"surplus"},{"frame_index":372,"name":"ports_20","capacity":10000,"empty":2127,"full":1159,"on_shipper":19,"on_consignee":9,"shortage":0,"acc_shortage":0,"booking":12,"acc_booking":20036,"fulfillment":12,"acc_fulfillment":20036,"transfer_cost":4.0,"port_name":"Yantian","position":{"lat":26.8533,"lng":119.8575},"status":"surplus"},{"frame_index":372,"name":"ports_21","capacity":10000,"empty":884,"full":888,"on_shipper":14,"on_consignee":0,"shortage":0,"acc_shortage":1887,"booking":4,"acc_booking":18992,"fulfillment":4,"acc_fulfillment":17105,"transfer_cost":0.0,"port_name":"Yokohama","position":{"lat":35.443707,"lng":139.638031},"status":"surplus"}]