[{"frame_index":565,"name":"ports_0","capacity":10000,"empty":6381,"full":483,"on_shipper":101,"on_consignee":0,"shortage":0,"acc_shortage":522,"booking":63,"acc_booking":71623,"fulfillment":63,"acc_fulfillment":71101,"transfer_cost":0.0,"port_name":"Bremerhaven","position":{"lat":53.549999,"lng":8.583333},"status":"surplus"},{"frame_index":565,"name":"ports_1","capacity":10000,"empty":383,"full":208,"on_shipper":7,"on_consignee":0,"shortage":0,"acc_shortage":0,"booking":4,"acc_booking":4777,"fulfillment":4,"acc_fulfillment":4777,"transfer_cost":0.0,"port_name":"Durban","position":{"lat":-29.8579,"lng":31.0292},"status":"surplus"},{"frame_index":565,"name":"ports_2","capacity":10000,"empty":310,"full":70,"on_shipper":5,"on_consignee":0,"shortage":0,"acc_shortage":233,"booking":4,"acc_booking":4751,"fulfillment":4,"acc_fulfillment":4518,"transfer_cost":0.0,"port_name":"Itagual","position":{"lat":-22.85222,"lng":-43.77528},"status":"surplus"},{"frame_index":565,"name":"ports_3","capacity":10000,"empty":705,"full":1579,"on_shipper":29,"on_consignee":0,"shortage":0,"acc_shortage":0,"booking":20,"acc_booking":27150,"fulfillment":20,"acc_fulfillment":27150,"transfer_cost":0.0,"port_name":"LeHavre","position":{"lat":49.490002,"lng":0.1},"status":"surplus"},{"frame_index":565,"name":"ports_4","capacity":10000,"empty":1576,"full":253,"on_shipper":26,"on_consignee":0,"shortage":0,"acc_shortage":0,"booking":17,"acc_booking":22707,"fulfillment":17,"acc_fulfillment":22707,"transfer_cost":0.0,"port_name":"Los Angeles","position":{"lat":34.052235,"lng":-118.243683},"status":"surplus"},{"frame_index":565,"name":"ports_5","capacity":10000,"empty":2055,"full":351,"on_shipper":27,"on_consignee":0,"shortage":0,"acc_shortage":123,"booking":18,"acc_booking":22748,"fulfillment":18,"acc_fulfillment":22625,"transfer_cost":0.0,"port_name":"Manzanillo","position":{"lat":19.11695,"lng":-104.34214},"status":"surplus"},{"frame_index":565,"name":"ports_6","capacity":10000,"empty":521,"full":41,"on_shipper":6,"on_consignee":0,"shortage":0,"acc_shortage":1259,"booking":6,"acc_booking":6993,"fulfillment":6,"acc_fulfillment":5734,"transfer_cost":0.0,"port_name":"Melbourne","position":{"lat":-37.840935,"lng":144.946457},"status":"surplus"},{"frame_index":565,"name":"ports_7","capacity":10000,"empty":1531,"full":141,"on_shipper":10,"on_consignee":0,"shortage":0,"acc_shortage":0,"booking":6,"acc_booking":6996,"fulfillment":6,"acc_fulfillment":6996,"transfer_cost":0.0,"port_name":"Montreal","position":{"lat":45.516136,"lng":-73.65683},"status":"surplus"},{"frame_index":565,"name":"ports_8","capacity":10000,"empty":1994,"full":138,"on_shipper":16,"on_consignee":0,"shortage":0,"acc_shortage":0,"booking":11,"acc_booking":13673,"fulfillment":11,"acc_fulfillment":13673,"transfer_cost":0.0,"port_name":"New York","position":{"lat":40.73061,"lng":-73.935242},"status":"surplus"},{"frame_index":565,"name":"ports_9","capacity":10000,"empty":687,"full":59,"on_shipper":19,"on_consignee":0,"shortage":0,"acc_shortage":45,"booking":11,"acc_booking":13700,"fulfillment":11,"acc_fulfillment":13655,"transfer_cost":0.0,"port_name":"Oakland","position":{"lat":37.804363,"lng":-122.271111},"status":"surplus"},{"frame_index":565,"name":"ports_10","capacity":10000,"empty":912,"full":145,"on_shipper":8,"on_consignee":0,"shortage":0,"acc_shortage":314,"booking":6,"acc_booking":7012,"fulfillment":6,"acc_fulfillment":6698,"transfer_cost":0.0,"port_name":"Prince Rupert","position":{"lat":54.312519,"lng":-130.305405},"status":"surplus"},{"frame_index":565,"name":"ports_11","capacity":10000,"empty":285,"full":209,"on_shipper":33,"on_consignee":40,"shortage":0,"acc_shortage":204,"booking":21,"acc_booking":27097,"fulfillment":21,"acc_fulfillment":26893,"transfer_cost":0.0,"port_name":"Pusan","position":{"lat":35.166668,"lng":129.066666},"status":"surplus"},{"frame_index":565,"name":"ports_12","capacity":10000,"empty":3147,"full":680,"on_shipper":39,"on_consignee":0,"shortage":0,"acc_shortage":0,"booking":27,"acc_booking":36245,"fulfillment":27,"acc_fulfillment":36245,"transfer_cost":0.0,"port_name":"Qingdao","position":{"lat":36.066898,"lng":120.382698},"status":"surplus"},{"frame_index":565,"name":"ports_13","capacity":10000,"empty":128,"full":256,"on_shipper":7,"on_consignee":0,"shortage":0,"acc_shortage":286,"booking":4,"acc_booking":4744,"fulfillment":4,"acc_fulfillment":4458,"transfer_cost":0.0,"port_name":"San Antonio","position":{"lat":29.424349,"lng":-98.491142},"status":"surplus"},{"frame_index":565,"name":"ports_14","capacity":10000,"empty":454,"full":42,"on_shipper":6,"on_consignee":0,"shortage":0,"acc_shortage":762,"booking":4,"acc_booking":4793,"fulfillment":4,"acc_fulfillment":4031,"transfer_cost":0.0,"port_name":"Santos","position":{"lat":-23.96083,"lng":-46.33361},"status":"surplus"},{"frame_index":565,"name":"ports_15","capacity":10000,"empty":2362,"full":2405,"on_shipper":43,"on_consignee":0,"shortage":0,"acc_shortage":0,"booking":24,"acc_booking":31624,"fulfillment":24,"acc_fulfillment":31624,"transfer_cost":0.0,"port_name":"Seattle","position":{"lat":47.608013,"lng":-122.335167},"status":"surplus"},{"frame_index":565,"name":"ports_16","capacity":10000,"empty":213,"full":2405,"on_shipper":60,"on_consignee":40,"shortage":0,"acc_shortage":470,"booking":33,"acc_booking":45125,"fulfillment":33,"acc_fulfillment":44655,"transfer_cost":0.0,"port_name":"Shanghai","position":{"lat":31.224361,"lng":121.46917},"status":"balance"},{"frame_index":565,"name":"ports_17","capacity":10000,"empty":985,"full":506,"on_shipper":19,"on_consignee":29,"shortage":0,"acc_shortage":40,"booking":14,"acc_booking":18223,"fulfillment":14,"acc_fulfillment":18183,"transfer_cost":31.0,"port_name":"Singapore","position":{"lat":1.29027,"lng":103.851959},"status":"surplus"},{"frame_index":565,"name":"ports_18","capacity":10000,"empty":699,"full":112,"on_shipper":8,"on_consignee":0,"shortage":0,"acc_shortage":957,"booking":6,"acc_booking":6966,"fulfillment":6,"acc_fulfillment":6009,"transfer_cost":0.0,"port_name":"Sydney","position":{"lat":-33.865143,"lng":151.2099},"status":"surplus"},{"frame_index":565,"name":"ports_19","capacity":10000,"empty":923,"full":252,"on_shipper":12,"on_consignee":0,"shortage":0,"acc_shortage":0,"booking":8,"acc_booking":9300,"fulfillment":8,"acc_fulfillment":9300,"transfer_cost":0.0,"port_name":"Vancouver","position":{"lat":49.246292,"lng":-123.116226},"status":"surplus"},{"frame_index":565,"name":"ports_20","capacity":10000,"empty":988,"full":1654,"on_shipper":35,"on_consignee":0,"shortage":0,"acc_shortage":395,"booking":22,"acc_booking":31428,"fulfillment":22,"acc_fulfillment":31033,"transfer_cost":0.0,"port_name":"Yantian","position":{"lat":26.8533,"lng":119.8575},"status":"surplus"},{"frame_index":565,"name":"ports_21","capacity":10000,"empty":1145,"full":139,"on_shipper":30,"on_consignee":0,"shortage":0,"acc_shortage":3258,"booking":17,"acc_booking":29906,"fulfillment":17,"acc_fulfillment":26648,"transfer_cost":0.0,"port_name":"Yokohama","position":{"lat":35.443707,"lng":139.638031},"status":"surplus"}]