[{"frame_index":367,"name":"ports_0","capacity":10000,"empty":4939,"full":1058,"on_shipper":206,"on_consignee":0,"shortage":0,"acc_shortage":522,"booking":164,"acc_booking":45356,"fulfillment":164,"acc_fulfillment":44834,"transfer_cost":0.0,"port_name":"Bremerhaven","position":{"lat":53.549999,"lng":8.583333},"status":"surplus"},{"frame_index":367,"name":"ports_1","capacity":10000,"empty":320,"full":194,"on_shipper":14,"on_consignee":0,"shortage":0,"acc_shortage":0,"booking":14,"acc_booking":3027,"fulfillment":14,"acc_fulfillment":3027,"transfer_cost":0.0,"port_name":"Durban","position":{"lat":-29.8579,"lng":31.0292},"status":"surplus"},{"frame_index":367,"name":"ports_2","capacity":10000,"empty":663,"full":48,"on_shipper":19,"on_consignee":0,"shortage":0,"acc_shortage":233,"booking":13,"acc_booking":3011,"fulfillment":13,"acc_fulfillment":2778,"transfer_cost":0.0,"port_name":"Itagual","position":{"lat":-22.85222,"lng":-43.77528},"status":"surplus"},{"frame_index":367,"name":"ports_3","capacity":10000,"empty":1940,"full":473,"on_shipper":108,"on_consignee":0,"shortage":0,"acc_shortage":0,"booking":76,"acc_booking":17218,"fulfillment":76,"acc_fulfillment":17218,"transfer_cost":0.0,"port_name":"LeHavre","position":{"lat":49.490002,"lng":0.1},"status":"surplus"},{"frame_index":367,"name":"ports_4","capacity":10000,"empty":2917,"full":225,"on_shipper":118,"on_consignee":0,"shortage":0,"acc_shortage":0,"booking":61,"acc_booking":14377,"fulfillment":61,"acc_fulfillment":14377,"transfer_cost":0.0,"port_name":"Los Angeles","position":{"lat":34.052235,"lng":-118.243683},"status":"surplus"},{"frame_index":367,"name":"ports_5","capacity":10000,"empty":2424,"full":0,"on_shipper":93,"on_consignee":63,"shortage":0,"acc_shortage":123,"booking":59,"acc_booking":14412,"fulfillment":59,"acc_fulfillment":14289,"transfer_cost":148.0,"port_name":"Manzanillo","position":{"lat":19.11695,"lng":-104.34214},"status":"surplus"},{"frame_index":367,"name":"ports_6","capacity":10000,"empty":240,"full":181,"on_shipper":26,"on_consignee":0,"shortage":0,"acc_shortage":340,"booking":19,"acc_booking":4428,"fulfillment":19,"acc_fulfillment":4088,"transfer_cost":0.0,"port_name":"Melbourne","position":{"lat":-37.840935,"lng":144.946457},"status":"surplus"},{"frame_index":367,"name":"ports_7","capacity":10000,"empty":2649,"full":62,"on_shipper":27,"on_consignee":0,"shortage":0,"acc_shortage":0,"booking":19,"acc_booking":4436,"fulfillment":19,"acc_fulfillment":4436,"transfer_cost":0.0,"port_name":"Montreal","position":{"lat":45.516136,"lng":-73.65683},"status":"surplus"},{"frame_index":367,"name":"ports_8","capacity":10000,"empty":1806,"full":231,"on_shipper":39,"on_consignee":0,"shortage":0,"acc_shortage":0,"booking":39,"acc_booking":8654,"fulfillment":39,"acc_fulfillment":8654,"transfer_cost":0.0,"port_name":"New York","position":{"lat":40.73061,"lng":-73.935242},"status":"surplus"},{"frame_index":367,"name":"ports_9","capacity":10000,"empty":333,"full":1357,"on_shipper":55,"on_consignee":0,"shortage":0,"acc_shortage":0,"booking":40,"acc_booking":8613,"fulfillment":40,"acc_fulfillment":8613,"transfer_cost":0.0,"port_name":"Oakland","position":{"lat":37.804363,"lng":-122.271111},"status":"surplus"},{"frame_index":367,"name":"ports_10","capacity":10000,"empty":1278,"full":214,"on_shipper":23,"on_consignee":0,"shortage":0,"acc_shortage":0,"booking":17,"acc_booking":4425,"fulfillment":17,"acc_fulfillment":4425,"transfer_cost":0.0,"port_name":"Prince Rupert","position":{"lat":54.312519,"lng":-130.305405},"status":"surplus"},{"frame_index":367,"name":"ports_11","capacity":10000,"empty":1849,"full":358,"on_shipper":115,"on_consignee":0,"shortage":0,"acc_shortage":0,"booking":78,"acc_booking":17152,"fulfillment":78,"acc_fulfillment":17152,"transfer_cost":0.0,"port_name":"Pusan","position":{"lat":35.166668,"lng":129.066666},"status":"surplus"},{"frame_index":367,"name":"ports_12","capacity":10000,"empty":1275,"full":1218,"on_shipper":183,"on_consignee":0,"shortage":0,"acc_shortage":0,"booking":106,"acc_booking":22930,"fulfillment":106,"acc_fulfillment":22930,"transfer_cost":0.0,"port_name":"Qingdao","position":{"lat":36.066898,"lng":120.382698},"status":"surplus"},{"frame_index":367,"name":"ports_13","capacity":10000,"empty":318,"full":38,"on_shipper":19,"on_consignee":0,"shortage":0,"acc_shortage":123,"booking":12,"acc_booking":3003,"fulfillment":12,"acc_fulfillment":2880,"transfer_cost":0.0,"port_name":"San Antonio","position":{"lat":29.424349,"lng":-98.491142},"status":"surplus"},{"frame_index":367,"name":"ports_14","capacity":10000,"empty":706,"full":175,"on_shipper":22,"on_consignee":0,"shortage":0,"acc_shortage":697,"booking":11,"acc_booking":3058,"fulfillment":11,"acc_fulfillment":2361,"transfer_cost":0.0,"port_name":"Santos","position":{"lat":-23.96083,"lng":-46.33361},"status":"surplus"},{"frame_index":367,"name":"ports_15","capacity":10000,"empty":5388,"full":592,"on_shipper":141,"on_consignee":0,"shortage":0,"acc_shortage":0,"booking":87,"acc_booking":20022,"fulfillment":87,"acc_fulfillment":20022,"transfer_cost":0.0,"port_name":"Seattle","position":{"lat":47.608013,"lng":-122.335167},"status":"surplus"},{"frame_index":367,"name":"ports_16","capacity":10000,"empty":2843,"full":1282,"on_shipper":222,"on_consignee":113,"shortage":0,"acc_shortage":0,"booking":145,"acc_booking":28600,"fulfillment":145,"acc_fulfillment":28600,"transfer_cost":0.0,"port_name":"Shanghai","position":{"lat":31.224361,"lng":121.46917},"status":"surplus"},{"frame_index":367,"name":"ports_17","capacity":10000,"empty":2437,"full":366,"on_shipper":83,"on_consignee":0,"shortage":0,"acc_shortage":40,"booking":50,"acc_booking":11536,"fulfillment":50,"acc_fulfillment":11496,"transfer_cost":0.0,"port_name":"Singapore","position":{"lat":1.29027,"lng":103.851959},"status":"surplus"},{"frame_index":367,"name":"ports_18","capacity":10000,"empty":0,"full":356,"on_shipper":24,"on_consignee":0,"shortage":3,"acc_shortage":380,"booking":20,"acc_booking":4405,"fulfillment":17,"acc_fulfillment":4025,"transfer_cost":0.0,"port_name":"Sydney","position":{"lat":-33.865143,"lng":151.2099},"status":"demand"},{"frame_index":367,"name":"ports_19","capacity":10000,"empty":917,"full":221,"on_shipper":39,"on_consignee":0,"shortage":0,"acc_shortage":0,"booking":23,"acc_booking":5885,"fulfillment":23,"acc_fulfillment":5885,"transfer_cost":0.0,"port_name":"Vancouver","position":{"lat":49.246292,"lng":-123.116226},"status":"surplus"},{"frame_index":367,"name":"ports_20","capacity":10000,"empty":2290,"full":933,"on_shipper":134,"on_consignee":33,"shortage":0,"acc_shortage":0,"booking":97,"acc_booking":19836,"fulfillment":97,"acc_fulfillment":19836,"transfer_cost":0.0,"port_name":"Yantian","position":{"lat":26.8533,"lng":119.8575},"status":"surplus"},{"frame_index":367,"name":"ports_21","capacity":10000,"empty":835,"full":853,"on_shipper":128,"on_consignee":0,"shortage":0,"acc_shortage":1887,"booking":86,"acc_booking":18805,"fulfillment":86,"acc_fulfillment":16918,"transfer_cost":0.0,"port_name":"Yokohama","position":{"lat":35.443707,"lng":139.638031},"status":"surplus"}]