[{"frame_index":323,"name":"ports_0","capacity":10000,"empty":3576,"full":2127,"on_shipper":152,"on_consignee":0,"shortage":0,"acc_shortage":522,"booking":98,"acc_booking":41958,"fulfillment":98,"acc_fulfillment":41436,"transfer_cost":0.0,"port_name":"Bremerhaven","position":{"lat":53.549999,"lng":8.583333},"status":"surplus"},{"frame_index":323,"name":"ports_1","capacity":10000,"empty":461,"full":206,"on_shipper":9,"on_consignee":0,"shortage":0,"acc_shortage":0,"booking":7,"acc_booking":2791,"fulfillment":7,"acc_fulfillment":2791,"transfer_cost":0.0,"port_name":"Durban","position":{"lat":-29.8579,"lng":31.0292},"status":"surplus"},{"frame_index":323,"name":"ports_2","capacity":10000,"empty":461,"full":500,"on_shipper":10,"on_consignee":0,"shortage":0,"acc_shortage":233,"booking":7,"acc_booking":2773,"fulfillment":7,"acc_fulfillment":2540,"transfer_cost":0.0,"port_name":"Itagual","position":{"lat":-22.85222,"lng":-43.77528},"status":"surplus"},{"frame_index":323,"name":"ports_3","capacity":10000,"empty":1615,"full":601,"on_shipper":53,"on_consignee":0,"shortage":0,"acc_shortage":0,"booking":40,"acc_booking":15912,"fulfillment":40,"acc_fulfillment":15912,"transfer_cost":0.0,"port_name":"LeHavre","position":{"lat":49.490002,"lng":0.1},"status":"surplus"},{"frame_index":323,"name":"ports_4","capacity":10000,"empty":38,"full":1021,"on_shipper":42,"on_consignee":1155,"shortage":0,"acc_shortage":0,"booking":33,"acc_booking":13289,"fulfillment":33,"acc_fulfillment":13289,"transfer_cost":154.0,"port_name":"Los Angeles","position":{"lat":34.052235,"lng":-118.243683},"status":"demand"},{"frame_index":323,"name":"ports_5","capacity":10000,"empty":1028,"full":211,"on_shipper":45,"on_consignee":0,"shortage":0,"acc_shortage":123,"booking":30,"acc_booking":13326,"fulfillment":30,"acc_fulfillment":13203,"transfer_cost":0.0,"port_name":"Manzanillo","position":{"lat":19.11695,"lng":-104.34214},"status":"surplus"},{"frame_index":323,"name":"ports_6","capacity":10000,"empty":172,"full":107,"on_shipper":14,"on_consignee":0,"shortage":0,"acc_shortage":340,"booking":10,"acc_booking":4084,"fulfillment":10,"acc_fulfillment":3744,"transfer_cost":0.0,"port_name":"Melbourne","position":{"lat":-37.840935,"lng":144.946457},"status":"surplus"},{"frame_index":323,"name":"ports_7","capacity":10000,"empty":1790,"full":83,"on_shipper":10,"on_consignee":0,"shortage":0,"acc_shortage":0,"booking":10,"acc_booking":4091,"fulfillment":10,"acc_fulfillment":4091,"transfer_cost":0.0,"port_name":"Montreal","position":{"lat":45.516136,"lng":-73.65683},"status":"surplus"},{"frame_index":323,"name":"ports_8","capacity":10000,"empty":443,"full":838,"on_shipper":20,"on_consignee":0,"shortage":0,"acc_shortage":0,"booking":20,"acc_booking":7995,"fulfillment":20,"acc_fulfillment":7995,"transfer_cost":0.0,"port_name":"New York","position":{"lat":40.73061,"lng":-73.935242},"status":"surplus"},{"frame_index":323,"name":"ports_9","capacity":10000,"empty":992,"full":725,"on_shipper":28,"on_consignee":0,"shortage":0,"acc_shortage":0,"booking":22,"acc_booking":7954,"fulfillment":22,"acc_fulfillment":7954,"transfer_cost":0.0,"port_name":"Oakland","position":{"lat":37.804363,"lng":-122.271111},"status":"surplus"},{"frame_index":323,"name":"ports_10","capacity":10000,"empty":509,"full":1104,"on_shipper":16,"on_consignee":0,"shortage":0,"acc_shortage":0,"booking":12,"acc_booking":4080,"fulfillment":12,"acc_fulfillment":4080,"transfer_cost":0.0,"port_name":"Prince Rupert","position":{"lat":54.312519,"lng":-130.305405},"status":"surplus"},{"frame_index":323,"name":"ports_11","capacity":10000,"empty":1874,"full":346,"on_shipper":56,"on_consignee":0,"shortage":0,"acc_shortage":0,"booking":40,"acc_booking":15853,"fulfillment":40,"acc_fulfillment":15853,"transfer_cost":0.0,"port_name":"Pusan","position":{"lat":35.166668,"lng":129.066666},"status":"surplus"},{"frame_index":323,"name":"ports_12","capacity":10000,"empty":2521,"full":1265,"on_shipper":70,"on_consignee":0,"shortage":0,"acc_shortage":0,"booking":53,"acc_booking":21187,"fulfillment":53,"acc_fulfillment":21187,"transfer_cost":0.0,"port_name":"Qingdao","position":{"lat":36.066898,"lng":120.382698},"status":"surplus"},{"frame_index":323,"name":"ports_13","capacity":10000,"empty":688,"full":80,"on_shipper":11,"on_consignee":0,"shortage":0,"acc_shortage":123,"booking":8,"acc_booking":2772,"fulfillment":8,"acc_fulfillment":2649,"transfer_cost":0.0,"port_name":"San Antonio","position":{"lat":29.424349,"lng":-98.491142},"status":"surplus"},{"frame_index":323,"name":"ports_14","capacity":10000,"empty":726,"full":57,"on_shipper":7,"on_consignee":0,"shortage":0,"acc_shortage":697,"booking":7,"acc_booking":2824,"fulfillment":7,"acc_fulfillment":2127,"transfer_cost":0.0,"port_name":"Santos","position":{"lat":-23.96083,"lng":-46.33361},"status":"surplus"},{"frame_index":323,"name":"ports_15","capacity":10000,"empty":4609,"full":217,"on_shipper":61,"on_consignee":194,"shortage":0,"acc_shortage":0,"booking":47,"acc_booking":18490,"fulfillment":47,"acc_fulfillment":18490,"transfer_cost":0.0,"port_name":"Seattle","position":{"lat":47.608013,"lng":-122.335167},"status":"surplus"},{"frame_index":323,"name":"ports_16","capacity":10000,"empty":817,"full":651,"on_shipper":62,"on_consignee":350,"shortage":0,"acc_shortage":0,"booking":56,"acc_booking":26397,"fulfillment":56,"acc_fulfillment":26397,"transfer_cost":1.0,"port_name":"Shanghai","position":{"lat":31.224361,"lng":121.46917},"status":"surplus"},{"frame_index":323,"name":"ports_17","capacity":10000,"empty":2827,"full":544,"on_shipper":35,"on_consignee":1,"shortage":0,"acc_shortage":40,"booking":27,"acc_booking":10659,"fulfillment":27,"acc_fulfillment":10619,"transfer_cost":0.0,"port_name":"Singapore","position":{"lat":1.29027,"lng":103.851959},"status":"surplus"},{"frame_index":323,"name":"ports_18","capacity":10000,"empty":298,"full":24,"on_shipper":12,"on_consignee":46,"shortage":0,"acc_shortage":377,"booking":10,"acc_booking":4058,"fulfillment":10,"acc_fulfillment":3681,"transfer_cost":0.0,"port_name":"Sydney","position":{"lat":-33.865143,"lng":151.2099},"status":"surplus"},{"frame_index":323,"name":"ports_19","capacity":10000,"empty":221,"full":505,"on_shipper":20,"on_consignee":73,"shortage":0,"acc_shortage":0,"booking":14,"acc_booking":5430,"fulfillment":14,"acc_fulfillment":5430,"transfer_cost":0.0,"port_name":"Vancouver","position":{"lat":49.246292,"lng":-123.116226},"status":"surplus"},{"frame_index":323,"name":"ports_20","capacity":10000,"empty":580,"full":528,"on_shipper":57,"on_consignee":54,"shortage":0,"acc_shortage":0,"booking":49,"acc_booking":18299,"fulfillment":49,"acc_fulfillment":18299,"transfer_cost":0.0,"port_name":"Yantian","position":{"lat":26.8533,"lng":119.8575},"status":"surplus"},{"frame_index":323,"name":"ports_21","capacity":10000,"empty":1420,"full":1552,"on_shipper":43,"on_consignee":0,"shortage":0,"acc_shortage":1887,"booking":40,"acc_booking":17557,"fulfillment":40,"acc_fulfillment":15670,"transfer_cost":0.0,"port_name":"Yokohama","position":{"lat":35.443707,"lng":139.638031},"status":"surplus"}]