[{"frame_index":354,"name":"ports_0","capacity":10000,"empty":5519,"full":1637,"on_shipper":212,"on_consignee":0,"shortage":0,"acc_shortage":522,"booking":130,"acc_booking":43869,"fulfillment":130,"acc_fulfillment":43347,"transfer_cost":0.0,"port_name":"Bremerhaven","position":{"lat":53.549999,"lng":8.583333},"status":"surplus"},{"frame_index":354,"name":"ports_1","capacity":10000,"empty":424,"full":95,"on_shipper":9,"on_consignee":0,"shortage":0,"acc_shortage":0,"booking":8,"acc_booking":2923,"fulfillment":8,"acc_fulfillment":2923,"transfer_cost":0.0,"port_name":"Durban","position":{"lat":-29.8579,"lng":31.0292},"status":"surplus"},{"frame_index":354,"name":"ports_2","capacity":10000,"empty":326,"full":635,"on_shipper":10,"on_consignee":0,"shortage":0,"acc_shortage":233,"booking":7,"acc_booking":2908,"fulfillment":7,"acc_fulfillment":2675,"transfer_cost":0.0,"port_name":"Itagual","position":{"lat":-22.85222,"lng":-43.77528},"status":"surplus"},{"frame_index":354,"name":"ports_3","capacity":10000,"empty":2829,"full":307,"on_shipper":58,"on_consignee":0,"shortage":0,"acc_shortage":0,"booking":45,"acc_booking":16635,"fulfillment":45,"acc_fulfillment":16635,"transfer_cost":0.0,"port_name":"LeHavre","position":{"lat":49.490002,"lng":0.1},"status":"surplus"},{"frame_index":354,"name":"ports_4","capacity":10000,"empty":587,"full":1627,"on_shipper":42,"on_consignee":0,"shortage":0,"acc_shortage":0,"booking":36,"acc_booking":13895,"fulfillment":36,"acc_fulfillment":13895,"transfer_cost":0.0,"port_name":"Los Angeles","position":{"lat":34.052235,"lng":-118.243683},"status":"surplus"},{"frame_index":354,"name":"ports_5","capacity":10000,"empty":2328,"full":0,"on_shipper":60,"on_consignee":267,"shortage":0,"acc_shortage":123,"booking":34,"acc_booking":13927,"fulfillment":34,"acc_fulfillment":13804,"transfer_cost":133.0,"port_name":"Manzanillo","position":{"lat":19.11695,"lng":-104.34214},"status":"surplus"},{"frame_index":354,"name":"ports_6","capacity":10000,"empty":391,"full":45,"on_shipper":11,"on_consignee":0,"shortage":0,"acc_shortage":340,"booking":11,"acc_booking":4277,"fulfillment":11,"acc_fulfillment":3937,"transfer_cost":0.0,"port_name":"Melbourne","position":{"lat":-37.840935,"lng":144.946457},"status":"surplus"},{"frame_index":354,"name":"ports_7","capacity":10000,"empty":1596,"full":271,"on_shipper":16,"on_consignee":0,"shortage":0,"acc_shortage":0,"booking":11,"acc_booking":4285,"fulfillment":11,"acc_fulfillment":4285,"transfer_cost":0.0,"port_name":"Montreal","position":{"lat":45.516136,"lng":-73.65683},"status":"surplus"},{"frame_index":354,"name":"ports_8","capacity":10000,"empty":4215,"full":217,"on_shipper":30,"on_consignee":0,"shortage":0,"acc_shortage":0,"booking":21,"acc_booking":8363,"fulfillment":21,"acc_fulfillment":8363,"transfer_cost":0.0,"port_name":"New York","position":{"lat":40.73061,"lng":-73.935242},"status":"surplus"},{"frame_index":354,"name":"ports_9","capacity":10000,"empty":617,"full":1095,"on_shipper":33,"on_consignee":0,"shortage":0,"acc_shortage":0,"booking":25,"acc_booking":8329,"fulfillment":25,"acc_fulfillment":8329,"transfer_cost":0.0,"port_name":"Oakland","position":{"lat":37.804363,"lng":-122.271111},"status":"surplus"},{"frame_index":354,"name":"ports_10","capacity":10000,"empty":1427,"full":75,"on_shipper":13,"on_consignee":0,"shortage":0,"acc_shortage":0,"booking":13,"acc_booking":4276,"fulfillment":13,"acc_fulfillment":4276,"transfer_cost":0.0,"port_name":"Prince Rupert","position":{"lat":54.312519,"lng":-130.305405},"status":"surplus"},{"frame_index":354,"name":"ports_11","capacity":10000,"empty":2110,"full":518,"on_shipper":68,"on_consignee":0,"shortage":0,"acc_shortage":0,"booking":45,"acc_booking":16578,"fulfillment":45,"acc_fulfillment":16578,"transfer_cost":0.0,"port_name":"Pusan","position":{"lat":35.166668,"lng":129.066666},"status":"surplus"},{"frame_index":354,"name":"ports_12","capacity":10000,"empty":1107,"full":858,"on_shipper":74,"on_consignee":11,"shortage":0,"acc_shortage":0,"booking":56,"acc_booking":22151,"fulfillment":56,"acc_fulfillment":22151,"transfer_cost":0.0,"port_name":"Qingdao","position":{"lat":36.066898,"lng":120.382698},"status":"surplus"},{"frame_index":354,"name":"ports_13","capacity":10000,"empty":467,"full":38,"on_shipper":8,"on_consignee":0,"shortage":0,"acc_shortage":123,"booking":8,"acc_booking":2905,"fulfillment":8,"acc_fulfillment":2782,"transfer_cost":0.0,"port_name":"San Antonio","position":{"lat":29.424349,"lng":-98.491142},"status":"surplus"},{"frame_index":354,"name":"ports_14","capacity":10000,"empty":807,"full":81,"on_shipper":15,"on_consignee":0,"shortage":0,"acc_shortage":697,"booking":8,"acc_booking":2957,"fulfillment":8,"acc_fulfillment":2260,"transfer_cost":0.0,"port_name":"Santos","position":{"lat":-23.96083,"lng":-46.33361},"status":"surplus"},{"frame_index":354,"name":"ports_15","capacity":10000,"empty":5242,"full":537,"on_shipper":77,"on_consignee":0,"shortage":0,"acc_shortage":0,"booking":51,"acc_booking":19338,"fulfillment":51,"acc_fulfillment":19338,"transfer_cost":0.0,"port_name":"Seattle","position":{"lat":47.608013,"lng":-122.335167},"status":"surplus"},{"frame_index":354,"name":"ports_16","capacity":10000,"empty":3032,"full":699,"on_shipper":130,"on_consignee":1,"shortage":0,"acc_shortage":0,"booking":76,"acc_booking":27612,"fulfillment":76,"acc_fulfillment":27612,"transfer_cost":484.0,"port_name":"Shanghai","position":{"lat":31.224361,"lng":121.46917},"status":"surplus"},{"frame_index":354,"name":"ports_17","capacity":10000,"empty":2875,"full":154,"on_shipper":46,"on_consignee":0,"shortage":0,"acc_shortage":40,"booking":29,"acc_booking":11148,"fulfillment":29,"acc_fulfillment":11108,"transfer_cost":0.0,"port_name":"Singapore","position":{"lat":1.29027,"lng":103.851959},"status":"surplus"},{"frame_index":354,"name":"ports_18","capacity":10000,"empty":149,"full":214,"on_shipper":17,"on_consignee":0,"shortage":0,"acc_shortage":377,"booking":12,"acc_booking":4253,"fulfillment":12,"acc_fulfillment":3876,"transfer_cost":0.0,"port_name":"Sydney","position":{"lat":-33.865143,"lng":151.2099},"status":"surplus"},{"frame_index":354,"name":"ports_19","capacity":10000,"empty":1113,"full":43,"on_shipper":21,"on_consignee":0,"shortage":0,"acc_shortage":0,"booking":15,"acc_booking":5689,"fulfillment":15,"acc_fulfillment":5689,"transfer_cost":0.0,"port_name":"Vancouver","position":{"lat":49.246292,"lng":-123.116226},"status":"surplus"},{"frame_index":354,"name":"ports_20","capacity":10000,"empty":827,"full":470,"on_shipper":86,"on_consignee":0,"shortage":0,"acc_shortage":0,"booking":55,"acc_booking":19144,"fulfillment":55,"acc_fulfillment":19144,"transfer_cost":0.0,"port_name":"Yantian","position":{"lat":26.8533,"lng":119.8575},"status":"surplus"},{"frame_index":354,"name":"ports_21","capacity":10000,"empty":1455,"full":277,"on_shipper":84,"on_consignee":0,"shortage":0,"acc_shortage":1887,"booking":50,"acc_booking":18185,"fulfillment":50,"acc_fulfillment":16298,"transfer_cost":0.0,"port_name":"Yokohama","position":{"lat":35.443707,"lng":139.638031},"status":"surplus"}]