[{"frame_index":525,"name":"ports_0","capacity":10000,"empty":4645,"full":1855,"on_shipper":165,"on_consignee":0,"shortage":0,"acc_shortage":522,"booking":115,"acc_booking":68249,"fulfillment":115,"acc_fulfillment":67727,"transfer_cost":0.0,"port_name":"Bremerhaven","position":{"lat":53.549999,"lng":8.583333},"status":"surplus"},{"frame_index":525,"name":"ports_1","capacity":10000,"empty":209,"full":213,"on_shipper":13,"on_consignee":0,"shortage":0,"acc_shortage":0,"booking":8,"acc_booking":4554,"fulfillment":8,"acc_fulfillment":4554,"transfer_cost":0.0,"port_name":"Durban","position":{"lat":-29.8579,"lng":31.0292},"status":"surplus"},{"frame_index":525,"name":"ports_2","capacity":10000,"empty":653,"full":363,"on_shipper":11,"on_consignee":0,"shortage":0,"acc_shortage":233,"booking":7,"acc_booking":4522,"fulfillment":7,"acc_fulfillment":4289,"transfer_cost":0.0,"port_name":"Itagual","position":{"lat":-22.85222,"lng":-43.77528},"status":"surplus"},{"frame_index":525,"name":"ports_3","capacity":10000,"empty":1713,"full":1277,"on_shipper":56,"on_consignee":0,"shortage":0,"acc_shortage":0,"booking":40,"acc_booking":25887,"fulfillment":40,"acc_fulfillment":25887,"transfer_cost":0.0,"port_name":"LeHavre","position":{"lat":49.490002,"lng":0.1},"status":"surplus"},{"frame_index":525,"name":"ports_4","capacity":10000,"empty":603,"full":3005,"on_shipper":45,"on_consignee":0,"shortage":0,"acc_shortage":0,"booking":33,"acc_booking":21639,"fulfillment":33,"acc_fulfillment":21639,"transfer_cost":0.0,"port_name":"Los Angeles","position":{"lat":34.052235,"lng":-118.243683},"status":"surplus"},{"frame_index":525,"name":"ports_5","capacity":10000,"empty":614,"full":45,"on_shipper":39,"on_consignee":33,"shortage":0,"acc_shortage":123,"booking":29,"acc_booking":21705,"fulfillment":29,"acc_fulfillment":21582,"transfer_cost":0.0,"port_name":"Manzanillo","position":{"lat":19.11695,"lng":-104.34214},"status":"surplus"},{"frame_index":525,"name":"ports_6","capacity":10000,"empty":0,"full":420,"on_shipper":0,"on_consignee":0,"shortage":10,"acc_shortage":986,"booking":10,"acc_booking":6660,"fulfillment":0,"acc_fulfillment":5674,"transfer_cost":0.0,"port_name":"Melbourne","position":{"lat":-37.840935,"lng":144.946457},"status":"balance"},{"frame_index":525,"name":"ports_7","capacity":10000,"empty":1475,"full":758,"on_shipper":17,"on_consignee":0,"shortage":0,"acc_shortage":0,"booking":11,"acc_booking":6663,"fulfillment":11,"acc_fulfillment":6663,"transfer_cost":0.0,"port_name":"Montreal","position":{"lat":45.516136,"lng":-73.65683},"status":"surplus"},{"frame_index":525,"name":"ports_8","capacity":10000,"empty":363,"full":939,"on_shipper":44,"on_consignee":0,"shortage":0,"acc_shortage":0,"booking":19,"acc_booking":13027,"fulfillment":19,"acc_fulfillment":13027,"transfer_cost":0.0,"port_name":"New York","position":{"lat":40.73061,"lng":-73.935242},"status":"surplus"},{"frame_index":525,"name":"ports_9","capacity":10000,"empty":505,"full":1312,"on_shipper":22,"on_consignee":0,"shortage":0,"acc_shortage":45,"booking":18,"acc_booking":13051,"fulfillment":18,"acc_fulfillment":13006,"transfer_cost":0.0,"port_name":"Oakland","position":{"lat":37.804363,"lng":-122.271111},"status":"surplus"},{"frame_index":525,"name":"ports_10","capacity":10000,"empty":897,"full":232,"on_shipper":19,"on_consignee":0,"shortage":0,"acc_shortage":314,"booking":9,"acc_booking":6674,"fulfillment":9,"acc_fulfillment":6360,"transfer_cost":0.0,"port_name":"Prince Rupert","position":{"lat":54.312519,"lng":-130.305405},"status":"surplus"},{"frame_index":525,"name":"ports_11","capacity":10000,"empty":995,"full":2498,"on_shipper":69,"on_consignee":0,"shortage":0,"acc_shortage":204,"booking":41,"acc_booking":25825,"fulfillment":41,"acc_fulfillment":25621,"transfer_cost":0.0,"port_name":"Pusan","position":{"lat":35.166668,"lng":129.066666},"status":"surplus"},{"frame_index":525,"name":"ports_12","capacity":10000,"empty":2062,"full":2988,"on_shipper":88,"on_consignee":0,"shortage":0,"acc_shortage":0,"booking":51,"acc_booking":34538,"fulfillment":51,"acc_fulfillment":34538,"transfer_cost":0.0,"port_name":"Qingdao","position":{"lat":36.066898,"lng":120.382698},"status":"surplus"},{"frame_index":525,"name":"ports_13","capacity":10000,"empty":359,"full":19,"on_shipper":13,"on_consignee":0,"shortage":0,"acc_shortage":286,"booking":7,"acc_booking":4513,"fulfillment":7,"acc_fulfillment":4227,"transfer_cost":0.0,"port_name":"San Antonio","position":{"lat":29.424349,"lng":-98.491142},"status":"surplus"},{"frame_index":525,"name":"ports_14","capacity":10000,"empty":374,"full":231,"on_shipper":8,"on_consignee":0,"shortage":0,"acc_shortage":762,"booking":6,"acc_booking":4560,"fulfillment":6,"acc_fulfillment":3798,"transfer_cost":0.0,"port_name":"Santos","position":{"lat":-23.96083,"lng":-46.33361},"status":"surplus"},{"frame_index":525,"name":"ports_15","capacity":10000,"empty":3032,"full":1764,"on_shipper":89,"on_consignee":0,"shortage":0,"acc_shortage":0,"booking":49,"acc_booking":30138,"fulfillment":49,"acc_fulfillment":30138,"transfer_cost":0.0,"port_name":"Seattle","position":{"lat":47.608013,"lng":-122.335167},"status":"surplus"},{"frame_index":525,"name":"ports_16","capacity":10000,"empty":590,"full":2114,"on_shipper":124,"on_consignee":3,"shortage":0,"acc_shortage":165,"booking":78,"acc_booking":42962,"fulfillment":78,"acc_fulfillment":42797,"transfer_cost":0.0,"port_name":"Shanghai","position":{"lat":31.224361,"lng":121.46917},"status":"surplus"},{"frame_index":525,"name":"ports_17","capacity":10000,"empty":763,"full":265,"on_shipper":39,"on_consignee":639,"shortage":0,"acc_shortage":40,"booking":27,"acc_booking":17365,"fulfillment":27,"acc_fulfillment":17325,"transfer_cost":0.0,"port_name":"Singapore","position":{"lat":1.29027,"lng":103.851959},"status":"surplus"},{"frame_index":525,"name":"ports_18","capacity":10000,"empty":0,"full":829,"on_shipper":0,"on_consignee":0,"shortage":9,"acc_shortage":938,"booking":9,"acc_booking":6628,"fulfillment":0,"acc_fulfillment":5690,"transfer_cost":0.0,"port_name":"Sydney","position":{"lat":-33.865143,"lng":151.2099},"status":"balance"},{"frame_index":525,"name":"ports_19","capacity":10000,"empty":168,"full":252,"on_shipper":23,"on_consignee":435,"shortage":0,"acc_shortage":0,"booking":13,"acc_booking":8857,"fulfillment":13,"acc_fulfillment":8857,"transfer_cost":0.0,"port_name":"Vancouver","position":{"lat":49.246292,"lng":-123.116226},"status":"surplus"},{"frame_index":525,"name":"ports_20","capacity":10000,"empty":670,"full":2011,"on_shipper":67,"on_consignee":0,"shortage":0,"acc_shortage":350,"booking":44,"acc_booking":29958,"fulfillment":44,"acc_fulfillment":29608,"transfer_cost":0.0,"port_name":"Yantian","position":{"lat":26.8533,"lng":119.8575},"status":"surplus"},{"frame_index":525,"name":"ports_21","capacity":10000,"empty":471,"full":470,"on_shipper":60,"on_consignee":0,"shortage":0,"acc_shortage":3190,"booking":42,"acc_booking":28647,"fulfillment":42,"acc_fulfillment":25457,"transfer_cost":0.0,"port_name":"Yokohama","position":{"lat":35.443707,"lng":139.638031},"status":"surplus"}]