[{"frame_index":312,"name":"ports_0","capacity":10000,"empty":1723,"full":3207,"on_shipper":264,"on_consignee":0,"shortage":0,"acc_shortage":522,"booking":104,"acc_booking":41102,"fulfillment":104,"acc_fulfillment":40580,"transfer_cost":0.0,"port_name":"Bremerhaven","position":{"lat":53.549999,"lng":8.583333},"status":"surplus"},{"frame_index":312,"name":"ports_1","capacity":10000,"empty":522,"full":144,"on_shipper":10,"on_consignee":0,"shortage":0,"acc_shortage":0,"booking":7,"acc_booking":2730,"fulfillment":7,"acc_fulfillment":2730,"transfer_cost":0.0,"port_name":"Durban","position":{"lat":-29.8579,"lng":31.0292},"status":"surplus"},{"frame_index":312,"name":"ports_2","capacity":10000,"empty":525,"full":434,"on_shipper":12,"on_consignee":0,"shortage":0,"acc_shortage":233,"booking":8,"acc_booking":2709,"fulfillment":8,"acc_fulfillment":2476,"transfer_cost":0.0,"port_name":"Itagual","position":{"lat":-22.85222,"lng":-43.77528},"status":"surplus"},{"frame_index":312,"name":"ports_3","capacity":10000,"empty":1538,"full":1075,"on_shipper":73,"on_consignee":0,"shortage":0,"acc_shortage":0,"booking":42,"acc_booking":15554,"fulfillment":42,"acc_fulfillment":15554,"transfer_cost":0.0,"port_name":"LeHavre","position":{"lat":49.490002,"lng":0.1},"status":"surplus"},{"frame_index":312,"name":"ports_4","capacity":10000,"empty":487,"full":1579,"on_shipper":41,"on_consignee":0,"shortage":0,"acc_shortage":0,"booking":35,"acc_booking":12994,"fulfillment":35,"acc_fulfillment":12994,"transfer_cost":0.0,"port_name":"Los Angeles","position":{"lat":34.052235,"lng":-118.243683},"status":"surplus"},{"frame_index":312,"name":"ports_5","capacity":10000,"empty":991,"full":112,"on_shipper":75,"on_consignee":0,"shortage":0,"acc_shortage":123,"booking":38,"acc_booking":13021,"fulfillment":38,"acc_fulfillment":12898,"transfer_cost":0.0,"port_name":"Manzanillo","position":{"lat":19.11695,"lng":-104.34214},"status":"surplus"},{"frame_index":312,"name":"ports_6","capacity":10000,"empty":0,"full":287,"on_shipper":0,"on_consignee":0,"shortage":11,"acc_shortage":264,"booking":11,"acc_booking":3991,"fulfillment":0,"acc_fulfillment":3727,"transfer_cost":0.0,"port_name":"Melbourne","position":{"lat":-37.840935,"lng":144.946457},"status":"demand"},{"frame_index":312,"name":"ports_7","capacity":10000,"empty":1680,"full":224,"on_shipper":11,"on_consignee":0,"shortage":0,"acc_shortage":0,"booking":11,"acc_booking":3998,"fulfillment":11,"acc_fulfillment":3998,"transfer_cost":0.0,"port_name":"Montreal","position":{"lat":45.516136,"lng":-73.65683},"status":"surplus"},{"frame_index":312,"name":"ports_8","capacity":10000,"empty":623,"full":623,"on_shipper":55,"on_consignee":0,"shortage":0,"acc_shortage":0,"booking":23,"acc_booking":7815,"fulfillment":23,"acc_fulfillment":7815,"transfer_cost":0.0,"port_name":"New York","position":{"lat":40.73061,"lng":-73.935242},"status":"surplus"},{"frame_index":312,"name":"ports_9","capacity":10000,"empty":1168,"full":531,"on_shipper":46,"on_consignee":0,"shortage":0,"acc_shortage":0,"booking":21,"acc_booking":7778,"fulfillment":21,"acc_fulfillment":7778,"transfer_cost":0.0,"port_name":"Oakland","position":{"lat":37.804363,"lng":-122.271111},"status":"surplus"},{"frame_index":312,"name":"ports_10","capacity":10000,"empty":605,"full":1003,"on_shipper":21,"on_consignee":0,"shortage":0,"acc_shortage":0,"booking":11,"acc_booking":3984,"fulfillment":11,"acc_fulfillment":3984,"transfer_cost":0.0,"port_name":"Prince Rupert","position":{"lat":54.312519,"lng":-130.305405},"status":"surplus"},{"frame_index":312,"name":"ports_11","capacity":10000,"empty":1083,"full":964,"on_shipper":63,"on_consignee":92,"shortage":0,"acc_shortage":0,"booking":42,"acc_booking":15501,"fulfillment":42,"acc_fulfillment":15501,"transfer_cost":0.0,"port_name":"Pusan","position":{"lat":35.166668,"lng":129.066666},"status":"surplus"},{"frame_index":312,"name":"ports_12","capacity":10000,"empty":2330,"full":925,"on_shipper":89,"on_consignee":178,"shortage":0,"acc_shortage":0,"booking":50,"acc_booking":20709,"fulfillment":50,"acc_fulfillment":20709,"transfer_cost":0.0,"port_name":"Qingdao","position":{"lat":36.066898,"lng":120.382698},"status":"surplus"},{"frame_index":312,"name":"ports_13","capacity":10000,"empty":753,"full":14,"on_shipper":12,"on_consignee":0,"shortage":0,"acc_shortage":123,"booking":8,"acc_booking":2707,"fulfillment":8,"acc_fulfillment":2584,"transfer_cost":0.0,"port_name":"San Antonio","position":{"lat":29.424349,"lng":-98.491142},"status":"surplus"},{"frame_index":312,"name":"ports_14","capacity":10000,"empty":616,"full":660,"on_shipper":13,"on_consignee":0,"shortage":0,"acc_shortage":697,"booking":7,"acc_booking":2760,"fulfillment":7,"acc_fulfillment":2063,"transfer_cost":0.0,"port_name":"Santos","position":{"lat":-23.96083,"lng":-46.33361},"status":"surplus"},{"frame_index":312,"name":"ports_15","capacity":10000,"empty":2367,"full":1866,"on_shipper":65,"on_consignee":0,"shortage":0,"acc_shortage":0,"booking":48,"acc_booking":18078,"fulfillment":48,"acc_fulfillment":18078,"transfer_cost":0.0,"port_name":"Seattle","position":{"lat":47.608013,"lng":-122.335167},"status":"surplus"},{"frame_index":312,"name":"ports_16","capacity":10000,"empty":807,"full":1937,"on_shipper":131,"on_consignee":24,"shortage":0,"acc_shortage":0,"booking":67,"acc_booking":25812,"fulfillment":67,"acc_fulfillment":25812,"transfer_cost":0.0,"port_name":"Shanghai","position":{"lat":31.224361,"lng":121.46917},"status":"surplus"},{"frame_index":312,"name":"ports_17","capacity":10000,"empty":2586,"full":835,"on_shipper":50,"on_consignee":0,"shortage":0,"acc_shortage":40,"booking":29,"acc_booking":10421,"fulfillment":29,"acc_fulfillment":10381,"transfer_cost":0.0,"port_name":"Singapore","position":{"lat":1.29027,"lng":103.851959},"status":"surplus"},{"frame_index":312,"name":"ports_18","capacity":10000,"empty":130,"full":114,"on_shipper":16,"on_consignee":0,"shortage":0,"acc_shortage":377,"booking":10,"acc_booking":3968,"fulfillment":10,"acc_fulfillment":3591,"transfer_cost":0.0,"port_name":"Sydney","position":{"lat":-33.865143,"lng":151.2099},"status":"surplus"},{"frame_index":312,"name":"ports_19","capacity":10000,"empty":344,"full":577,"on_shipper":27,"on_consignee":0,"shortage":0,"acc_shortage":0,"booking":15,"acc_booking":5307,"fulfillment":15,"acc_fulfillment":5307,"transfer_cost":0.0,"port_name":"Vancouver","position":{"lat":49.246292,"lng":-123.116226},"status":"surplus"},{"frame_index":312,"name":"ports_20","capacity":10000,"empty":485,"full":387,"on_shipper":98,"on_consignee":332,"shortage":0,"acc_shortage":0,"booking":48,"acc_booking":17867,"fulfillment":48,"acc_fulfillment":17867,"transfer_cost":0.0,"port_name":"Yantian","position":{"lat":26.8533,"lng":119.8575},"status":"surplus"},{"frame_index":312,"name":"ports_21","capacity":10000,"empty":847,"full":1220,"on_shipper":110,"on_consignee":0,"shortage":0,"acc_shortage":1887,"booking":44,"acc_booking":17213,"fulfillment":44,"acc_fulfillment":15326,"transfer_cost":0.0,"port_name":"Yokohama","position":{"lat":35.443707,"lng":139.638031},"status":"surplus"}]