[{"frame_index":308,"name":"ports_0","capacity":10000,"empty":2377,"full":2520,"on_shipper":297,"on_consignee":0,"shortage":0,"acc_shortage":522,"booking":180,"acc_booking":40448,"fulfillment":180,"acc_fulfillment":39926,"transfer_cost":0.0,"port_name":"Bremerhaven","position":{"lat":53.549999,"lng":8.583333},"status":"surplus"},{"frame_index":308,"name":"ports_1","capacity":10000,"empty":562,"full":93,"on_shipper":21,"on_consignee":0,"shortage":0,"acc_shortage":0,"booking":11,"acc_booking":2690,"fulfillment":11,"acc_fulfillment":2690,"transfer_cost":0.0,"port_name":"Durban","position":{"lat":-29.8579,"lng":31.0292},"status":"surplus"},{"frame_index":308,"name":"ports_2","capacity":10000,"empty":562,"full":397,"on_shipper":12,"on_consignee":0,"shortage":0,"acc_shortage":233,"booking":10,"acc_booking":2672,"fulfillment":10,"acc_fulfillment":2439,"transfer_cost":0.0,"port_name":"Itagual","position":{"lat":-22.85222,"lng":-43.77528},"status":"surplus"},{"frame_index":308,"name":"ports_3","capacity":10000,"empty":1763,"full":822,"on_shipper":101,"on_consignee":0,"shortage":0,"acc_shortage":0,"booking":61,"acc_booking":15329,"fulfillment":61,"acc_fulfillment":15329,"transfer_cost":0.0,"port_name":"LeHavre","position":{"lat":49.490002,"lng":0.1},"status":"surplus"},{"frame_index":308,"name":"ports_4","capacity":10000,"empty":676,"full":1351,"on_shipper":80,"on_consignee":0,"shortage":0,"acc_shortage":0,"booking":50,"acc_booking":12805,"fulfillment":50,"acc_fulfillment":12805,"transfer_cost":0.0,"port_name":"Los Angeles","position":{"lat":34.052235,"lng":-118.243683},"status":"surplus"},{"frame_index":308,"name":"ports_5","capacity":10000,"empty":899,"full":244,"on_shipper":54,"on_consignee":0,"shortage":0,"acc_shortage":123,"booking":48,"acc_booking":12845,"fulfillment":48,"acc_fulfillment":12722,"transfer_cost":0.0,"port_name":"Manzanillo","position":{"lat":19.11695,"lng":-104.34214},"status":"surplus"},{"frame_index":308,"name":"ports_6","capacity":10000,"empty":0,"full":287,"on_shipper":0,"on_consignee":0,"shortage":16,"acc_shortage":206,"booking":16,"acc_booking":3933,"fulfillment":0,"acc_fulfillment":3727,"transfer_cost":0.0,"port_name":"Melbourne","position":{"lat":-37.840935,"lng":144.946457},"status":"demand"},{"frame_index":308,"name":"ports_7","capacity":10000,"empty":1738,"full":153,"on_shipper":24,"on_consignee":0,"shortage":0,"acc_shortage":0,"booking":15,"acc_booking":3940,"fulfillment":15,"acc_fulfillment":3940,"transfer_cost":0.0,"port_name":"Montreal","position":{"lat":45.516136,"lng":-73.65683},"status":"surplus"},{"frame_index":308,"name":"ports_8","capacity":10000,"empty":736,"full":534,"on_shipper":31,"on_consignee":0,"shortage":0,"acc_shortage":0,"booking":31,"acc_booking":7702,"fulfillment":31,"acc_fulfillment":7702,"transfer_cost":0.0,"port_name":"New York","position":{"lat":40.73061,"lng":-73.935242},"status":"surplus"},{"frame_index":308,"name":"ports_9","capacity":10000,"empty":1273,"full":422,"on_shipper":50,"on_consignee":0,"shortage":0,"acc_shortage":0,"booking":28,"acc_booking":7673,"fulfillment":28,"acc_fulfillment":7673,"transfer_cost":0.0,"port_name":"Oakland","position":{"lat":37.804363,"lng":-122.271111},"status":"surplus"},{"frame_index":308,"name":"ports_10","capacity":10000,"empty":666,"full":936,"on_shipper":27,"on_consignee":0,"shortage":0,"acc_shortage":0,"booking":13,"acc_booking":3923,"fulfillment":13,"acc_fulfillment":3923,"transfer_cost":0.0,"port_name":"Prince Rupert","position":{"lat":54.312519,"lng":-130.305405},"status":"surplus"},{"frame_index":308,"name":"ports_11","capacity":10000,"empty":1304,"full":794,"on_shipper":104,"on_consignee":0,"shortage":0,"acc_shortage":0,"booking":59,"acc_booking":15280,"fulfillment":59,"acc_fulfillment":15280,"transfer_cost":0.0,"port_name":"Pusan","position":{"lat":35.166668,"lng":129.066666},"status":"surplus"},{"frame_index":308,"name":"ports_12","capacity":10000,"empty":2412,"full":746,"on_shipper":125,"on_consignee":145,"shortage":0,"acc_shortage":0,"booking":85,"acc_booking":20426,"fulfillment":85,"acc_fulfillment":20426,"transfer_cost":2.0,"port_name":"Qingdao","position":{"lat":36.066898,"lng":120.382698},"status":"surplus"},{"frame_index":308,"name":"ports_13","capacity":10000,"empty":0,"full":666,"on_shipper":0,"on_consignee":0,"shortage":9,"acc_shortage":112,"booking":9,"acc_booking":2670,"fulfillment":0,"acc_fulfillment":2558,"transfer_cost":0.0,"port_name":"San Antonio","position":{"lat":29.424349,"lng":-98.491142},"status":"balance"},{"frame_index":308,"name":"ports_14","capacity":10000,"empty":660,"full":611,"on_shipper":18,"on_consignee":0,"shortage":0,"acc_shortage":697,"booking":11,"acc_booking":2716,"fulfillment":11,"acc_fulfillment":2019,"transfer_cost":0.0,"port_name":"Santos","position":{"lat":-23.96083,"lng":-46.33361},"status":"surplus"},{"frame_index":308,"name":"ports_15","capacity":10000,"empty":2631,"full":1569,"on_shipper":98,"on_consignee":0,"shortage":0,"acc_shortage":0,"booking":71,"acc_booking":17814,"fulfillment":71,"acc_fulfillment":17814,"transfer_cost":0.0,"port_name":"Seattle","position":{"lat":47.608013,"lng":-122.335167},"status":"surplus"},{"frame_index":308,"name":"ports_16","capacity":10000,"empty":1041,"full":2505,"on_shipper":133,"on_consignee":10,"shortage":0,"acc_shortage":0,"booking":102,"acc_booking":25429,"fulfillment":102,"acc_fulfillment":25429,"transfer_cost":0.0,"port_name":"Shanghai","position":{"lat":31.224361,"lng":121.46917},"status":"surplus"},{"frame_index":308,"name":"ports_17","capacity":10000,"empty":2643,"full":1057,"on_shipper":64,"on_consignee":0,"shortage":0,"acc_shortage":40,"booking":39,"acc_booking":10268,"fulfillment":39,"acc_fulfillment":10228,"transfer_cost":0.0,"port_name":"Singapore","position":{"lat":1.29027,"lng":103.851959},"status":"surplus"},{"frame_index":308,"name":"ports_18","capacity":10000,"empty":189,"full":50,"on_shipper":21,"on_consignee":0,"shortage":0,"acc_shortage":377,"booking":15,"acc_booking":3909,"fulfillment":15,"acc_fulfillment":3532,"transfer_cost":0.0,"port_name":"Sydney","position":{"lat":-33.865143,"lng":151.2099},"status":"surplus"},{"frame_index":308,"name":"ports_19","capacity":10000,"empty":422,"full":498,"on_shipper":28,"on_consignee":0,"shortage":0,"acc_shortage":0,"booking":20,"acc_booking":5229,"fulfillment":20,"acc_fulfillment":5229,"transfer_cost":0.0,"port_name":"Vancouver","position":{"lat":49.246292,"lng":-123.116226},"status":"surplus"},{"frame_index":308,"name":"ports_20","capacity":10000,"empty":786,"full":594,"on_shipper":114,"on_consignee":33,"shortage":0,"acc_shortage":0,"booking":76,"acc_booking":17609,"fulfillment":76,"acc_fulfillment":17609,"transfer_cost":0.0,"port_name":"Yantian","position":{"lat":26.8533,"lng":119.8575},"status":"surplus"},{"frame_index":308,"name":"ports_21","capacity":10000,"empty":0,"full":1578,"on_shipper":0,"on_consignee":0,"shortage":70,"acc_shortage":1805,"booking":70,"acc_booking":16957,"fulfillment":0,"acc_fulfillment":15152,"transfer_cost":0.0,"port_name":"Yokohama","position":{"lat":35.443707,"lng":139.638031},"status":"demand"}]