[{"frame_index":306,"name":"ports_0","capacity":10000,"empty":2704,"full":2239,"on_shipper":251,"on_consignee":0,"shortage":0,"acc_shortage":522,"booking":199,"acc_booking":40121,"fulfillment":199,"acc_fulfillment":39599,"transfer_cost":0.0,"port_name":"Bremerhaven","position":{"lat":53.549999,"lng":8.583333},"status":"surplus"},{"frame_index":306,"name":"ports_1","capacity":10000,"empty":583,"full":74,"on_shipper":19,"on_consignee":0,"shortage":0,"acc_shortage":0,"booking":12,"acc_booking":2669,"fulfillment":12,"acc_fulfillment":2669,"transfer_cost":0.0,"port_name":"Durban","position":{"lat":-29.8579,"lng":31.0292},"status":"surplus"},{"frame_index":306,"name":"ports_2","capacity":10000,"empty":583,"full":373,"on_shipper":15,"on_consignee":0,"shortage":0,"acc_shortage":233,"booking":11,"acc_booking":2651,"fulfillment":11,"acc_fulfillment":2418,"transfer_cost":0.0,"port_name":"Itagual","position":{"lat":-22.85222,"lng":-43.77528},"status":"surplus"},{"frame_index":306,"name":"ports_3","capacity":10000,"empty":1419,"full":681,"on_shipper":121,"on_consignee":465,"shortage":0,"acc_shortage":0,"booking":71,"acc_booking":15208,"fulfillment":71,"acc_fulfillment":15208,"transfer_cost":251.0,"port_name":"LeHavre","position":{"lat":49.490002,"lng":0.1},"status":"surplus"},{"frame_index":306,"name":"ports_4","capacity":10000,"empty":777,"full":1257,"on_shipper":73,"on_consignee":0,"shortage":0,"acc_shortage":0,"booking":58,"acc_booking":12704,"fulfillment":58,"acc_fulfillment":12704,"transfer_cost":0.0,"port_name":"Los Angeles","position":{"lat":34.052235,"lng":-118.243683},"status":"surplus"},{"frame_index":306,"name":"ports_5","capacity":10000,"empty":994,"full":117,"on_shipper":86,"on_consignee":0,"shortage":0,"acc_shortage":123,"booking":61,"acc_booking":12750,"fulfillment":61,"acc_fulfillment":12627,"transfer_cost":0.0,"port_name":"Manzanillo","position":{"lat":19.11695,"lng":-104.34214},"status":"surplus"},{"frame_index":306,"name":"ports_6","capacity":10000,"empty":0,"full":287,"on_shipper":0,"on_consignee":0,"shortage":17,"acc_shortage":175,"booking":17,"acc_booking":3902,"fulfillment":0,"acc_fulfillment":3727,"transfer_cost":0.0,"port_name":"Melbourne","position":{"lat":-37.840935,"lng":144.946457},"status":"demand"},{"frame_index":306,"name":"ports_7","capacity":10000,"empty":1769,"full":121,"on_shipper":25,"on_consignee":0,"shortage":0,"acc_shortage":0,"booking":17,"acc_booking":3909,"fulfillment":17,"acc_fulfillment":3909,"transfer_cost":0.0,"port_name":"Montreal","position":{"lat":45.516136,"lng":-73.65683},"status":"surplus"},{"frame_index":306,"name":"ports_8","capacity":10000,"empty":799,"full":470,"on_shipper":32,"on_consignee":0,"shortage":0,"acc_shortage":0,"booking":32,"acc_booking":7639,"fulfillment":32,"acc_fulfillment":7639,"transfer_cost":0.0,"port_name":"New York","position":{"lat":40.73061,"lng":-73.935242},"status":"surplus"},{"frame_index":306,"name":"ports_9","capacity":10000,"empty":1329,"full":363,"on_shipper":53,"on_consignee":0,"shortage":0,"acc_shortage":0,"booking":30,"acc_booking":7617,"fulfillment":30,"acc_fulfillment":7617,"transfer_cost":0.0,"port_name":"Oakland","position":{"lat":37.804363,"lng":-122.271111},"status":"surplus"},{"frame_index":306,"name":"ports_10","capacity":10000,"empty":696,"full":907,"on_shipper":26,"on_consignee":0,"shortage":0,"acc_shortage":0,"booking":17,"acc_booking":3893,"fulfillment":17,"acc_fulfillment":3893,"transfer_cost":0.0,"port_name":"Prince Rupert","position":{"lat":54.312519,"lng":-130.305405},"status":"surplus"},{"frame_index":306,"name":"ports_11","capacity":10000,"empty":1159,"full":679,"on_shipper":96,"on_consignee":268,"shortage":0,"acc_shortage":0,"booking":68,"acc_booking":15157,"fulfillment":68,"acc_fulfillment":15157,"transfer_cost":0.0,"port_name":"Pusan","position":{"lat":35.166668,"lng":129.066666},"status":"surplus"},{"frame_index":306,"name":"ports_12","capacity":10000,"empty":2190,"full":643,"on_shipper":130,"on_consignee":386,"shortage":0,"acc_shortage":0,"booking":85,"acc_booking":20260,"fulfillment":85,"acc_fulfillment":20260,"transfer_cost":0.0,"port_name":"Qingdao","position":{"lat":36.066898,"lng":120.382698},"status":"surplus"},{"frame_index":306,"name":"ports_13","capacity":10000,"empty":0,"full":666,"on_shipper":0,"on_consignee":0,"shortage":11,"acc_shortage":92,"booking":11,"acc_booking":2650,"fulfillment":0,"acc_fulfillment":2558,"transfer_cost":0.0,"port_name":"San Antonio","position":{"lat":29.424349,"lng":-98.491142},"status":"demand"},{"frame_index":306,"name":"ports_14","capacity":10000,"empty":680,"full":596,"on_shipper":13,"on_consignee":0,"shortage":0,"acc_shortage":697,"booking":13,"acc_booking":2696,"fulfillment":13,"acc_fulfillment":1999,"transfer_cost":0.0,"port_name":"Santos","position":{"lat":-23.96083,"lng":-46.33361},"status":"surplus"},{"frame_index":306,"name":"ports_15","capacity":10000,"empty":2772,"full":1410,"on_shipper":116,"on_consignee":0,"shortage":0,"acc_shortage":0,"booking":83,"acc_booking":17673,"fulfillment":83,"acc_fulfillment":17673,"transfer_cost":0.0,"port_name":"Seattle","position":{"lat":47.608013,"lng":-122.335167},"status":"surplus"},{"frame_index":306,"name":"ports_16","capacity":10000,"empty":1155,"full":2350,"on_shipper":166,"on_consignee":0,"shortage":0,"acc_shortage":0,"booking":112,"acc_booking":25214,"fulfillment":112,"acc_fulfillment":25214,"transfer_cost":0.0,"port_name":"Shanghai","position":{"lat":31.224361,"lng":121.46917},"status":"surplus"},{"frame_index":306,"name":"ports_17","capacity":10000,"empty":2724,"full":978,"on_shipper":62,"on_consignee":0,"shortage":0,"acc_shortage":40,"booking":46,"acc_booking":10187,"fulfillment":46,"acc_fulfillment":10147,"transfer_cost":0.0,"port_name":"Singapore","position":{"lat":1.29027,"lng":103.851959},"status":"surplus"},{"frame_index":306,"name":"ports_18","capacity":10000,"empty":0,"full":39,"on_shipper":0,"on_consignee":221,"shortage":16,"acc_shortage":377,"booking":16,"acc_booking":3877,"fulfillment":0,"acc_fulfillment":3500,"transfer_cost":0.0,"port_name":"Sydney","position":{"lat":-33.865143,"lng":151.2099},"status":"demand"},{"frame_index":306,"name":"ports_19","capacity":10000,"empty":463,"full":456,"on_shipper":29,"on_consignee":0,"shortage":0,"acc_shortage":0,"booking":23,"acc_booking":5188,"fulfillment":23,"acc_fulfillment":5188,"transfer_cost":0.0,"port_name":"Vancouver","position":{"lat":49.246292,"lng":-123.116226},"status":"surplus"},{"frame_index":306,"name":"ports_20","capacity":10000,"empty":917,"full":676,"on_shipper":121,"on_consignee":0,"shortage":0,"acc_shortage":0,"booking":81,"acc_booking":17464,"fulfillment":81,"acc_fulfillment":17464,"transfer_cost":0.0,"port_name":"Yantian","position":{"lat":26.8533,"lng":119.8575},"status":"surplus"},{"frame_index":306,"name":"ports_21","capacity":10000,"empty":0,"full":1578,"on_shipper":0,"on_consignee":0,"shortage":82,"acc_shortage":1662,"booking":82,"acc_booking":16814,"fulfillment":0,"acc_fulfillment":15152,"transfer_cost":0.0,"port_name":"Yokohama","position":{"lat":35.443707,"lng":139.638031},"status":"demand"}]