[{"frame_index":784,"name":"ports_0","capacity":10000,"empty":2365,"full":4908,"on_shipper":91,"on_consignee":0,"shortage":0,"acc_shortage":522,"booking":74,"acc_booking":100524,"fulfillment":74,"acc_fulfillment":100002,"transfer_cost":0.0,"port_name":"Bremerhaven","position":{"lat":53.549999,"lng":8.583333},"status":"surplus"},{"frame_index":784,"name":"ports_1","capacity":10000,"empty":188,"full":72,"on_shipper":8,"on_consignee":0,"shortage":0,"acc_shortage":10,"booking":5,"acc_booking":6680,"fulfillment":5,"acc_fulfillment":6670,"transfer_cost":0.0,"port_name":"Durban","position":{"lat":-29.8579,"lng":31.0292},"status":"surplus"},{"frame_index":784,"name":"ports_2","capacity":10000,"empty":526,"full":53,"on_shipper":9,"on_consignee":0,"shortage":0,"acc_shortage":298,"booking":5,"acc_booking":6657,"fulfillment":5,"acc_fulfillment":6359,"transfer_cost":0.0,"port_name":"Itagual","position":{"lat":-22.85222,"lng":-43.77528},"status":"surplus"},{"frame_index":784,"name":"ports_3","capacity":10000,"empty":1086,"full":2294,"on_shipper":35,"on_consignee":259,"shortage":0,"acc_shortage":0,"booking":26,"acc_booking":38052,"fulfillment":26,"acc_fulfillment":38052,"transfer_cost":466.0,"port_name":"LeHavre","position":{"lat":49.490002,"lng":0.1},"status":"surplus"},{"frame_index":784,"name":"ports_4","capacity":10000,"empty":953,"full":229,"on_shipper":34,"on_consignee":619,"shortage":0,"acc_shortage":290,"booking":21,"acc_booking":31849,"fulfillment":21,"acc_fulfillment":31559,"transfer_cost":332.0,"port_name":"Los Angeles","position":{"lat":34.052235,"lng":-118.243683},"status":"surplus"},{"frame_index":784,"name":"ports_5","capacity":10000,"empty":1447,"full":946,"on_shipper":37,"on_consignee":0,"shortage":0,"acc_shortage":123,"booking":21,"acc_booking":31970,"fulfillment":21,"acc_fulfillment":31847,"transfer_cost":0.0,"port_name":"Manzanillo","position":{"lat":19.11695,"lng":-104.34214},"status":"surplus"},{"frame_index":784,"name":"ports_6","capacity":10000,"empty":306,"full":137,"on_shipper":8,"on_consignee":0,"shortage":0,"acc_shortage":1572,"booking":7,"acc_booking":9805,"fulfillment":7,"acc_fulfillment":8233,"transfer_cost":0.0,"port_name":"Melbourne","position":{"lat":-37.840935,"lng":144.946457},"status":"surplus"},{"frame_index":784,"name":"ports_7","capacity":10000,"empty":1027,"full":17,"on_shipper":14,"on_consignee":0,"shortage":0,"acc_shortage":0,"booking":7,"acc_booking":9814,"fulfillment":7,"acc_fulfillment":9814,"transfer_cost":0.0,"port_name":"Montreal","position":{"lat":45.516136,"lng":-73.65683},"status":"surplus"},{"frame_index":784,"name":"ports_8","capacity":10000,"empty":4104,"full":125,"on_shipper":28,"on_consignee":0,"shortage":0,"acc_shortage":136,"booking":13,"acc_booking":19171,"fulfillment":13,"acc_fulfillment":19035,"transfer_cost":0.0,"port_name":"New York","position":{"lat":40.73061,"lng":-73.935242},"status":"surplus"},{"frame_index":784,"name":"ports_9","capacity":10000,"empty":119,"full":816,"on_shipper":21,"on_consignee":0,"shortage":0,"acc_shortage":45,"booking":11,"acc_booking":19211,"fulfillment":11,"acc_fulfillment":19166,"transfer_cost":0.0,"port_name":"Oakland","position":{"lat":37.804363,"lng":-122.271111},"status":"surplus"},{"frame_index":784,"name":"ports_10","capacity":10000,"empty":1007,"full":202,"on_shipper":8,"on_consignee":0,"shortage":0,"acc_shortage":314,"booking":6,"acc_booking":9826,"fulfillment":6,"acc_fulfillment":9512,"transfer_cost":0.0,"port_name":"Prince Rupert","position":{"lat":54.312519,"lng":-130.305405},"status":"surplus"},{"frame_index":784,"name":"ports_11","capacity":10000,"empty":3202,"full":181,"on_shipper":34,"on_consignee":0,"shortage":0,"acc_shortage":204,"booking":24,"acc_booking":38002,"fulfillment":24,"acc_fulfillment":37798,"transfer_cost":0.0,"port_name":"Pusan","position":{"lat":35.166668,"lng":129.066666},"status":"surplus"},{"frame_index":784,"name":"ports_12","capacity":10000,"empty":2957,"full":1238,"on_shipper":43,"on_consignee":0,"shortage":0,"acc_shortage":0,"booking":35,"acc_booking":50788,"fulfillment":35,"acc_fulfillment":50788,"transfer_cost":0.0,"port_name":"Qingdao","position":{"lat":36.066898,"lng":120.382698},"status":"surplus"},{"frame_index":784,"name":"ports_13","capacity":10000,"empty":66,"full":10,"on_shipper":8,"on_consignee":0,"shortage":0,"acc_shortage":449,"booking":4,"acc_booking":6666,"fulfillment":4,"acc_fulfillment":6217,"transfer_cost":0.0,"port_name":"San Antonio","position":{"lat":29.424349,"lng":-98.491142},"status":"balance"},{"frame_index":784,"name":"ports_14","capacity":10000,"empty":271,"full":14,"on_shipper":10,"on_consignee":0,"shortage":0,"acc_shortage":762,"booking":5,"acc_booking":6705,"fulfillment":5,"acc_fulfillment":5943,"transfer_cost":0.0,"port_name":"Santos","position":{"lat":-23.96083,"lng":-46.33361},"status":"surplus"},{"frame_index":784,"name":"ports_15","capacity":10000,"empty":1440,"full":397,"on_shipper":35,"on_consignee":0,"shortage":0,"acc_shortage":0,"booking":29,"acc_booking":44382,"fulfillment":29,"acc_fulfillment":44382,"transfer_cost":0.0,"port_name":"Seattle","position":{"lat":47.608013,"lng":-122.335167},"status":"surplus"},{"frame_index":784,"name":"ports_16","capacity":10000,"empty":1979,"full":801,"on_shipper":85,"on_consignee":287,"shortage":0,"acc_shortage":760,"booking":37,"acc_booking":63157,"fulfillment":37,"acc_fulfillment":62397,"transfer_cost":6.0,"port_name":"Shanghai","position":{"lat":31.224361,"lng":121.46917},"status":"surplus"},{"frame_index":784,"name":"ports_17","capacity":10000,"empty":1580,"full":59,"on_shipper":24,"on_consignee":0,"shortage":0,"acc_shortage":283,"booking":17,"acc_booking":25568,"fulfillment":17,"acc_fulfillment":25285,"transfer_cost":0.0,"port_name":"Singapore","position":{"lat":1.29027,"lng":103.851959},"status":"surplus"},{"frame_index":784,"name":"ports_18","capacity":10000,"empty":0,"full":411,"on_shipper":0,"on_consignee":0,"shortage":7,"acc_shortage":1335,"booking":7,"acc_booking":9817,"fulfillment":0,"acc_fulfillment":8482,"transfer_cost":0.0,"port_name":"Sydney","position":{"lat":-33.865143,"lng":151.2099},"status":"balance"},{"frame_index":784,"name":"ports_19","capacity":10000,"empty":927,"full":432,"on_shipper":11,"on_consignee":0,"shortage":0,"acc_shortage":0,"booking":8,"acc_booking":13012,"fulfillment":8,"acc_fulfillment":13012,"transfer_cost":0.0,"port_name":"Vancouver","position":{"lat":49.246292,"lng":-123.116226},"status":"surplus"},{"frame_index":784,"name":"ports_20","capacity":10000,"empty":1224,"full":378,"on_shipper":35,"on_consignee":0,"shortage":0,"acc_shortage":942,"booking":30,"acc_booking":44079,"fulfillment":30,"acc_fulfillment":43137,"transfer_cost":0.0,"port_name":"Yantian","position":{"lat":26.8533,"lng":119.8575},"status":"surplus"},{"frame_index":784,"name":"ports_21","capacity":10000,"empty":0,"full":383,"on_shipper":0,"on_consignee":0,"shortage":21,"acc_shortage":6083,"booking":21,"acc_booking":42044,"fulfillment":0,"acc_fulfillment":35961,"transfer_cost":0.0,"port_name":"Yokohama","position":{"lat":35.443707,"lng":139.638031},"status":"demand"}]