[{"frame_index":938,"name":"ports_0","capacity":10000,"empty":4203,"full":1935,"on_shipper":370,"on_consignee":0,"shortage":0,"acc_shortage":522,"booking":274,"acc_booking":119565,"fulfillment":274,"acc_fulfillment":119043,"transfer_cost":0.0,"port_name":"Bremerhaven","position":{"lat":53.549999,"lng":8.583333},"status":"surplus"},{"frame_index":938,"name":"ports_1","capacity":10000,"empty":468,"full":129,"on_shipper":23,"on_consignee":0,"shortage":0,"acc_shortage":113,"booking":15,"acc_booking":7951,"fulfillment":15,"acc_fulfillment":7838,"transfer_cost":0.0,"port_name":"Durban","position":{"lat":-29.8579,"lng":31.0292},"status":"surplus"},{"frame_index":938,"name":"ports_2","capacity":10000,"empty":718,"full":100,"on_shipper":19,"on_consignee":0,"shortage":0,"acc_shortage":298,"booking":15,"acc_booking":7910,"fulfillment":15,"acc_fulfillment":7612,"transfer_cost":0.0,"port_name":"Itagual","position":{"lat":-22.85222,"lng":-43.77528},"status":"surplus"},{"frame_index":938,"name":"ports_3","capacity":10000,"empty":1224,"full":2260,"on_shipper":146,"on_consignee":0,"shortage":0,"acc_shortage":0,"booking":90,"acc_booking":45233,"fulfillment":90,"acc_fulfillment":45233,"transfer_cost":0.0,"port_name":"LeHavre","position":{"lat":49.490002,"lng":0.1},"status":"surplus"},{"frame_index":938,"name":"ports_4","capacity":10000,"empty":2814,"full":666,"on_shipper":131,"on_consignee":0,"shortage":0,"acc_shortage":290,"booking":73,"acc_booking":37889,"fulfillment":73,"acc_fulfillment":37599,"transfer_cost":0.0,"port_name":"Los Angeles","position":{"lat":34.052235,"lng":-118.243683},"status":"surplus"},{"frame_index":938,"name":"ports_5","capacity":10000,"empty":1368,"full":132,"on_shipper":116,"on_consignee":0,"shortage":0,"acc_shortage":163,"booking":83,"acc_booking":37964,"fulfillment":83,"acc_fulfillment":37801,"transfer_cost":0.0,"port_name":"Manzanillo","position":{"lat":19.11695,"lng":-104.34214},"status":"surplus"},{"frame_index":938,"name":"ports_6","capacity":10000,"empty":395,"full":208,"on_shipper":37,"on_consignee":0,"shortage":0,"acc_shortage":1855,"booking":23,"acc_booking":11663,"fulfillment":23,"acc_fulfillment":9808,"transfer_cost":0.0,"port_name":"Melbourne","position":{"lat":-37.840935,"lng":144.946457},"status":"surplus"},{"frame_index":938,"name":"ports_7","capacity":10000,"empty":1202,"full":363,"on_shipper":35,"on_consignee":0,"shortage":0,"acc_shortage":0,"booking":23,"acc_booking":11674,"fulfillment":23,"acc_fulfillment":11674,"transfer_cost":0.0,"port_name":"Montreal","position":{"lat":45.516136,"lng":-73.65683},"status":"surplus"},{"frame_index":938,"name":"ports_8","capacity":10000,"empty":469,"full":0,"on_shipper":63,"on_consignee":1237,"shortage":0,"acc_shortage":136,"booking":46,"acc_booking":22805,"fulfillment":46,"acc_fulfillment":22669,"transfer_cost":1877.0,"port_name":"New York","position":{"lat":40.73061,"lng":-73.935242},"status":"surplus"},{"frame_index":938,"name":"ports_9","capacity":10000,"empty":1649,"full":155,"on_shipper":71,"on_consignee":0,"shortage":0,"acc_shortage":45,"booking":50,"acc_booking":22830,"fulfillment":50,"acc_fulfillment":22785,"transfer_cost":0.0,"port_name":"Oakland","position":{"lat":37.804363,"lng":-122.271111},"status":"surplus"},{"frame_index":938,"name":"ports_10","capacity":10000,"empty":1687,"full":124,"on_shipper":28,"on_consignee":0,"shortage":0,"acc_shortage":314,"booking":23,"acc_booking":11698,"fulfillment":23,"acc_fulfillment":11384,"transfer_cost":0.0,"port_name":"Prince Rupert","position":{"lat":54.312519,"lng":-130.305405},"status":"surplus"},{"frame_index":938,"name":"ports_11","capacity":10000,"empty":3041,"full":457,"on_shipper":116,"on_consignee":0,"shortage":0,"acc_shortage":204,"booking":85,"acc_booking":45181,"fulfillment":85,"acc_fulfillment":44977,"transfer_cost":0.0,"port_name":"Pusan","position":{"lat":35.166668,"lng":129.066666},"status":"surplus"},{"frame_index":938,"name":"ports_12","capacity":10000,"empty":4981,"full":1077,"on_shipper":176,"on_consignee":0,"shortage":0,"acc_shortage":0,"booking":127,"acc_booking":60375,"fulfillment":127,"acc_fulfillment":60375,"transfer_cost":0.0,"port_name":"Qingdao","position":{"lat":36.066898,"lng":120.382698},"status":"surplus"},{"frame_index":938,"name":"ports_13","capacity":10000,"empty":353,"full":34,"on_shipper":26,"on_consignee":0,"shortage":0,"acc_shortage":449,"booking":17,"acc_booking":7919,"fulfillment":17,"acc_fulfillment":7470,"transfer_cost":0.0,"port_name":"San Antonio","position":{"lat":29.424349,"lng":-98.491142},"status":"surplus"},{"frame_index":938,"name":"ports_14","capacity":10000,"empty":40,"full":273,"on_shipper":23,"on_consignee":0,"shortage":0,"acc_shortage":819,"booking":13,"acc_booking":7971,"fulfillment":13,"acc_fulfillment":7152,"transfer_cost":0.0,"port_name":"Santos","position":{"lat":-23.96083,"lng":-46.33361},"status":"balance"},{"frame_index":938,"name":"ports_15","capacity":10000,"empty":443,"full":1799,"on_shipper":134,"on_consignee":0,"shortage":0,"acc_shortage":0,"booking":107,"acc_booking":52759,"fulfillment":107,"acc_fulfillment":52759,"transfer_cost":0.0,"port_name":"Seattle","position":{"lat":47.608013,"lng":-122.335167},"status":"demand"},{"frame_index":938,"name":"ports_16","capacity":10000,"empty":1380,"full":2785,"on_shipper":182,"on_consignee":0,"shortage":0,"acc_shortage":817,"booking":144,"acc_booking":75193,"fulfillment":144,"acc_fulfillment":74376,"transfer_cost":0.0,"port_name":"Shanghai","position":{"lat":31.224361,"lng":121.46917},"status":"surplus"},{"frame_index":938,"name":"ports_17","capacity":10000,"empty":903,"full":731,"on_shipper":103,"on_consignee":0,"shortage":0,"acc_shortage":283,"booking":60,"acc_booking":30381,"fulfillment":60,"acc_fulfillment":30098,"transfer_cost":0.0,"port_name":"Singapore","position":{"lat":1.29027,"lng":103.851959},"status":"surplus"},{"frame_index":938,"name":"ports_18","capacity":10000,"empty":688,"full":488,"on_shipper":30,"on_consignee":0,"shortage":0,"acc_shortage":1374,"booking":22,"acc_booking":11682,"fulfillment":22,"acc_fulfillment":10308,"transfer_cost":0.0,"port_name":"Sydney","position":{"lat":-33.865143,"lng":151.2099},"status":"surplus"},{"frame_index":938,"name":"ports_19","capacity":10000,"empty":975,"full":675,"on_shipper":33,"on_consignee":0,"shortage":0,"acc_shortage":0,"booking":28,"acc_booking":15452,"fulfillment":28,"acc_fulfillment":15452,"transfer_cost":0.0,"port_name":"Vancouver","position":{"lat":49.246292,"lng":-123.116226},"status":"surplus"},{"frame_index":938,"name":"ports_20","capacity":10000,"empty":992,"full":2630,"on_shipper":143,"on_consignee":14,"shortage":0,"acc_shortage":1292,"booking":92,"acc_booking":52435,"fulfillment":92,"acc_fulfillment":51143,"transfer_cost":0.0,"port_name":"Yantian","position":{"lat":26.8533,"lng":119.8575},"status":"surplus"},{"frame_index":938,"name":"ports_21","capacity":10000,"empty":861,"full":676,"on_shipper":175,"on_consignee":0,"shortage":0,"acc_shortage":7235,"booking":107,"acc_booking":49929,"fulfillment":107,"acc_fulfillment":42694,"transfer_cost":0.0,"port_name":"Yokohama","position":{"lat":35.443707,"lng":139.638031},"status":"surplus"}]