[{"frame_index":499,"name":"ports_0","capacity":10000,"empty":409,"full":3785,"on_shipper":133,"on_consignee":262,"shortage":0,"acc_shortage":522,"booking":76,"acc_booking":62898,"fulfillment":76,"acc_fulfillment":62376,"transfer_cost":0.0,"port_name":"Bremerhaven","position":{"lat":53.549999,"lng":8.583333},"status":"balance"},{"frame_index":499,"name":"ports_1","capacity":10000,"empty":475,"full":66,"on_shipper":11,"on_consignee":0,"shortage":0,"acc_shortage":0,"booking":6,"acc_booking":4210,"fulfillment":6,"acc_fulfillment":4210,"transfer_cost":0.0,"port_name":"Durban","position":{"lat":-29.8579,"lng":31.0292},"status":"surplus"},{"frame_index":499,"name":"ports_2","capacity":10000,"empty":993,"full":25,"on_shipper":9,"on_consignee":0,"shortage":0,"acc_shortage":233,"booking":5,"acc_booking":4182,"fulfillment":5,"acc_fulfillment":3949,"transfer_cost":0.0,"port_name":"Itagual","position":{"lat":-22.85222,"lng":-43.77528},"status":"surplus"},{"frame_index":499,"name":"ports_3","capacity":10000,"empty":3092,"full":874,"on_shipper":40,"on_consignee":0,"shortage":0,"acc_shortage":0,"booking":30,"acc_booking":23886,"fulfillment":30,"acc_fulfillment":23886,"transfer_cost":0.0,"port_name":"LeHavre","position":{"lat":49.490002,"lng":0.1},"status":"surplus"},{"frame_index":499,"name":"ports_4","capacity":10000,"empty":2278,"full":1325,"on_shipper":50,"on_consignee":0,"shortage":0,"acc_shortage":0,"booking":25,"acc_booking":19964,"fulfillment":25,"acc_fulfillment":19964,"transfer_cost":0.0,"port_name":"Los Angeles","position":{"lat":34.052235,"lng":-118.243683},"status":"surplus"},{"frame_index":499,"name":"ports_5","capacity":10000,"empty":1944,"full":0,"on_shipper":41,"on_consignee":258,"shortage":0,"acc_shortage":123,"booking":28,"acc_booking":20067,"fulfillment":28,"acc_fulfillment":19944,"transfer_cost":84.0,"port_name":"Manzanillo","position":{"lat":19.11695,"lng":-104.34214},"status":"surplus"},{"frame_index":499,"name":"ports_6","capacity":10000,"empty":359,"full":50,"on_shipper":11,"on_consignee":0,"shortage":0,"acc_shortage":837,"booking":8,"acc_booking":6152,"fulfillment":8,"acc_fulfillment":5315,"transfer_cost":0.0,"port_name":"Melbourne","position":{"lat":-37.840935,"lng":144.946457},"status":"surplus"},{"frame_index":499,"name":"ports_7","capacity":10000,"empty":1985,"full":257,"on_shipper":8,"on_consignee":0,"shortage":0,"acc_shortage":0,"booking":8,"acc_booking":6153,"fulfillment":8,"acc_fulfillment":6153,"transfer_cost":0.0,"port_name":"Montreal","position":{"lat":45.516136,"lng":-73.65683},"status":"surplus"},{"frame_index":499,"name":"ports_8","capacity":10000,"empty":1642,"full":715,"on_shipper":16,"on_consignee":0,"shortage":0,"acc_shortage":0,"booking":16,"acc_booking":12010,"fulfillment":16,"acc_fulfillment":12010,"transfer_cost":0.0,"port_name":"New York","position":{"lat":40.73061,"lng":-73.935242},"status":"surplus"},{"frame_index":499,"name":"ports_9","capacity":10000,"empty":1538,"full":283,"on_shipper":18,"on_consignee":0,"shortage":0,"acc_shortage":45,"booking":16,"acc_booking":12018,"fulfillment":16,"acc_fulfillment":11973,"transfer_cost":0.0,"port_name":"Oakland","position":{"lat":37.804363,"lng":-122.271111},"status":"surplus"},{"frame_index":499,"name":"ports_10","capacity":10000,"empty":0,"full":492,"on_shipper":0,"on_consignee":0,"shortage":8,"acc_shortage":127,"booking":8,"acc_booking":6164,"fulfillment":0,"acc_fulfillment":6037,"transfer_cost":0.0,"port_name":"Prince Rupert","position":{"lat":54.312519,"lng":-130.305405},"status":"balance"},{"frame_index":499,"name":"ports_11","capacity":10000,"empty":2742,"full":1181,"on_shipper":47,"on_consignee":0,"shortage":0,"acc_shortage":204,"booking":30,"acc_booking":23807,"fulfillment":30,"acc_fulfillment":23603,"transfer_cost":0.0,"port_name":"Pusan","position":{"lat":35.166668,"lng":129.066666},"status":"surplus"},{"frame_index":499,"name":"ports_12","capacity":10000,"empty":3658,"full":1694,"on_shipper":54,"on_consignee":107,"shortage":0,"acc_shortage":0,"booking":34,"acc_booking":31866,"fulfillment":34,"acc_fulfillment":31866,"transfer_cost":0.0,"port_name":"Qingdao","position":{"lat":36.066898,"lng":120.382698},"status":"surplus"},{"frame_index":499,"name":"ports_13","capacity":10000,"empty":469,"full":193,"on_shipper":9,"on_consignee":0,"shortage":0,"acc_shortage":286,"booking":5,"acc_booking":4177,"fulfillment":5,"acc_fulfillment":3891,"transfer_cost":0.0,"port_name":"San Antonio","position":{"lat":29.424349,"lng":-98.491142},"status":"surplus"},{"frame_index":499,"name":"ports_14","capacity":10000,"empty":42,"full":378,"on_shipper":10,"on_consignee":0,"shortage":0,"acc_shortage":697,"booking":6,"acc_booking":4214,"fulfillment":6,"acc_fulfillment":3517,"transfer_cost":0.0,"port_name":"Santos","position":{"lat":-23.96083,"lng":-46.33361},"status":"balance"},{"frame_index":499,"name":"ports_15","capacity":10000,"empty":3933,"full":831,"on_shipper":45,"on_consignee":0,"shortage":0,"acc_shortage":0,"booking":34,"acc_booking":27796,"fulfillment":34,"acc_fulfillment":27796,"transfer_cost":0.0,"port_name":"Seattle","position":{"lat":47.608013,"lng":-122.335167},"status":"surplus"},{"frame_index":499,"name":"ports_16","capacity":10000,"empty":46,"full":2760,"on_shipper":62,"on_consignee":0,"shortage":0,"acc_shortage":0,"booking":44,"acc_booking":39672,"fulfillment":44,"acc_fulfillment":39672,"transfer_cost":0.0,"port_name":"Shanghai","position":{"lat":31.224361,"lng":121.46917},"status":"demand"},{"frame_index":499,"name":"ports_17","capacity":10000,"empty":1975,"full":459,"on_shipper":32,"on_consignee":153,"shortage":0,"acc_shortage":40,"booking":20,"acc_booking":16019,"fulfillment":20,"acc_fulfillment":15979,"transfer_cost":756.0,"port_name":"Singapore","position":{"lat":1.29027,"lng":103.851959},"status":"surplus"},{"frame_index":499,"name":"ports_18","capacity":10000,"empty":339,"full":475,"on_shipper":15,"on_consignee":0,"shortage":0,"acc_shortage":774,"booking":8,"acc_booking":6125,"fulfillment":8,"acc_fulfillment":5351,"transfer_cost":0.0,"port_name":"Sydney","position":{"lat":-33.865143,"lng":151.2099},"status":"surplus"},{"frame_index":499,"name":"ports_19","capacity":10000,"empty":540,"full":579,"on_shipper":14,"on_consignee":0,"shortage":0,"acc_shortage":0,"booking":10,"acc_booking":8181,"fulfillment":10,"acc_fulfillment":8181,"transfer_cost":0.0,"port_name":"Vancouver","position":{"lat":49.246292,"lng":-123.116226},"status":"surplus"},{"frame_index":499,"name":"ports_20","capacity":10000,"empty":1419,"full":1123,"on_shipper":55,"on_consignee":0,"shortage":0,"acc_shortage":350,"booking":36,"acc_booking":27592,"fulfillment":36,"acc_fulfillment":27242,"transfer_cost":0.0,"port_name":"Yantian","position":{"lat":26.8533,"lng":119.8575},"status":"surplus"},{"frame_index":499,"name":"ports_21","capacity":10000,"empty":1550,"full":1367,"on_shipper":52,"on_consignee":45,"shortage":0,"acc_shortage":2740,"booking":27,"acc_booking":26264,"fulfillment":27,"acc_fulfillment":23524,"transfer_cost":0.0,"port_name":"Yokohama","position":{"lat":35.443707,"lng":139.638031},"status":"surplus"}]