[{"frame_index":947,"name":"ports_0","capacity":10000,"empty":2591,"full":3793,"on_shipper":124,"on_consignee":0,"shortage":0,"acc_shortage":522,"booking":113,"acc_booking":121177,"fulfillment":113,"acc_fulfillment":120655,"transfer_cost":0.0,"port_name":"Bremerhaven","position":{"lat":53.549999,"lng":8.583333},"status":"surplus"},{"frame_index":947,"name":"ports_1","capacity":10000,"empty":367,"full":242,"on_shipper":11,"on_consignee":0,"shortage":0,"acc_shortage":113,"booking":9,"acc_booking":8052,"fulfillment":9,"acc_fulfillment":7939,"transfer_cost":0.0,"port_name":"Durban","position":{"lat":-29.8579,"lng":31.0292},"status":"surplus"},{"frame_index":947,"name":"ports_2","capacity":10000,"empty":614,"full":213,"on_shipper":10,"on_consignee":0,"shortage":0,"acc_shortage":298,"booking":9,"acc_booking":8014,"fulfillment":9,"acc_fulfillment":7716,"transfer_cost":0.0,"port_name":"Itagual","position":{"lat":-22.85222,"lng":-43.77528},"status":"surplus"},{"frame_index":947,"name":"ports_3","capacity":10000,"empty":1084,"full":2588,"on_shipper":55,"on_consignee":0,"shortage":0,"acc_shortage":0,"booking":52,"acc_booking":45845,"fulfillment":52,"acc_fulfillment":45845,"transfer_cost":0.0,"port_name":"LeHavre","position":{"lat":49.490002,"lng":0.1},"status":"surplus"},{"frame_index":947,"name":"ports_4","capacity":10000,"empty":2305,"full":1252,"on_shipper":54,"on_consignee":0,"shortage":0,"acc_shortage":290,"booking":42,"acc_booking":38398,"fulfillment":42,"acc_fulfillment":38108,"transfer_cost":0.0,"port_name":"Los Angeles","position":{"lat":34.052235,"lng":-118.243683},"status":"surplus"},{"frame_index":947,"name":"ports_5","capacity":10000,"empty":863,"full":0,"on_shipper":49,"on_consignee":690,"shortage":0,"acc_shortage":163,"booking":37,"acc_booking":38470,"fulfillment":37,"acc_fulfillment":38307,"transfer_cost":1.0,"port_name":"Manzanillo","position":{"lat":19.11695,"lng":-104.34214},"status":"surplus"},{"frame_index":947,"name":"ports_6","capacity":10000,"empty":239,"full":386,"on_shipper":15,"on_consignee":0,"shortage":0,"acc_shortage":1855,"booking":13,"acc_booking":11819,"fulfillment":13,"acc_fulfillment":9964,"transfer_cost":0.0,"port_name":"Melbourne","position":{"lat":-37.840935,"lng":144.946457},"status":"surplus"},{"frame_index":947,"name":"ports_7","capacity":10000,"empty":1061,"full":0,"on_shipper":16,"on_consignee":479,"shortage":0,"acc_shortage":0,"booking":13,"acc_booking":11830,"fulfillment":13,"acc_fulfillment":11830,"transfer_cost":15.0,"port_name":"Montreal","position":{"lat":45.516136,"lng":-73.65683},"status":"surplus"},{"frame_index":947,"name":"ports_8","capacity":10000,"empty":1400,"full":341,"on_shipper":28,"on_consignee":0,"shortage":0,"acc_shortage":136,"booking":24,"acc_booking":23111,"fulfillment":24,"acc_fulfillment":22975,"transfer_cost":0.0,"port_name":"New York","position":{"lat":40.73061,"lng":-73.935242},"status":"surplus"},{"frame_index":947,"name":"ports_9","capacity":10000,"empty":1344,"full":497,"on_shipper":34,"on_consignee":0,"shortage":0,"acc_shortage":45,"booking":29,"acc_booking":23135,"fulfillment":29,"acc_fulfillment":23090,"transfer_cost":0.0,"port_name":"Oakland","position":{"lat":37.804363,"lng":-122.271111},"status":"surplus"},{"frame_index":947,"name":"ports_10","capacity":10000,"empty":1527,"full":292,"on_shipper":20,"on_consignee":0,"shortage":0,"acc_shortage":314,"booking":15,"acc_booking":11858,"fulfillment":15,"acc_fulfillment":11544,"transfer_cost":0.0,"port_name":"Prince Rupert","position":{"lat":54.312519,"lng":-130.305405},"status":"surplus"},{"frame_index":947,"name":"ports_11","capacity":10000,"empty":3309,"full":377,"on_shipper":54,"on_consignee":0,"shortage":0,"acc_shortage":204,"booking":49,"acc_booking":45784,"fulfillment":49,"acc_fulfillment":45580,"transfer_cost":0.0,"port_name":"Pusan","position":{"lat":35.166668,"lng":129.066666},"status":"surplus"},{"frame_index":947,"name":"ports_12","capacity":10000,"empty":4796,"full":908,"on_shipper":93,"on_consignee":0,"shortage":0,"acc_shortage":0,"booking":75,"acc_booking":61202,"fulfillment":75,"acc_fulfillment":61202,"transfer_cost":0.0,"port_name":"Qingdao","position":{"lat":36.066898,"lng":120.382698},"status":"surplus"},{"frame_index":947,"name":"ports_13","capacity":10000,"empty":250,"full":155,"on_shipper":8,"on_consignee":0,"shortage":0,"acc_shortage":449,"booking":8,"acc_booking":8022,"fulfillment":8,"acc_fulfillment":7573,"transfer_cost":0.0,"port_name":"San Antonio","position":{"lat":29.424349,"lng":-98.491142},"status":"surplus"},{"frame_index":947,"name":"ports_14","capacity":10000,"empty":367,"full":0,"on_shipper":10,"on_consignee":310,"shortage":0,"acc_shortage":876,"booking":10,"acc_booking":8078,"fulfillment":10,"acc_fulfillment":7202,"transfer_cost":0.0,"port_name":"Santos","position":{"lat":-23.96083,"lng":-46.33361},"status":"surplus"},{"frame_index":947,"name":"ports_15","capacity":10000,"empty":355,"full":1147,"on_shipper":66,"on_consignee":0,"shortage":0,"acc_shortage":141,"booking":57,"acc_booking":53474,"fulfillment":57,"acc_fulfillment":53333,"transfer_cost":0.0,"port_name":"Seattle","position":{"lat":47.608013,"lng":-122.335167},"status":"surplus"},{"frame_index":947,"name":"ports_16","capacity":10000,"empty":3306,"full":198,"on_shipper":113,"on_consignee":44,"shortage":0,"acc_shortage":817,"booking":94,"acc_booking":76178,"fulfillment":94,"acc_fulfillment":75361,"transfer_cost":1.0,"port_name":"Shanghai","position":{"lat":31.224361,"lng":121.46917},"status":"surplus"},{"frame_index":947,"name":"ports_17","capacity":10000,"empty":827,"full":723,"on_shipper":41,"on_consignee":0,"shortage":0,"acc_shortage":283,"booking":34,"acc_booking":30788,"fulfillment":34,"acc_fulfillment":30505,"transfer_cost":0.0,"port_name":"Singapore","position":{"lat":1.29027,"lng":103.851959},"status":"surplus"},{"frame_index":947,"name":"ports_18","capacity":10000,"empty":827,"full":243,"on_shipper":12,"on_consignee":0,"shortage":0,"acc_shortage":1374,"booking":12,"acc_booking":11831,"fulfillment":12,"acc_fulfillment":10457,"transfer_cost":0.0,"port_name":"Sydney","position":{"lat":-33.865143,"lng":151.2099},"status":"surplus"},{"frame_index":947,"name":"ports_19","capacity":10000,"empty":772,"full":890,"on_shipper":21,"on_consignee":0,"shortage":0,"acc_shortage":0,"booking":17,"acc_booking":15655,"fulfillment":17,"acc_fulfillment":15655,"transfer_cost":0.0,"port_name":"Vancouver","position":{"lat":49.246292,"lng":-123.116226},"status":"surplus"},{"frame_index":947,"name":"ports_20","capacity":10000,"empty":352,"full":3108,"on_shipper":66,"on_consignee":0,"shortage":0,"acc_shortage":1292,"booking":59,"acc_booking":53151,"fulfillment":59,"acc_fulfillment":51859,"transfer_cost":0.0,"port_name":"Yantian","position":{"lat":26.8533,"lng":119.8575},"status":"surplus"},{"frame_index":947,"name":"ports_21","capacity":10000,"empty":155,"full":1493,"on_shipper":64,"on_consignee":0,"shortage":0,"acc_shortage":7235,"booking":54,"acc_booking":50635,"fulfillment":54,"acc_fulfillment":43400,"transfer_cost":0.0,"port_name":"Yokohama","position":{"lat":35.443707,"lng":139.638031},"status":"demand"}]