[{"frame_index":138,"name":"ports_0","capacity":10000,"empty":7493,"full":978,"on_shipper":280,"on_consignee":0,"shortage":0,"acc_shortage":0,"booking":166,"acc_booking":16072,"fulfillment":166,"acc_fulfillment":16072,"transfer_cost":0.0,"port_name":"Bremerhaven","position":{"lat":53.549999,"lng":8.583333},"status":"surplus"},{"frame_index":138,"name":"ports_1","capacity":10000,"empty":783,"full":81,"on_shipper":16,"on_consignee":0,"shortage":0,"acc_shortage":0,"booking":10,"acc_booking":1088,"fulfillment":10,"acc_fulfillment":1088,"transfer_cost":0.0,"port_name":"Durban","position":{"lat":-29.8579,"lng":31.0292},"status":"surplus"},{"frame_index":138,"name":"ports_2","capacity":10000,"empty":3,"full":704,"on_shipper":13,"on_consignee":0,"shortage":0,"acc_shortage":0,"booking":11,"acc_booking":1077,"fulfillment":11,"acc_fulfillment":1077,"transfer_cost":0.0,"port_name":"Itagual","position":{"lat":-22.85222,"lng":-43.77528},"status":"demand"},{"frame_index":138,"name":"ports_3","capacity":10000,"empty":2315,"full":340,"on_shipper":79,"on_consignee":0,"shortage":0,"acc_shortage":0,"booking":62,"acc_booking":6133,"fulfillment":62,"acc_fulfillment":6133,"transfer_cost":0.0,"port_name":"LeHavre","position":{"lat":49.490002,"lng":0.1},"status":"surplus"},{"frame_index":138,"name":"ports_4","capacity":10000,"empty":3025,"full":603,"on_shipper":74,"on_consignee":0,"shortage":0,"acc_shortage":0,"booking":52,"acc_booking":5123,"fulfillment":52,"acc_fulfillment":5123,"transfer_cost":0.0,"port_name":"Los Angeles","position":{"lat":34.052235,"lng":-118.243683},"status":"surplus"},{"frame_index":138,"name":"ports_5","capacity":10000,"empty":529,"full":383,"on_shipper":63,"on_consignee":0,"shortage":0,"acc_shortage":0,"booking":47,"acc_booking":5068,"fulfillment":47,"acc_fulfillment":5068,"transfer_cost":0.0,"port_name":"Manzanillo","position":{"lat":19.11695,"lng":-104.34214},"status":"surplus"},{"frame_index":138,"name":"ports_6","capacity":10000,"empty":814,"full":27,"on_shipper":18,"on_consignee":0,"shortage":0,"acc_shortage":0,"booking":15,"acc_booking":1582,"fulfillment":15,"acc_fulfillment":1582,"transfer_cost":0.0,"port_name":"Melbourne","position":{"lat":-37.840935,"lng":144.946457},"status":"surplus"},{"frame_index":138,"name":"ports_7","capacity":10000,"empty":2143,"full":140,"on_shipper":21,"on_consignee":0,"shortage":0,"acc_shortage":0,"booking":16,"acc_booking":1577,"fulfillment":16,"acc_fulfillment":1577,"transfer_cost":0.0,"port_name":"Montreal","position":{"lat":45.516136,"lng":-73.65683},"status":"surplus"},{"frame_index":138,"name":"ports_8","capacity":10000,"empty":1476,"full":371,"on_shipper":38,"on_consignee":0,"shortage":0,"acc_shortage":0,"booking":29,"acc_booking":3093,"fulfillment":29,"acc_fulfillment":3093,"transfer_cost":0.0,"port_name":"New York","position":{"lat":40.73061,"lng":-73.935242},"status":"surplus"},{"frame_index":138,"name":"ports_9","capacity":10000,"empty":2173,"full":192,"on_shipper":51,"on_consignee":0,"shortage":0,"acc_shortage":0,"booking":33,"acc_booking":3065,"fulfillment":33,"acc_fulfillment":3065,"transfer_cost":0.0,"port_name":"Oakland","position":{"lat":37.804363,"lng":-122.271111},"status":"surplus"},{"frame_index":138,"name":"ports_10","capacity":10000,"empty":263,"full":418,"on_shipper":18,"on_consignee":0,"shortage":0,"acc_shortage":0,"booking":13,"acc_booking":1578,"fulfillment":13,"acc_fulfillment":1578,"transfer_cost":0.0,"port_name":"Prince Rupert","position":{"lat":54.312519,"lng":-130.305405},"status":"surplus"},{"frame_index":138,"name":"ports_11","capacity":10000,"empty":1924,"full":171,"on_shipper":77,"on_consignee":380,"shortage":0,"acc_shortage":0,"booking":62,"acc_booking":6108,"fulfillment":62,"acc_fulfillment":6108,"transfer_cost":0.0,"port_name":"Pusan","position":{"lat":35.166668,"lng":129.066666},"status":"surplus"},{"frame_index":138,"name":"ports_12","capacity":10000,"empty":4668,"full":690,"on_shipper":108,"on_consignee":129,"shortage":0,"acc_shortage":0,"booking":88,"acc_booking":8145,"fulfillment":88,"acc_fulfillment":8145,"transfer_cost":0.0,"port_name":"Qingdao","position":{"lat":36.066898,"lng":120.382698},"status":"surplus"},{"frame_index":138,"name":"ports_13","capacity":10000,"empty":322,"full":147,"on_shipper":16,"on_consignee":0,"shortage":0,"acc_shortage":0,"booking":12,"acc_booking":1082,"fulfillment":12,"acc_fulfillment":1082,"transfer_cost":0.0,"port_name":"San Antonio","position":{"lat":29.424349,"lng":-98.491142},"status":"surplus"},{"frame_index":138,"name":"ports_14","capacity":10000,"empty":89,"full":119,"on_shipper":16,"on_consignee":0,"shortage":0,"acc_shortage":0,"booking":11,"acc_booking":1087,"fulfillment":11,"acc_fulfillment":1087,"transfer_cost":0.0,"port_name":"Santos","position":{"lat":-23.96083,"lng":-46.33361},"status":"balance"},{"frame_index":138,"name":"ports_15","capacity":10000,"empty":3193,"full":18,"on_shipper":92,"on_consignee":84,"shortage":0,"acc_shortage":0,"booking":70,"acc_booking":7132,"fulfillment":70,"acc_fulfillment":7132,"transfer_cost":0.0,"port_name":"Seattle","position":{"lat":47.608013,"lng":-122.335167},"status":"surplus"},{"frame_index":138,"name":"ports_16","capacity":10000,"empty":2204,"full":180,"on_shipper":122,"on_consignee":971,"shortage":0,"acc_shortage":0,"booking":92,"acc_booking":10204,"fulfillment":92,"acc_fulfillment":10204,"transfer_cost":75.0,"port_name":"Shanghai","position":{"lat":31.224361,"lng":121.46917},"status":"surplus"},{"frame_index":138,"name":"ports_17","capacity":10000,"empty":2322,"full":383,"on_shipper":56,"on_consignee":43,"shortage":0,"acc_shortage":0,"booking":41,"acc_booking":4116,"fulfillment":41,"acc_fulfillment":4116,"transfer_cost":0.0,"port_name":"Singapore","position":{"lat":1.29027,"lng":103.851959},"status":"surplus"},{"frame_index":138,"name":"ports_18","capacity":10000,"empty":666,"full":132,"on_shipper":24,"on_consignee":0,"shortage":0,"acc_shortage":0,"booking":16,"acc_booking":1558,"fulfillment":16,"acc_fulfillment":1558,"transfer_cost":0.0,"port_name":"Sydney","position":{"lat":-33.865143,"lng":151.2099},"status":"surplus"},{"frame_index":138,"name":"ports_19","capacity":10000,"empty":418,"full":623,"on_shipper":29,"on_consignee":0,"shortage":0,"acc_shortage":0,"booking":20,"acc_booking":2099,"fulfillment":20,"acc_fulfillment":2099,"transfer_cost":0.0,"port_name":"Vancouver","position":{"lat":49.246292,"lng":-123.116226},"status":"surplus"},{"frame_index":138,"name":"ports_20","capacity":10000,"empty":1646,"full":528,"on_shipper":94,"on_consignee":0,"shortage":0,"acc_shortage":0,"booking":73,"acc_booking":6989,"fulfillment":73,"acc_fulfillment":6989,"transfer_cost":0.0,"port_name":"Yantian","position":{"lat":26.8533,"lng":119.8575},"status":"surplus"},{"frame_index":138,"name":"ports_21","capacity":10000,"empty":2981,"full":642,"on_shipper":93,"on_consignee":0,"shortage":0,"acc_shortage":0,"booking":69,"acc_booking":6614,"fulfillment":69,"acc_fulfillment":6614,"transfer_cost":0.0,"port_name":"Yokohama","position":{"lat":35.443707,"lng":139.638031},"status":"surplus"}]