[{"frame_index":88,"name":"ports_0","capacity":10000,"empty":4816,"full":2347,"on_shipper":223,"on_consignee":0,"shortage":0,"acc_shortage":0,"booking":158,"acc_booking":12577,"fulfillment":158,"acc_fulfillment":12577,"transfer_cost":0.0,"port_name":"Bremerhaven","position":{"lat":53.549999,"lng":8.583333},"status":"surplus"},{"frame_index":88,"name":"ports_1","capacity":10000,"empty":231,"full":600,"on_shipper":19,"on_consignee":0,"shortage":0,"acc_shortage":0,"booking":11,"acc_booking":841,"fulfillment":11,"acc_fulfillment":841,"transfer_cost":0.0,"port_name":"Durban","position":{"lat":-29.8579,"lng":31.0292},"status":"surplus"},{"frame_index":88,"name":"ports_2","capacity":10000,"empty":248,"full":462,"on_shipper":10,"on_consignee":0,"shortage":0,"acc_shortage":0,"booking":10,"acc_booking":832,"fulfillment":10,"acc_fulfillment":832,"transfer_cost":0.0,"port_name":"Itagual","position":{"lat":-22.85222,"lng":-43.77528},"status":"surplus"},{"frame_index":88,"name":"ports_3","capacity":10000,"empty":1343,"full":1576,"on_shipper":89,"on_consignee":0,"shortage":0,"acc_shortage":0,"booking":56,"acc_booking":4807,"fulfillment":56,"acc_fulfillment":4807,"transfer_cost":0.0,"port_name":"LeHavre","position":{"lat":49.490002,"lng":0.1},"status":"surplus"},{"frame_index":88,"name":"ports_4","capacity":10000,"empty":2041,"full":587,"on_shipper":75,"on_consignee":0,"shortage":0,"acc_shortage":0,"booking":46,"acc_booking":4009,"fulfillment":46,"acc_fulfillment":4009,"transfer_cost":0.0,"port_name":"Los Angeles","position":{"lat":34.052235,"lng":-118.243683},"status":"surplus"},{"frame_index":88,"name":"ports_5","capacity":10000,"empty":2103,"full":549,"on_shipper":74,"on_consignee":0,"shortage":0,"acc_shortage":0,"booking":50,"acc_booking":3975,"fulfillment":50,"acc_fulfillment":3975,"transfer_cost":0.0,"port_name":"Manzanillo","position":{"lat":19.11695,"lng":-104.34214},"status":"surplus"},{"frame_index":88,"name":"ports_6","capacity":10000,"empty":444,"full":256,"on_shipper":23,"on_consignee":0,"shortage":0,"acc_shortage":0,"booking":14,"acc_booking":1232,"fulfillment":14,"acc_fulfillment":1232,"transfer_cost":0.0,"port_name":"Melbourne","position":{"lat":-37.840935,"lng":144.946457},"status":"surplus"},{"frame_index":88,"name":"ports_7","capacity":10000,"empty":1632,"full":77,"on_shipper":28,"on_consignee":0,"shortage":0,"acc_shortage":0,"booking":14,"acc_booking":1227,"fulfillment":14,"acc_fulfillment":1227,"transfer_cost":0.0,"port_name":"Montreal","position":{"lat":45.516136,"lng":-73.65683},"status":"surplus"},{"frame_index":88,"name":"ports_8","capacity":10000,"empty":1544,"full":1287,"on_shipper":39,"on_consignee":0,"shortage":0,"acc_shortage":0,"booking":29,"acc_booking":2417,"fulfillment":29,"acc_fulfillment":2417,"transfer_cost":0.0,"port_name":"New York","position":{"lat":40.73061,"lng":-73.935242},"status":"surplus"},{"frame_index":88,"name":"ports_9","capacity":10000,"empty":789,"full":1645,"on_shipper":55,"on_consignee":0,"shortage":0,"acc_shortage":0,"booking":31,"acc_booking":2387,"fulfillment":31,"acc_fulfillment":2387,"transfer_cost":0.0,"port_name":"Oakland","position":{"lat":37.804363,"lng":-122.271111},"status":"surplus"},{"frame_index":88,"name":"ports_10","capacity":10000,"empty":611,"full":70,"on_shipper":18,"on_consignee":0,"shortage":0,"acc_shortage":0,"booking":12,"acc_booking":1230,"fulfillment":12,"acc_fulfillment":1230,"transfer_cost":0.0,"port_name":"Prince Rupert","position":{"lat":54.312519,"lng":-130.305405},"status":"surplus"},{"frame_index":88,"name":"ports_11","capacity":10000,"empty":1520,"full":1071,"on_shipper":84,"on_consignee":0,"shortage":0,"acc_shortage":0,"booking":55,"acc_booking":4794,"fulfillment":55,"acc_fulfillment":4794,"transfer_cost":0.0,"port_name":"Pusan","position":{"lat":35.166668,"lng":129.066666},"status":"surplus"},{"frame_index":88,"name":"ports_12","capacity":10000,"empty":2443,"full":2346,"on_shipper":103,"on_consignee":25,"shortage":0,"acc_shortage":0,"booking":75,"acc_booking":6394,"fulfillment":75,"acc_fulfillment":6394,"transfer_cost":0.0,"port_name":"Qingdao","position":{"lat":36.066898,"lng":120.382698},"status":"surplus"},{"frame_index":88,"name":"ports_13","capacity":10000,"empty":309,"full":136,"on_shipper":16,"on_consignee":0,"shortage":0,"acc_shortage":0,"booking":9,"acc_booking":840,"fulfillment":9,"acc_fulfillment":840,"transfer_cost":0.0,"port_name":"San Antonio","position":{"lat":29.424349,"lng":-98.491142},"status":"surplus"},{"frame_index":88,"name":"ports_14","capacity":10000,"empty":195,"full":118,"on_shipper":18,"on_consignee":0,"shortage":0,"acc_shortage":0,"booking":11,"acc_booking":841,"fulfillment":11,"acc_fulfillment":841,"transfer_cost":0.0,"port_name":"Santos","position":{"lat":-23.96083,"lng":-46.33361},"status":"surplus"},{"frame_index":88,"name":"ports_15","capacity":10000,"empty":1635,"full":3782,"on_shipper":112,"on_consignee":0,"shortage":0,"acc_shortage":0,"booking":65,"acc_booking":5597,"fulfillment":65,"acc_fulfillment":5597,"transfer_cost":0.0,"port_name":"Seattle","position":{"lat":47.608013,"lng":-122.335167},"status":"surplus"},{"frame_index":88,"name":"ports_16","capacity":10000,"empty":2187,"full":3386,"on_shipper":121,"on_consignee":0,"shortage":0,"acc_shortage":0,"booking":77,"acc_booking":8032,"fulfillment":77,"acc_fulfillment":8032,"transfer_cost":0.0,"port_name":"Shanghai","position":{"lat":31.224361,"lng":121.46917},"status":"surplus"},{"frame_index":88,"name":"ports_17","capacity":10000,"empty":1968,"full":570,"on_shipper":52,"on_consignee":0,"shortage":0,"acc_shortage":0,"booking":38,"acc_booking":3220,"fulfillment":38,"acc_fulfillment":3220,"transfer_cost":0.0,"port_name":"Singapore","position":{"lat":1.29027,"lng":103.851959},"status":"surplus"},{"frame_index":88,"name":"ports_18","capacity":10000,"empty":430,"full":337,"on_shipper":23,"on_consignee":0,"shortage":0,"acc_shortage":0,"booking":14,"acc_booking":1214,"fulfillment":14,"acc_fulfillment":1214,"transfer_cost":0.0,"port_name":"Sydney","position":{"lat":-33.865143,"lng":151.2099},"status":"surplus"},{"frame_index":88,"name":"ports_19","capacity":10000,"empty":584,"full":447,"on_shipper":23,"on_consignee":0,"shortage":0,"acc_shortage":0,"booking":20,"acc_booking":1639,"fulfillment":20,"acc_fulfillment":1639,"transfer_cost":0.0,"port_name":"Vancouver","position":{"lat":49.246292,"lng":-123.116226},"status":"surplus"},{"frame_index":88,"name":"ports_20","capacity":10000,"empty":1998,"full":2030,"on_shipper":84,"on_consignee":0,"shortage":0,"acc_shortage":0,"booking":62,"acc_booking":5481,"fulfillment":62,"acc_fulfillment":5481,"transfer_cost":0.0,"port_name":"Yantian","position":{"lat":26.8533,"lng":119.8575},"status":"surplus"},{"frame_index":88,"name":"ports_21","capacity":10000,"empty":2869,"full":798,"on_shipper":110,"on_consignee":0,"shortage":0,"acc_shortage":0,"booking":63,"acc_booking":5413,"fulfillment":63,"acc_fulfillment":5413,"transfer_cost":0.0,"port_name":"Yokohama","position":{"lat":35.443707,"lng":139.638031},"status":"surplus"}]