[{"frame_index":642,"name":"ports_0","capacity":10000,"empty":2012,"full":4883,"on_shipper":215,"on_consignee":0,"shortage":0,"acc_shortage":522,"booking":124,"acc_booking":83251,"fulfillment":124,"acc_fulfillment":82729,"transfer_cost":0.0,"port_name":"Bremerhaven","position":{"lat":53.549999,"lng":8.583333},"status":"surplus"},{"frame_index":642,"name":"ports_1","capacity":10000,"empty":312,"full":56,"on_shipper":14,"on_consignee":0,"shortage":0,"acc_shortage":0,"booking":9,"acc_booking":5532,"fulfillment":9,"acc_fulfillment":5532,"transfer_cost":0.0,"port_name":"Durban","position":{"lat":-29.8579,"lng":31.0292},"status":"surplus"},{"frame_index":642,"name":"ports_2","capacity":10000,"empty":18,"full":209,"on_shipper":13,"on_consignee":0,"shortage":0,"acc_shortage":233,"booking":9,"acc_booking":5510,"fulfillment":9,"acc_fulfillment":5277,"transfer_cost":0.0,"port_name":"Itagual","position":{"lat":-22.85222,"lng":-43.77528},"status":"balance"},{"frame_index":642,"name":"ports_3","capacity":10000,"empty":903,"full":752,"on_shipper":75,"on_consignee":1101,"shortage":0,"acc_shortage":0,"booking":55,"acc_booking":31510,"fulfillment":55,"acc_fulfillment":31510,"transfer_cost":0.0,"port_name":"LeHavre","position":{"lat":49.490002,"lng":0.1},"status":"surplus"},{"frame_index":642,"name":"ports_4","capacity":10000,"empty":271,"full":89,"on_shipper":50,"on_consignee":1070,"shortage":0,"acc_shortage":150,"booking":44,"acc_booking":26364,"fulfillment":44,"acc_fulfillment":26214,"transfer_cost":0.0,"port_name":"Los Angeles","position":{"lat":34.052235,"lng":-118.243683},"status":"surplus"},{"frame_index":642,"name":"ports_5","capacity":10000,"empty":1707,"full":69,"on_shipper":59,"on_consignee":0,"shortage":0,"acc_shortage":123,"booking":46,"acc_booking":26452,"fulfillment":46,"acc_fulfillment":26329,"transfer_cost":0.0,"port_name":"Manzanillo","position":{"lat":19.11695,"lng":-104.34214},"status":"surplus"},{"frame_index":642,"name":"ports_6","capacity":10000,"empty":342,"full":264,"on_shipper":22,"on_consignee":0,"shortage":0,"acc_shortage":1336,"booking":14,"acc_booking":8113,"fulfillment":14,"acc_fulfillment":6777,"transfer_cost":0.0,"port_name":"Melbourne","position":{"lat":-37.840935,"lng":144.946457},"status":"surplus"},{"frame_index":642,"name":"ports_7","capacity":10000,"empty":905,"full":587,"on_shipper":19,"on_consignee":0,"shortage":0,"acc_shortage":0,"booking":14,"acc_booking":8119,"fulfillment":14,"acc_fulfillment":8119,"transfer_cost":0.0,"port_name":"Montreal","position":{"lat":45.516136,"lng":-73.65683},"status":"surplus"},{"frame_index":642,"name":"ports_8","capacity":10000,"empty":1403,"full":1481,"on_shipper":38,"on_consignee":0,"shortage":0,"acc_shortage":0,"booking":27,"acc_booking":15873,"fulfillment":27,"acc_fulfillment":15873,"transfer_cost":0.0,"port_name":"New York","position":{"lat":40.73061,"lng":-73.935242},"status":"surplus"},{"frame_index":642,"name":"ports_9","capacity":10000,"empty":1210,"full":403,"on_shipper":40,"on_consignee":0,"shortage":0,"acc_shortage":45,"booking":29,"acc_booking":15932,"fulfillment":29,"acc_fulfillment":15887,"transfer_cost":0.0,"port_name":"Oakland","position":{"lat":37.804363,"lng":-122.271111},"status":"surplus"},{"frame_index":642,"name":"ports_10","capacity":10000,"empty":1197,"full":583,"on_shipper":25,"on_consignee":0,"shortage":0,"acc_shortage":314,"booking":16,"acc_booking":8144,"fulfillment":16,"acc_fulfillment":7830,"transfer_cost":0.0,"port_name":"Prince Rupert","position":{"lat":54.312519,"lng":-130.305405},"status":"surplus"},{"frame_index":642,"name":"ports_11","capacity":10000,"empty":3145,"full":708,"on_shipper":78,"on_consignee":0,"shortage":0,"acc_shortage":204,"booking":55,"acc_booking":31475,"fulfillment":55,"acc_fulfillment":31271,"transfer_cost":0.0,"port_name":"Pusan","position":{"lat":35.166668,"lng":129.066666},"status":"surplus"},{"frame_index":642,"name":"ports_12","capacity":10000,"empty":1303,"full":1658,"on_shipper":113,"on_consignee":735,"shortage":0,"acc_shortage":0,"booking":78,"acc_booking":42040,"fulfillment":78,"acc_fulfillment":42040,"transfer_cost":0.0,"port_name":"Qingdao","position":{"lat":36.066898,"lng":120.382698},"status":"surplus"},{"frame_index":642,"name":"ports_13","capacity":10000,"empty":327,"full":192,"on_shipper":14,"on_consignee":0,"shortage":0,"acc_shortage":325,"booking":10,"acc_booking":5510,"fulfillment":10,"acc_fulfillment":5185,"transfer_cost":0.0,"port_name":"San Antonio","position":{"lat":29.424349,"lng":-98.491142},"status":"surplus"},{"frame_index":642,"name":"ports_14","capacity":10000,"empty":714,"full":45,"on_shipper":12,"on_consignee":0,"shortage":0,"acc_shortage":762,"booking":8,"acc_booking":5555,"fulfillment":8,"acc_fulfillment":4793,"transfer_cost":0.0,"port_name":"Santos","position":{"lat":-23.96083,"lng":-46.33361},"status":"surplus"},{"frame_index":642,"name":"ports_15","capacity":10000,"empty":1910,"full":1716,"on_shipper":73,"on_consignee":257,"shortage":0,"acc_shortage":0,"booking":64,"acc_booking":36713,"fulfillment":64,"acc_fulfillment":36713,"transfer_cost":0.0,"port_name":"Seattle","position":{"lat":47.608013,"lng":-122.335167},"status":"surplus"},{"frame_index":642,"name":"ports_16","capacity":10000,"empty":1276,"full":367,"on_shipper":135,"on_consignee":421,"shortage":0,"acc_shortage":712,"booking":95,"acc_booking":52269,"fulfillment":95,"acc_fulfillment":51557,"transfer_cost":0.0,"port_name":"Shanghai","position":{"lat":31.224361,"lng":121.46917},"status":"surplus"},{"frame_index":642,"name":"ports_17","capacity":10000,"empty":968,"full":494,"on_shipper":52,"on_consignee":0,"shortage":0,"acc_shortage":283,"booking":37,"acc_booking":21160,"fulfillment":37,"acc_fulfillment":20877,"transfer_cost":0.0,"port_name":"Singapore","position":{"lat":1.29027,"lng":103.851959},"status":"surplus"},{"frame_index":642,"name":"ports_18","capacity":10000,"empty":127,"full":119,"on_shipper":19,"on_consignee":0,"shortage":0,"acc_shortage":957,"booking":15,"acc_booking":8082,"fulfillment":15,"acc_fulfillment":7125,"transfer_cost":0.0,"port_name":"Sydney","position":{"lat":-33.865143,"lng":151.2099},"status":"surplus"},{"frame_index":642,"name":"ports_19","capacity":10000,"empty":847,"full":466,"on_shipper":21,"on_consignee":0,"shortage":0,"acc_shortage":0,"booking":19,"acc_booking":10776,"fulfillment":19,"acc_fulfillment":10776,"transfer_cost":0.0,"port_name":"Vancouver","position":{"lat":49.246292,"lng":-123.116226},"status":"surplus"},{"frame_index":642,"name":"ports_20","capacity":10000,"empty":660,"full":316,"on_shipper":87,"on_consignee":391,"shortage":0,"acc_shortage":395,"booking":70,"acc_booking":36444,"fulfillment":70,"acc_fulfillment":36049,"transfer_cost":78.0,"port_name":"Yantian","position":{"lat":26.8533,"lng":119.8575},"status":"surplus"},{"frame_index":642,"name":"ports_21","capacity":10000,"empty":380,"full":1971,"on_shipper":81,"on_consignee":0,"shortage":0,"acc_shortage":3563,"booking":63,"acc_booking":34896,"fulfillment":63,"acc_fulfillment":31333,"transfer_cost":0.0,"port_name":"Yokohama","position":{"lat":35.443707,"lng":139.638031},"status":"surplus"}]