[{"frame_index":933,"name":"ports_0","capacity":10000,"empty":5244,"full":1176,"on_shipper":88,"on_consignee":0,"shortage":0,"acc_shortage":522,"booking":79,"acc_booking":118524,"fulfillment":79,"acc_fulfillment":118002,"transfer_cost":0.0,"port_name":"Bremerhaven","position":{"lat":53.549999,"lng":8.583333},"status":"surplus"},{"frame_index":933,"name":"ports_1","capacity":10000,"empty":533,"full":79,"on_shipper":8,"on_consignee":0,"shortage":0,"acc_shortage":113,"booking":6,"acc_booking":7886,"fulfillment":6,"acc_fulfillment":7773,"transfer_cost":0.0,"port_name":"Durban","position":{"lat":-29.8579,"lng":31.0292},"status":"surplus"},{"frame_index":933,"name":"ports_2","capacity":10000,"empty":781,"full":48,"on_shipper":8,"on_consignee":0,"shortage":0,"acc_shortage":298,"booking":6,"acc_booking":7847,"fulfillment":6,"acc_fulfillment":7549,"transfer_cost":0.0,"port_name":"Itagual","position":{"lat":-22.85222,"lng":-43.77528},"status":"surplus"},{"frame_index":933,"name":"ports_3","capacity":10000,"empty":1397,"full":1999,"on_shipper":44,"on_consignee":190,"shortage":0,"acc_shortage":0,"booking":34,"acc_booking":44870,"fulfillment":34,"acc_fulfillment":44870,"transfer_cost":0.0,"port_name":"LeHavre","position":{"lat":49.490002,"lng":0.1},"status":"surplus"},{"frame_index":933,"name":"ports_4","capacity":10000,"empty":3122,"full":452,"on_shipper":37,"on_consignee":0,"shortage":0,"acc_shortage":290,"booking":29,"acc_booking":37581,"fulfillment":29,"acc_fulfillment":37291,"transfer_cost":0.0,"port_name":"Los Angeles","position":{"lat":34.052235,"lng":-118.243683},"status":"surplus"},{"frame_index":933,"name":"ports_5","capacity":10000,"empty":833,"full":146,"on_shipper":37,"on_consignee":0,"shortage":0,"acc_shortage":163,"booking":30,"acc_booking":37655,"fulfillment":30,"acc_fulfillment":37492,"transfer_cost":0.0,"port_name":"Manzanillo","position":{"lat":19.11695,"lng":-104.34214},"status":"surplus"},{"frame_index":933,"name":"ports_6","capacity":10000,"empty":489,"full":142,"on_shipper":9,"on_consignee":0,"shortage":0,"acc_shortage":1855,"booking":9,"acc_booking":11569,"fulfillment":9,"acc_fulfillment":9714,"transfer_cost":0.0,"port_name":"Melbourne","position":{"lat":-37.840935,"lng":144.946457},"status":"surplus"},{"frame_index":933,"name":"ports_7","capacity":10000,"empty":1296,"full":292,"on_shipper":12,"on_consignee":0,"shortage":0,"acc_shortage":0,"booking":9,"acc_booking":11580,"fulfillment":9,"acc_fulfillment":11580,"transfer_cost":0.0,"port_name":"Montreal","position":{"lat":45.516136,"lng":-73.65683},"status":"surplus"},{"frame_index":933,"name":"ports_8","capacity":10000,"empty":2530,"full":526,"on_shipper":17,"on_consignee":0,"shortage":0,"acc_shortage":136,"booking":17,"acc_booking":22621,"fulfillment":17,"acc_fulfillment":22485,"transfer_cost":0.0,"port_name":"New York","position":{"lat":40.73061,"lng":-73.935242},"status":"surplus"},{"frame_index":933,"name":"ports_9","capacity":10000,"empty":1077,"full":10,"on_shipper":25,"on_consignee":763,"shortage":0,"acc_shortage":45,"booking":20,"acc_booking":22639,"fulfillment":20,"acc_fulfillment":22594,"transfer_cost":0.0,"port_name":"Oakland","position":{"lat":37.804363,"lng":-122.271111},"status":"surplus"},{"frame_index":933,"name":"ports_10","capacity":10000,"empty":1776,"full":53,"on_shipper":10,"on_consignee":0,"shortage":0,"acc_shortage":314,"booking":10,"acc_booking":11609,"fulfillment":10,"acc_fulfillment":11295,"transfer_cost":0.0,"port_name":"Prince Rupert","position":{"lat":54.312519,"lng":-130.305405},"status":"surplus"},{"frame_index":933,"name":"ports_11","capacity":10000,"empty":2884,"full":263,"on_shipper":39,"on_consignee":346,"shortage":0,"acc_shortage":204,"booking":34,"acc_booking":44817,"fulfillment":34,"acc_fulfillment":44613,"transfer_cost":0.0,"port_name":"Pusan","position":{"lat":35.166668,"lng":129.066666},"status":"surplus"},{"frame_index":933,"name":"ports_12","capacity":10000,"empty":5114,"full":845,"on_shipper":53,"on_consignee":0,"shortage":0,"acc_shortage":0,"booking":46,"acc_booking":59874,"fulfillment":46,"acc_fulfillment":59874,"transfer_cost":0.0,"port_name":"Qingdao","position":{"lat":36.066898,"lng":120.382698},"status":"surplus"},{"frame_index":933,"name":"ports_13","capacity":10000,"empty":214,"full":166,"on_shipper":7,"on_consignee":0,"shortage":0,"acc_shortage":449,"booking":6,"acc_booking":7854,"fulfillment":6,"acc_fulfillment":7405,"transfer_cost":0.0,"port_name":"San Antonio","position":{"lat":29.424349,"lng":-98.491142},"status":"surplus"},{"frame_index":933,"name":"ports_14","capacity":10000,"empty":99,"full":230,"on_shipper":7,"on_consignee":0,"shortage":0,"acc_shortage":819,"booking":6,"acc_booking":7912,"fulfillment":6,"acc_fulfillment":7093,"transfer_cost":0.0,"port_name":"Santos","position":{"lat":-23.96083,"lng":-46.33361},"status":"surplus"},{"frame_index":933,"name":"ports_15","capacity":10000,"empty":553,"full":1450,"on_shipper":56,"on_consignee":317,"shortage":0,"acc_shortage":0,"booking":40,"acc_booking":52332,"fulfillment":40,"acc_fulfillment":52332,"transfer_cost":0.0,"port_name":"Seattle","position":{"lat":47.608013,"lng":-122.335167},"status":"surplus"},{"frame_index":933,"name":"ports_16","capacity":10000,"empty":2016,"full":2259,"on_shipper":72,"on_consignee":0,"shortage":0,"acc_shortage":817,"booking":63,"acc_booking":74543,"fulfillment":63,"acc_fulfillment":73726,"transfer_cost":0.0,"port_name":"Shanghai","position":{"lat":31.224361,"lng":121.46917},"status":"surplus"},{"frame_index":933,"name":"ports_17","capacity":10000,"empty":1260,"full":656,"on_shipper":30,"on_consignee":0,"shortage":0,"acc_shortage":283,"booking":23,"acc_booking":30137,"fulfillment":23,"acc_fulfillment":29854,"transfer_cost":0.0,"port_name":"Singapore","position":{"lat":1.29027,"lng":103.851959},"status":"surplus"},{"frame_index":933,"name":"ports_18","capacity":10000,"empty":781,"full":415,"on_shipper":10,"on_consignee":0,"shortage":0,"acc_shortage":1374,"booking":10,"acc_booking":11589,"fulfillment":10,"acc_fulfillment":10215,"transfer_cost":0.0,"port_name":"Sydney","position":{"lat":-33.865143,"lng":151.2099},"status":"surplus"},{"frame_index":933,"name":"ports_19","capacity":10000,"empty":1097,"full":570,"on_shipper":16,"on_consignee":0,"shortage":0,"acc_shortage":0,"booking":12,"acc_booking":15330,"fulfillment":12,"acc_fulfillment":15330,"transfer_cost":0.0,"port_name":"Vancouver","position":{"lat":49.246292,"lng":-123.116226},"status":"surplus"},{"frame_index":933,"name":"ports_20","capacity":10000,"empty":1352,"full":2416,"on_shipper":50,"on_consignee":0,"shortage":0,"acc_shortage":1292,"booking":42,"acc_booking":52026,"fulfillment":42,"acc_fulfillment":50734,"transfer_cost":0.0,"port_name":"Yantian","position":{"lat":26.8533,"lng":119.8575},"status":"surplus"},{"frame_index":933,"name":"ports_21","capacity":10000,"empty":1074,"full":583,"on_shipper":39,"on_consignee":0,"shortage":0,"acc_shortage":7235,"booking":33,"acc_booking":49491,"fulfillment":33,"acc_fulfillment":42256,"transfer_cost":0.0,"port_name":"Yokohama","position":{"lat":35.443707,"lng":139.638031},"status":"surplus"}]