[{"frame_index":17,"name":"ports_0","capacity":10000,"empty":15004,"full":825,"on_shipper":171,"on_consignee":0,"shortage":0,"acc_shortage":0,"booking":118,"acc_booking":996,"fulfillment":118,"acc_fulfillment":996,"transfer_cost":0.0,"port_name":"Bremerhaven","position":{"lat":53.549999,"lng":8.583333},"status":"surplus"},{"frame_index":17,"name":"ports_1","capacity":10000,"empty":931,"full":21,"on_shipper":10,"on_consignee":0,"shortage":0,"acc_shortage":0,"booking":7,"acc_booking":69,"fulfillment":7,"acc_fulfillment":69,"transfer_cost":0.0,"port_name":"Durban","position":{"lat":-29.8579,"lng":31.0292},"status":"surplus"},{"frame_index":17,"name":"ports_2","capacity":10000,"empty":931,"full":20,"on_shipper":10,"on_consignee":0,"shortage":0,"acc_shortage":0,"booking":8,"acc_booking":69,"fulfillment":8,"acc_fulfillment":69,"transfer_cost":0.0,"port_name":"Itagual","position":{"lat":-22.85222,"lng":-43.77528},"status":"surplus"},{"frame_index":17,"name":"ports_3","capacity":10000,"empty":5615,"full":224,"on_shipper":51,"on_consignee":0,"shortage":0,"acc_shortage":0,"booking":41,"acc_booking":385,"fulfillment":41,"acc_fulfillment":385,"transfer_cost":0.0,"port_name":"LeHavre","position":{"lat":49.490002,"lng":0.1},"status":"surplus"},{"frame_index":17,"name":"ports_4","capacity":10000,"empty":4678,"full":211,"on_shipper":49,"on_consignee":0,"shortage":0,"acc_shortage":0,"booking":33,"acc_booking":322,"fulfillment":33,"acc_fulfillment":322,"transfer_cost":0.0,"port_name":"Los Angeles","position":{"lat":34.052235,"lng":-118.243683},"status":"surplus"},{"frame_index":17,"name":"ports_5","capacity":10000,"empty":4678,"full":184,"on_shipper":47,"on_consignee":0,"shortage":0,"acc_shortage":0,"booking":38,"acc_booking":322,"fulfillment":38,"acc_fulfillment":322,"transfer_cost":0.0,"port_name":"Manzanillo","position":{"lat":19.11695,"lng":-104.34214},"status":"surplus"},{"frame_index":17,"name":"ports_6","capacity":10000,"empty":1398,"full":90,"on_shipper":12,"on_consignee":0,"shortage":0,"acc_shortage":0,"booking":10,"acc_booking":102,"fulfillment":10,"acc_fulfillment":102,"transfer_cost":0.0,"port_name":"Melbourne","position":{"lat":-37.840935,"lng":144.946457},"status":"surplus"},{"frame_index":17,"name":"ports_7","capacity":10000,"empty":1399,"full":86,"on_shipper":15,"on_consignee":0,"shortage":0,"acc_shortage":0,"booking":10,"acc_booking":101,"fulfillment":10,"acc_fulfillment":101,"transfer_cost":0.0,"port_name":"Montreal","position":{"lat":45.516136,"lng":-73.65683},"status":"surplus"},{"frame_index":17,"name":"ports_8","capacity":10000,"empty":2805,"full":168,"on_shipper":27,"on_consignee":0,"shortage":0,"acc_shortage":0,"booking":20,"acc_booking":195,"fulfillment":20,"acc_fulfillment":195,"transfer_cost":0.0,"port_name":"New York","position":{"lat":40.73061,"lng":-73.935242},"status":"surplus"},{"frame_index":17,"name":"ports_9","capacity":10000,"empty":2803,"full":175,"on_shipper":22,"on_consignee":0,"shortage":0,"acc_shortage":0,"booking":18,"acc_booking":197,"fulfillment":18,"acc_fulfillment":197,"transfer_cost":0.0,"port_name":"Oakland","position":{"lat":37.804363,"lng":-122.271111},"status":"surplus"},{"frame_index":17,"name":"ports_10","capacity":10000,"empty":1396,"full":86,"on_shipper":18,"on_consignee":0,"shortage":0,"acc_shortage":0,"booking":12,"acc_booking":104,"fulfillment":12,"acc_fulfillment":104,"transfer_cost":0.0,"port_name":"Prince Rupert","position":{"lat":54.312519,"lng":-130.305405},"status":"surplus"},{"frame_index":17,"name":"ports_11","capacity":10000,"empty":5610,"full":265,"on_shipper":55,"on_consignee":0,"shortage":0,"acc_shortage":0,"booking":41,"acc_booking":390,"fulfillment":41,"acc_fulfillment":390,"transfer_cost":0.0,"port_name":"Pusan","position":{"lat":35.166668,"lng":129.066666},"status":"surplus"},{"frame_index":17,"name":"ports_12","capacity":10000,"empty":7490,"full":278,"on_shipper":77,"on_consignee":0,"shortage":0,"acc_shortage":0,"booking":48,"acc_booking":510,"fulfillment":48,"acc_fulfillment":510,"transfer_cost":0.0,"port_name":"Qingdao","position":{"lat":36.066898,"lng":120.382698},"status":"surplus"},{"frame_index":17,"name":"ports_13","capacity":10000,"empty":931,"full":61,"on_shipper":8,"on_consignee":0,"shortage":0,"acc_shortage":0,"booking":7,"acc_booking":69,"fulfillment":7,"acc_fulfillment":69,"transfer_cost":0.0,"port_name":"San Antonio","position":{"lat":29.424349,"lng":-98.491142},"status":"surplus"},{"frame_index":17,"name":"ports_14","capacity":10000,"empty":928,"full":61,"on_shipper":11,"on_consignee":0,"shortage":0,"acc_shortage":0,"booking":8,"acc_booking":72,"fulfillment":8,"acc_fulfillment":72,"transfer_cost":0.0,"port_name":"Santos","position":{"lat":-23.96083,"lng":-46.33361},"status":"surplus"},{"frame_index":17,"name":"ports_15","capacity":10000,"empty":6557,"full":254,"on_shipper":70,"on_consignee":0,"shortage":0,"acc_shortage":0,"booking":45,"acc_booking":443,"fulfillment":45,"acc_fulfillment":443,"transfer_cost":0.0,"port_name":"Seattle","position":{"lat":47.608013,"lng":-122.335167},"status":"surplus"},{"frame_index":17,"name":"ports_16","capacity":10000,"empty":9367,"full":318,"on_shipper":96,"on_consignee":0,"shortage":0,"acc_shortage":0,"booking":57,"acc_booking":633,"fulfillment":57,"acc_fulfillment":633,"transfer_cost":0.0,"port_name":"Shanghai","position":{"lat":31.224361,"lng":121.46917},"status":"surplus"},{"frame_index":17,"name":"ports_17","capacity":10000,"empty":3739,"full":110,"on_shipper":37,"on_consignee":0,"shortage":0,"acc_shortage":0,"booking":26,"acc_booking":261,"fulfillment":26,"acc_fulfillment":261,"transfer_cost":0.0,"port_name":"Singapore","position":{"lat":1.29027,"lng":103.851959},"status":"surplus"},{"frame_index":17,"name":"ports_18","capacity":10000,"empty":1399,"full":85,"on_shipper":16,"on_consignee":0,"shortage":0,"acc_shortage":0,"booking":10,"acc_booking":101,"fulfillment":10,"acc_fulfillment":101,"transfer_cost":0.0,"port_name":"Sydney","position":{"lat":-33.865143,"lng":151.2099},"status":"surplus"},{"frame_index":17,"name":"ports_19","capacity":10000,"empty":1868,"full":86,"on_shipper":19,"on_consignee":0,"shortage":0,"acc_shortage":0,"booking":13,"acc_booking":132,"fulfillment":13,"acc_fulfillment":132,"transfer_cost":0.0,"port_name":"Vancouver","position":{"lat":49.246292,"lng":-123.116226},"status":"surplus"},{"frame_index":17,"name":"ports_20","capacity":10000,"empty":6545,"full":360,"on_shipper":59,"on_consignee":0,"shortage":0,"acc_shortage":0,"booking":47,"acc_booking":455,"fulfillment":47,"acc_fulfillment":455,"transfer_cost":0.0,"port_name":"Yantian","position":{"lat":26.8533,"lng":119.8575},"status":"surplus"},{"frame_index":17,"name":"ports_21","capacity":10000,"empty":7671,"full":271,"on_shipper":58,"on_consignee":0,"shortage":0,"acc_shortage":0,"booking":45,"acc_booking":329,"fulfillment":45,"acc_fulfillment":329,"transfer_cost":0.0,"port_name":"Yokohama","position":{"lat":35.443707,"lng":139.638031},"status":"surplus"}]