[{"frame_index":769,"name":"ports_0","capacity":10000,"empty":3464,"full":3742,"on_shipper":158,"on_consignee":0,"shortage":0,"acc_shortage":522,"booking":77,"acc_booking":99425,"fulfillment":77,"acc_fulfillment":98903,"transfer_cost":0.0,"port_name":"Bremerhaven","position":{"lat":53.549999,"lng":8.583333},"status":"surplus"},{"frame_index":769,"name":"ports_1","capacity":10000,"empty":175,"full":228,"on_shipper":9,"on_consignee":0,"shortage":0,"acc_shortage":10,"booking":5,"acc_booking":6603,"fulfillment":5,"acc_fulfillment":6593,"transfer_cost":0.0,"port_name":"Durban","position":{"lat":-29.8579,"lng":31.0292},"status":"surplus"},{"frame_index":769,"name":"ports_2","capacity":10000,"empty":308,"full":380,"on_shipper":9,"on_consignee":0,"shortage":0,"acc_shortage":298,"booking":5,"acc_booking":6581,"fulfillment":5,"acc_fulfillment":6283,"transfer_cost":0.0,"port_name":"Itagual","position":{"lat":-22.85222,"lng":-43.77528},"status":"surplus"},{"frame_index":769,"name":"ports_3","capacity":10000,"empty":1290,"full":2168,"on_shipper":46,"on_consignee":0,"shortage":0,"acc_shortage":0,"booking":28,"acc_booking":37639,"fulfillment":28,"acc_fulfillment":37639,"transfer_cost":0.0,"port_name":"LeHavre","position":{"lat":49.490002,"lng":0.1},"status":"surplus"},{"frame_index":769,"name":"ports_4","capacity":10000,"empty":1379,"full":1207,"on_shipper":51,"on_consignee":0,"shortage":0,"acc_shortage":290,"booking":23,"acc_booking":31503,"fulfillment":23,"acc_fulfillment":31213,"transfer_cost":0.0,"port_name":"Los Angeles","position":{"lat":34.052235,"lng":-118.243683},"status":"surplus"},{"frame_index":769,"name":"ports_5","capacity":10000,"empty":1795,"full":595,"on_shipper":40,"on_consignee":0,"shortage":0,"acc_shortage":123,"booking":23,"acc_booking":31622,"fulfillment":23,"acc_fulfillment":31499,"transfer_cost":0.0,"port_name":"Manzanillo","position":{"lat":19.11695,"lng":-104.34214},"status":"surplus"},{"frame_index":769,"name":"ports_6","capacity":10000,"empty":416,"full":22,"on_shipper":13,"on_consignee":0,"shortage":0,"acc_shortage":1572,"booking":7,"acc_booking":9695,"fulfillment":7,"acc_fulfillment":8123,"transfer_cost":0.0,"port_name":"Melbourne","position":{"lat":-37.840935,"lng":144.946457},"status":"surplus"},{"frame_index":769,"name":"ports_7","capacity":10000,"empty":46,"full":711,"on_shipper":7,"on_consignee":0,"shortage":0,"acc_shortage":0,"booking":7,"acc_booking":9704,"fulfillment":7,"acc_fulfillment":9704,"transfer_cost":0.0,"port_name":"Montreal","position":{"lat":45.516136,"lng":-73.65683},"status":"balance"},{"frame_index":769,"name":"ports_8","capacity":10000,"empty":0,"full":1080,"on_shipper":0,"on_consignee":0,"shortage":14,"acc_shortage":73,"booking":14,"acc_booking":18955,"fulfillment":0,"acc_fulfillment":18882,"transfer_cost":0.0,"port_name":"New York","position":{"lat":40.73061,"lng":-73.935242},"status":"demand"},{"frame_index":769,"name":"ports_9","capacity":10000,"empty":330,"full":597,"on_shipper":29,"on_consignee":0,"shortage":0,"acc_shortage":45,"booking":14,"acc_booking":19000,"fulfillment":14,"acc_fulfillment":18955,"transfer_cost":0.0,"port_name":"Oakland","position":{"lat":37.804363,"lng":-122.271111},"status":"surplus"},{"frame_index":769,"name":"ports_10","capacity":10000,"empty":1114,"full":90,"on_shipper":13,"on_consignee":0,"shortage":0,"acc_shortage":314,"booking":7,"acc_booking":9719,"fulfillment":7,"acc_fulfillment":9405,"transfer_cost":0.0,"port_name":"Prince Rupert","position":{"lat":54.312519,"lng":-130.305405},"status":"surplus"},{"frame_index":769,"name":"ports_11","capacity":10000,"empty":2644,"full":334,"on_shipper":41,"on_consignee":0,"shortage":0,"acc_shortage":204,"booking":27,"acc_booking":37591,"fulfillment":27,"acc_fulfillment":37387,"transfer_cost":0.0,"port_name":"Pusan","position":{"lat":35.166668,"lng":129.066666},"status":"surplus"},{"frame_index":769,"name":"ports_12","capacity":10000,"empty":2910,"full":1228,"on_shipper":79,"on_consignee":0,"shortage":0,"acc_shortage":0,"booking":37,"acc_booking":50238,"fulfillment":37,"acc_fulfillment":50238,"transfer_cost":0.0,"port_name":"Qingdao","position":{"lat":36.066898,"lng":120.382698},"status":"surplus"},{"frame_index":769,"name":"ports_13","capacity":10000,"empty":0,"full":617,"on_shipper":0,"on_consignee":0,"shortage":5,"acc_shortage":394,"booking":5,"acc_booking":6593,"fulfillment":0,"acc_fulfillment":6199,"transfer_cost":0.0,"port_name":"San Antonio","position":{"lat":29.424349,"lng":-98.491142},"status":"balance"},{"frame_index":769,"name":"ports_14","capacity":10000,"empty":16,"full":0,"on_shipper":7,"on_consignee":562,"shortage":0,"acc_shortage":762,"booking":5,"acc_booking":6633,"fulfillment":5,"acc_fulfillment":5871,"transfer_cost":156.0,"port_name":"Santos","position":{"lat":-23.96083,"lng":-46.33361},"status":"balance"},{"frame_index":769,"name":"ports_15","capacity":10000,"empty":192,"full":3583,"on_shipper":54,"on_consignee":0,"shortage":0,"acc_shortage":0,"booking":31,"acc_booking":43897,"fulfillment":31,"acc_fulfillment":43897,"transfer_cost":0.0,"port_name":"Seattle","position":{"lat":47.608013,"lng":-122.335167},"status":"balance"},{"frame_index":769,"name":"ports_16","capacity":10000,"empty":1736,"full":875,"on_shipper":53,"on_consignee":180,"shortage":0,"acc_shortage":760,"booking":40,"acc_booking":62474,"fulfillment":40,"acc_fulfillment":61714,"transfer_cost":0.0,"port_name":"Shanghai","position":{"lat":31.224361,"lng":121.46917},"status":"surplus"},{"frame_index":769,"name":"ports_17","capacity":10000,"empty":310,"full":1128,"on_shipper":26,"on_consignee":0,"shortage":0,"acc_shortage":283,"booking":18,"acc_booking":25290,"fulfillment":18,"acc_fulfillment":25007,"transfer_cost":0.0,"port_name":"Singapore","position":{"lat":1.29027,"lng":103.851959},"status":"surplus"},{"frame_index":769,"name":"ports_18","capacity":10000,"empty":3,"full":395,"on_shipper":13,"on_consignee":0,"shortage":0,"acc_shortage":1226,"booking":7,"acc_booking":9705,"fulfillment":7,"acc_fulfillment":8479,"transfer_cost":0.0,"port_name":"Sydney","position":{"lat":-33.865143,"lng":151.2099},"status":"balance"},{"frame_index":769,"name":"ports_19","capacity":10000,"empty":702,"full":672,"on_shipper":19,"on_consignee":0,"shortage":0,"acc_shortage":0,"booking":9,"acc_booking":12867,"fulfillment":9,"acc_fulfillment":12867,"transfer_cost":0.0,"port_name":"Vancouver","position":{"lat":49.246292,"lng":-123.116226},"status":"surplus"},{"frame_index":769,"name":"ports_20","capacity":10000,"empty":1353,"full":1390,"on_shipper":43,"on_consignee":0,"shortage":0,"acc_shortage":942,"booking":29,"acc_booking":43599,"fulfillment":29,"acc_fulfillment":42657,"transfer_cost":0.0,"port_name":"Yantian","position":{"lat":26.8533,"lng":119.8575},"status":"surplus"},{"frame_index":769,"name":"ports_21","capacity":10000,"empty":0,"full":383,"on_shipper":0,"on_consignee":0,"shortage":28,"acc_shortage":5697,"booking":28,"acc_booking":41658,"fulfillment":0,"acc_fulfillment":35961,"transfer_cost":0.0,"port_name":"Yokohama","position":{"lat":35.443707,"lng":139.638031},"status":"demand"}]