[{"frame_index":179,"name":"ports_0","capacity":10000,"empty":5175,"full":4892,"on_shipper":172,"on_consignee":0,"shortage":0,"acc_shortage":0,"booking":151,"acc_booking":23293,"fulfillment":151,"acc_fulfillment":23293,"transfer_cost":0.0,"port_name":"Bremerhaven","position":{"lat":53.549999,"lng":8.583333},"status":"surplus"},{"frame_index":179,"name":"ports_1","capacity":10000,"empty":526,"full":376,"on_shipper":15,"on_consignee":0,"shortage":0,"acc_shortage":0,"booking":11,"acc_booking":1563,"fulfillment":11,"acc_fulfillment":1563,"transfer_cost":0.0,"port_name":"Durban","position":{"lat":-29.8579,"lng":31.0292},"status":"surplus"},{"frame_index":179,"name":"ports_2","capacity":10000,"empty":350,"full":353,"on_shipper":17,"on_consignee":0,"shortage":0,"acc_shortage":233,"booking":11,"acc_booking":1549,"fulfillment":11,"acc_fulfillment":1316,"transfer_cost":0.0,"port_name":"Itagual","position":{"lat":-22.85222,"lng":-43.77528},"status":"surplus"},{"frame_index":179,"name":"ports_3","capacity":10000,"empty":3407,"full":784,"on_shipper":90,"on_consignee":0,"shortage":0,"acc_shortage":0,"booking":65,"acc_booking":8861,"fulfillment":65,"acc_fulfillment":8861,"transfer_cost":0.0,"port_name":"LeHavre","position":{"lat":49.490002,"lng":0.1},"status":"surplus"},{"frame_index":179,"name":"ports_4","capacity":10000,"empty":3081,"full":211,"on_shipper":101,"on_consignee":50,"shortage":0,"acc_shortage":0,"booking":55,"acc_booking":7410,"fulfillment":55,"acc_fulfillment":7410,"transfer_cost":4.0,"port_name":"Los Angeles","position":{"lat":34.052235,"lng":-118.243683},"status":"surplus"},{"frame_index":179,"name":"ports_5","capacity":10000,"empty":1022,"full":988,"on_shipper":78,"on_consignee":0,"shortage":0,"acc_shortage":0,"booking":61,"acc_booking":7404,"fulfillment":61,"acc_fulfillment":7404,"transfer_cost":0.0,"port_name":"Manzanillo","position":{"lat":19.11695,"lng":-104.34214},"status":"surplus"},{"frame_index":179,"name":"ports_6","capacity":10000,"empty":268,"full":166,"on_shipper":22,"on_consignee":101,"shortage":0,"acc_shortage":0,"booking":17,"acc_booking":2280,"fulfillment":17,"acc_fulfillment":2280,"transfer_cost":0.0,"port_name":"Melbourne","position":{"lat":-37.840935,"lng":144.946457},"status":"surplus"},{"frame_index":179,"name":"ports_7","capacity":10000,"empty":2341,"full":15,"on_shipper":23,"on_consignee":251,"shortage":0,"acc_shortage":0,"booking":17,"acc_booking":2277,"fulfillment":17,"acc_fulfillment":2277,"transfer_cost":0.0,"port_name":"Montreal","position":{"lat":45.516136,"lng":-73.65683},"status":"surplus"},{"frame_index":179,"name":"ports_8","capacity":10000,"empty":3853,"full":562,"on_shipper":34,"on_consignee":0,"shortage":0,"acc_shortage":0,"booking":34,"acc_booking":4456,"fulfillment":34,"acc_fulfillment":4456,"transfer_cost":0.0,"port_name":"New York","position":{"lat":40.73061,"lng":-73.935242},"status":"surplus"},{"frame_index":179,"name":"ports_9","capacity":10000,"empty":796,"full":1584,"on_shipper":36,"on_consignee":0,"shortage":0,"acc_shortage":0,"booking":29,"acc_booking":4442,"fulfillment":29,"acc_fulfillment":4442,"transfer_cost":0.0,"port_name":"Oakland","position":{"lat":37.804363,"lng":-122.271111},"status":"surplus"},{"frame_index":179,"name":"ports_10","capacity":10000,"empty":916,"full":153,"on_shipper":24,"on_consignee":0,"shortage":0,"acc_shortage":0,"booking":16,"acc_booking":2268,"fulfillment":16,"acc_fulfillment":2268,"transfer_cost":0.0,"port_name":"Prince Rupert","position":{"lat":54.312519,"lng":-130.305405},"status":"surplus"},{"frame_index":179,"name":"ports_11","capacity":10000,"empty":2060,"full":263,"on_shipper":96,"on_consignee":0,"shortage":0,"acc_shortage":0,"booking":64,"acc_booking":8834,"fulfillment":64,"acc_fulfillment":8834,"transfer_cost":0.0,"port_name":"Pusan","position":{"lat":35.166668,"lng":129.066666},"status":"surplus"},{"frame_index":179,"name":"ports_12","capacity":10000,"empty":1815,"full":1990,"on_shipper":110,"on_consignee":0,"shortage":0,"acc_shortage":0,"booking":76,"acc_booking":11780,"fulfillment":76,"acc_fulfillment":11780,"transfer_cost":0.0,"port_name":"Qingdao","position":{"lat":36.066898,"lng":120.382698},"status":"surplus"},{"frame_index":179,"name":"ports_13","capacity":10000,"empty":431,"full":26,"on_shipper":14,"on_consignee":0,"shortage":0,"acc_shortage":55,"booking":12,"acc_booking":1551,"fulfillment":12,"acc_fulfillment":1496,"transfer_cost":0.0,"port_name":"San Antonio","position":{"lat":29.424349,"lng":-98.491142},"status":"surplus"},{"frame_index":179,"name":"ports_14","capacity":10000,"empty":0,"full":224,"on_shipper":0,"on_consignee":0,"shortage":13,"acc_shortage":393,"booking":13,"acc_booking":1569,"fulfillment":0,"acc_fulfillment":1176,"transfer_cost":0.0,"port_name":"Santos","position":{"lat":-23.96083,"lng":-46.33361},"status":"demand"},{"frame_index":179,"name":"ports_15","capacity":10000,"empty":2435,"full":781,"on_shipper":81,"on_consignee":503,"shortage":0,"acc_shortage":0,"booking":72,"acc_booking":10312,"fulfillment":72,"acc_fulfillment":10312,"transfer_cost":0.0,"port_name":"Seattle","position":{"lat":47.608013,"lng":-122.335167},"status":"surplus"},{"frame_index":179,"name":"ports_16","capacity":10000,"empty":2326,"full":2238,"on_shipper":164,"on_consignee":0,"shortage":0,"acc_shortage":0,"booking":111,"acc_booking":14725,"fulfillment":111,"acc_fulfillment":14725,"transfer_cost":0.0,"port_name":"Shanghai","position":{"lat":31.224361,"lng":121.46917},"status":"surplus"},{"frame_index":179,"name":"ports_17","capacity":10000,"empty":318,"full":282,"on_shipper":63,"on_consignee":284,"shortage":0,"acc_shortage":0,"booking":43,"acc_booking":5948,"fulfillment":43,"acc_fulfillment":5948,"transfer_cost":0.0,"port_name":"Singapore","position":{"lat":1.29027,"lng":103.851959},"status":"surplus"},{"frame_index":179,"name":"ports_18","capacity":10000,"empty":301,"full":338,"on_shipper":21,"on_consignee":0,"shortage":0,"acc_shortage":0,"booking":17,"acc_booking":2256,"fulfillment":17,"acc_fulfillment":2256,"transfer_cost":0.0,"port_name":"Sydney","position":{"lat":-33.865143,"lng":151.2099},"status":"surplus"},{"frame_index":179,"name":"ports_19","capacity":10000,"empty":725,"full":210,"on_shipper":30,"on_consignee":0,"shortage":0,"acc_shortage":0,"booking":22,"acc_booking":3014,"fulfillment":22,"acc_fulfillment":3014,"transfer_cost":0.0,"port_name":"Vancouver","position":{"lat":49.246292,"lng":-123.116226},"status":"surplus"},{"frame_index":179,"name":"ports_20","capacity":10000,"empty":1094,"full":1324,"on_shipper":90,"on_consignee":515,"shortage":0,"acc_shortage":0,"booking":73,"acc_booking":10130,"fulfillment":73,"acc_fulfillment":10130,"transfer_cost":0.0,"port_name":"Yantian","position":{"lat":26.8533,"lng":119.8575},"status":"surplus"},{"frame_index":179,"name":"ports_21","capacity":10000,"empty":889,"full":2713,"on_shipper":74,"on_consignee":0,"shortage":0,"acc_shortage":0,"booking":74,"acc_booking":9807,"fulfillment":74,"acc_fulfillment":9807,"transfer_cost":0.0,"port_name":"Yokohama","position":{"lat":35.443707,"lng":139.638031},"status":"surplus"}]