[{"frame_index":970,"name":"ports_0","capacity":10000,"empty":1443,"full":4450,"on_shipper":421,"on_consignee":0,"shortage":0,"acc_shortage":737,"booking":199,"acc_booking":126112,"fulfillment":199,"acc_fulfillment":125375,"transfer_cost":0.0,"port_name":"Bremerhaven","position":{"lat":53.549999,"lng":8.583333},"status":"surplus"},{"frame_index":970,"name":"ports_1","capacity":10000,"empty":287,"full":214,"on_shipper":23,"on_consignee":0,"shortage":0,"acc_shortage":113,"booking":13,"acc_booking":8380,"fulfillment":13,"acc_fulfillment":8267,"transfer_cost":0.0,"port_name":"Durban","position":{"lat":-29.8579,"lng":31.0292},"status":"surplus"},{"frame_index":970,"name":"ports_2","capacity":10000,"empty":571,"full":49,"on_shipper":16,"on_consignee":0,"shortage":0,"acc_shortage":298,"booking":13,"acc_booking":8341,"fulfillment":13,"acc_fulfillment":8043,"transfer_cost":0.0,"port_name":"Itagual","position":{"lat":-22.85222,"lng":-43.77528},"status":"surplus"},{"frame_index":970,"name":"ports_3","capacity":10000,"empty":2982,"full":1306,"on_shipper":115,"on_consignee":0,"shortage":0,"acc_shortage":0,"booking":80,"acc_booking":47718,"fulfillment":80,"acc_fulfillment":47718,"transfer_cost":0.0,"port_name":"LeHavre","position":{"lat":49.490002,"lng":0.1},"status":"surplus"},{"frame_index":970,"name":"ports_4","capacity":10000,"empty":1419,"full":1273,"on_shipper":94,"on_consignee":0,"shortage":0,"acc_shortage":290,"booking":68,"acc_booking":39963,"fulfillment":68,"acc_fulfillment":39673,"transfer_cost":0.0,"port_name":"Los Angeles","position":{"lat":34.052235,"lng":-118.243683},"status":"surplus"},{"frame_index":970,"name":"ports_5","capacity":10000,"empty":99,"full":1332,"on_shipper":118,"on_consignee":0,"shortage":0,"acc_shortage":163,"booking":58,"acc_booking":39987,"fulfillment":58,"acc_fulfillment":39824,"transfer_cost":0.0,"port_name":"Manzanillo","position":{"lat":19.11695,"lng":-104.34214},"status":"demand"},{"frame_index":970,"name":"ports_6","capacity":10000,"empty":0,"full":640,"on_shipper":0,"on_consignee":0,"shortage":20,"acc_shortage":2094,"booking":20,"acc_booking":12297,"fulfillment":0,"acc_fulfillment":10203,"transfer_cost":0.0,"port_name":"Melbourne","position":{"lat":-37.840935,"lng":144.946457},"status":"demand"},{"frame_index":970,"name":"ports_7","capacity":10000,"empty":1279,"full":214,"on_shipper":21,"on_consignee":0,"shortage":0,"acc_shortage":0,"booking":21,"acc_booking":12307,"fulfillment":21,"acc_fulfillment":12307,"transfer_cost":0.0,"port_name":"Montreal","position":{"lat":45.516136,"lng":-73.65683},"status":"surplus"},{"frame_index":970,"name":"ports_8","capacity":10000,"empty":2512,"full":181,"on_shipper":61,"on_consignee":0,"shortage":0,"acc_shortage":136,"booking":40,"acc_booking":24051,"fulfillment":40,"acc_fulfillment":23915,"transfer_cost":0.0,"port_name":"New York","position":{"lat":40.73061,"lng":-73.935242},"status":"surplus"},{"frame_index":970,"name":"ports_9","capacity":10000,"empty":82,"full":0,"on_shipper":60,"on_consignee":1539,"shortage":0,"acc_shortage":45,"booking":45,"acc_booking":24070,"fulfillment":45,"acc_fulfillment":24025,"transfer_cost":327.0,"port_name":"Oakland","position":{"lat":37.804363,"lng":-122.271111},"status":"demand"},{"frame_index":970,"name":"ports_10","capacity":10000,"empty":1283,"full":314,"on_shipper":23,"on_consignee":0,"shortage":0,"acc_shortage":314,"booking":17,"acc_booking":12310,"fulfillment":17,"acc_fulfillment":11996,"transfer_cost":0.0,"port_name":"Prince Rupert","position":{"lat":54.312519,"lng":-130.305405},"status":"surplus"},{"frame_index":970,"name":"ports_11","capacity":10000,"empty":2842,"full":434,"on_shipper":123,"on_consignee":0,"shortage":0,"acc_shortage":204,"booking":85,"acc_booking":47668,"fulfillment":85,"acc_fulfillment":47464,"transfer_cost":0.0,"port_name":"Pusan","position":{"lat":35.166668,"lng":129.066666},"status":"surplus"},{"frame_index":970,"name":"ports_12","capacity":10000,"empty":2798,"full":2268,"on_shipper":126,"on_consignee":0,"shortage":0,"acc_shortage":0,"booking":98,"acc_booking":63727,"fulfillment":98,"acc_fulfillment":63727,"transfer_cost":0.0,"port_name":"Qingdao","position":{"lat":36.066898,"lng":120.382698},"status":"surplus"},{"frame_index":970,"name":"ports_13","capacity":10000,"empty":249,"full":61,"on_shipper":19,"on_consignee":0,"shortage":0,"acc_shortage":459,"booking":14,"acc_booking":8342,"fulfillment":14,"acc_fulfillment":7883,"transfer_cost":0.0,"port_name":"San Antonio","position":{"lat":29.424349,"lng":-98.491142},"status":"surplus"},{"frame_index":970,"name":"ports_14","capacity":10000,"empty":454,"full":236,"on_shipper":21,"on_consignee":0,"shortage":0,"acc_shortage":876,"booking":12,"acc_booking":8401,"fulfillment":12,"acc_fulfillment":7525,"transfer_cost":0.0,"port_name":"Santos","position":{"lat":-23.96083,"lng":-46.33361},"status":"surplus"},{"frame_index":970,"name":"ports_15","capacity":10000,"empty":300,"full":896,"on_shipper":119,"on_consignee":0,"shortage":0,"acc_shortage":859,"booking":93,"acc_booking":55672,"fulfillment":93,"acc_fulfillment":54813,"transfer_cost":0.0,"port_name":"Seattle","position":{"lat":47.608013,"lng":-122.335167},"status":"demand"},{"frame_index":970,"name":"ports_16","capacity":10000,"empty":1627,"full":1672,"on_shipper":179,"on_consignee":0,"shortage":0,"acc_shortage":817,"booking":135,"acc_booking":79379,"fulfillment":135,"acc_fulfillment":78562,"transfer_cost":0.0,"port_name":"Shanghai","position":{"lat":31.224361,"lng":121.46917},"status":"surplus"},{"frame_index":970,"name":"ports_17","capacity":10000,"empty":293,"full":523,"on_shipper":72,"on_consignee":0,"shortage":0,"acc_shortage":516,"booking":54,"acc_booking":32042,"fulfillment":54,"acc_fulfillment":31526,"transfer_cost":0.0,"port_name":"Singapore","position":{"lat":1.29027,"lng":103.851959},"status":"balance"},{"frame_index":970,"name":"ports_18","capacity":10000,"empty":429,"full":381,"on_shipper":35,"on_consignee":0,"shortage":0,"acc_shortage":1374,"booking":21,"acc_booking":12311,"fulfillment":21,"acc_fulfillment":10937,"transfer_cost":0.0,"port_name":"Sydney","position":{"lat":-33.865143,"lng":151.2099},"status":"surplus"},{"frame_index":970,"name":"ports_19","capacity":10000,"empty":626,"full":1034,"on_shipper":42,"on_consignee":0,"shortage":0,"acc_shortage":0,"booking":25,"acc_booking":16290,"fulfillment":25,"acc_fulfillment":16290,"transfer_cost":0.0,"port_name":"Vancouver","position":{"lat":49.246292,"lng":-123.116226},"status":"surplus"},{"frame_index":970,"name":"ports_20","capacity":10000,"empty":311,"full":902,"on_shipper":167,"on_consignee":388,"shortage":0,"acc_shortage":1425,"booking":94,"acc_booking":55351,"fulfillment":94,"acc_fulfillment":53926,"transfer_cost":117.0,"port_name":"Yantian","position":{"lat":26.8533,"lng":119.8575},"status":"demand"},{"frame_index":970,"name":"ports_21","capacity":10000,"empty":645,"full":303,"on_shipper":147,"on_consignee":106,"shortage":0,"acc_shortage":7238,"booking":94,"acc_booking":52872,"fulfillment":94,"acc_fulfillment":45634,"transfer_cost":0.0,"port_name":"Yokohama","position":{"lat":35.443707,"lng":139.638031},"status":"surplus"}]