[{"frame_index":713,"name":"ports_0","capacity":10000,"empty":4037,"full":2488,"on_shipper":363,"on_consignee":0,"shortage":0,"acc_shortage":522,"booking":198,"acc_booking":90120,"fulfillment":198,"acc_fulfillment":89598,"transfer_cost":0.0,"port_name":"Bremerhaven","position":{"lat":53.549999,"lng":8.583333},"status":"surplus"},{"frame_index":713,"name":"ports_1","capacity":10000,"empty":380,"full":42,"on_shipper":19,"on_consignee":0,"shortage":0,"acc_shortage":0,"booking":15,"acc_booking":5994,"fulfillment":15,"acc_fulfillment":5994,"transfer_cost":0.0,"port_name":"Durban","position":{"lat":-29.8579,"lng":31.0292},"status":"surplus"},{"frame_index":713,"name":"ports_2","capacity":10000,"empty":161,"full":0,"on_shipper":18,"on_consignee":415,"shortage":0,"acc_shortage":298,"booking":15,"acc_booking":5974,"fulfillment":15,"acc_fulfillment":5676,"transfer_cost":7.0,"port_name":"Itagual","position":{"lat":-22.85222,"lng":-43.77528},"status":"surplus"},{"frame_index":713,"name":"ports_3","capacity":10000,"empty":2991,"full":750,"on_shipper":132,"on_consignee":0,"shortage":0,"acc_shortage":0,"booking":89,"acc_booking":34117,"fulfillment":89,"acc_fulfillment":34117,"transfer_cost":0.0,"port_name":"LeHavre","position":{"lat":49.490002,"lng":0.1},"status":"surplus"},{"frame_index":713,"name":"ports_4","capacity":10000,"empty":793,"full":780,"on_shipper":105,"on_consignee":0,"shortage":0,"acc_shortage":150,"booking":76,"acc_booking":28556,"fulfillment":76,"acc_fulfillment":28406,"transfer_cost":0.0,"port_name":"Los Angeles","position":{"lat":34.052235,"lng":-118.243683},"status":"surplus"},{"frame_index":713,"name":"ports_5","capacity":10000,"empty":2271,"full":784,"on_shipper":117,"on_consignee":0,"shortage":0,"acc_shortage":123,"booking":69,"acc_booking":28626,"fulfillment":69,"acc_fulfillment":28503,"transfer_cost":0.0,"port_name":"Manzanillo","position":{"lat":19.11695,"lng":-104.34214},"status":"surplus"},{"frame_index":713,"name":"ports_6","capacity":10000,"empty":396,"full":230,"on_shipper":23,"on_consignee":0,"shortage":0,"acc_shortage":1336,"booking":23,"acc_booking":8793,"fulfillment":23,"acc_fulfillment":7457,"transfer_cost":0.0,"port_name":"Melbourne","position":{"lat":-37.840935,"lng":144.946457},"status":"surplus"},{"frame_index":713,"name":"ports_7","capacity":10000,"empty":1113,"full":49,"on_shipper":45,"on_consignee":0,"shortage":0,"acc_shortage":0,"booking":23,"acc_booking":8798,"fulfillment":23,"acc_fulfillment":8798,"transfer_cost":0.0,"port_name":"Montreal","position":{"lat":45.516136,"lng":-73.65683},"status":"surplus"},{"frame_index":713,"name":"ports_8","capacity":10000,"empty":4108,"full":821,"on_shipper":67,"on_consignee":0,"shortage":0,"acc_shortage":0,"booking":45,"acc_booking":17185,"fulfillment":45,"acc_fulfillment":17185,"transfer_cost":0.0,"port_name":"New York","position":{"lat":40.73061,"lng":-73.935242},"status":"surplus"},{"frame_index":713,"name":"ports_9","capacity":10000,"empty":1260,"full":442,"on_shipper":91,"on_consignee":0,"shortage":0,"acc_shortage":45,"booking":46,"acc_booking":17248,"fulfillment":46,"acc_fulfillment":17203,"transfer_cost":0.0,"port_name":"Oakland","position":{"lat":37.804363,"lng":-122.271111},"status":"surplus"},{"frame_index":713,"name":"ports_10","capacity":10000,"empty":1601,"full":204,"on_shipper":40,"on_consignee":0,"shortage":0,"acc_shortage":314,"booking":20,"acc_booking":8810,"fulfillment":20,"acc_fulfillment":8496,"transfer_cost":0.0,"port_name":"Prince Rupert","position":{"lat":54.312519,"lng":-130.305405},"status":"surplus"},{"frame_index":713,"name":"ports_11","capacity":10000,"empty":2758,"full":2025,"on_shipper":113,"on_consignee":0,"shortage":0,"acc_shortage":204,"booking":86,"acc_booking":34078,"fulfillment":86,"acc_fulfillment":33874,"transfer_cost":0.0,"port_name":"Pusan","position":{"lat":35.166668,"lng":129.066666},"status":"surplus"},{"frame_index":713,"name":"ports_12","capacity":10000,"empty":2202,"full":410,"on_shipper":162,"on_consignee":1423,"shortage":0,"acc_shortage":0,"booking":127,"acc_booking":45496,"fulfillment":127,"acc_fulfillment":45496,"transfer_cost":0.0,"port_name":"Qingdao","position":{"lat":36.066898,"lng":120.382698},"status":"surplus"},{"frame_index":713,"name":"ports_13","capacity":10000,"empty":544,"full":51,"on_shipper":22,"on_consignee":0,"shortage":0,"acc_shortage":325,"booking":16,"acc_booking":5980,"fulfillment":16,"acc_fulfillment":5655,"transfer_cost":0.0,"port_name":"San Antonio","position":{"lat":29.424349,"lng":-98.491142},"status":"surplus"},{"frame_index":713,"name":"ports_14","capacity":10000,"empty":788,"full":95,"on_shipper":25,"on_consignee":0,"shortage":0,"acc_shortage":762,"booking":15,"acc_booking":6017,"fulfillment":15,"acc_fulfillment":5255,"transfer_cost":0.0,"port_name":"Santos","position":{"lat":-23.96083,"lng":-46.33361},"status":"surplus"},{"frame_index":713,"name":"ports_15","capacity":10000,"empty":2734,"full":1421,"on_shipper":128,"on_consignee":0,"shortage":0,"acc_shortage":0,"booking":107,"acc_booking":39750,"fulfillment":107,"acc_fulfillment":39750,"transfer_cost":0.0,"port_name":"Seattle","position":{"lat":47.608013,"lng":-122.335167},"status":"surplus"},{"frame_index":713,"name":"ports_16","capacity":10000,"empty":1593,"full":2140,"on_shipper":208,"on_consignee":272,"shortage":0,"acc_shortage":712,"booking":165,"acc_booking":56654,"fulfillment":165,"acc_fulfillment":55942,"transfer_cost":0.0,"port_name":"Shanghai","position":{"lat":31.224361,"lng":121.46917},"status":"surplus"},{"frame_index":713,"name":"ports_17","capacity":10000,"empty":3223,"full":264,"on_shipper":84,"on_consignee":0,"shortage":0,"acc_shortage":283,"booking":61,"acc_booking":22923,"fulfillment":61,"acc_fulfillment":22640,"transfer_cost":0.0,"port_name":"Singapore","position":{"lat":1.29027,"lng":103.851959},"status":"surplus"},{"frame_index":713,"name":"ports_18","capacity":10000,"empty":260,"full":199,"on_shipper":23,"on_consignee":0,"shortage":0,"acc_shortage":1082,"booking":23,"acc_booking":8774,"fulfillment":23,"acc_fulfillment":7692,"transfer_cost":0.0,"port_name":"Sydney","position":{"lat":-33.865143,"lng":151.2099},"status":"surplus"},{"frame_index":713,"name":"ports_19","capacity":10000,"empty":1132,"full":319,"on_shipper":47,"on_consignee":0,"shortage":0,"acc_shortage":0,"booking":28,"acc_booking":11673,"fulfillment":28,"acc_fulfillment":11673,"transfer_cost":0.0,"port_name":"Vancouver","position":{"lat":49.246292,"lng":-123.116226},"status":"surplus"},{"frame_index":713,"name":"ports_20","capacity":10000,"empty":221,"full":1429,"on_shipper":168,"on_consignee":0,"shortage":0,"acc_shortage":395,"booking":114,"acc_booking":39514,"fulfillment":114,"acc_fulfillment":39119,"transfer_cost":0.0,"port_name":"Yantian","position":{"lat":26.8533,"lng":119.8575},"status":"demand"},{"frame_index":713,"name":"ports_21","capacity":10000,"empty":951,"full":404,"on_shipper":161,"on_consignee":0,"shortage":0,"acc_shortage":4175,"booking":110,"acc_booking":37574,"fulfillment":110,"acc_fulfillment":33399,"transfer_cost":0.0,"port_name":"Yokohama","position":{"lat":35.443707,"lng":139.638031},"status":"surplus"}]