[{"frame_index":718,"name":"ports_0","capacity":10000,"empty":4354,"full":2767,"on_shipper":320,"on_consignee":0,"shortage":0,"acc_shortage":522,"booking":256,"acc_booking":91321,"fulfillment":256,"acc_fulfillment":90799,"transfer_cost":0.0,"port_name":"Bremerhaven","position":{"lat":53.549999,"lng":8.583333},"status":"surplus"},{"frame_index":718,"name":"ports_1","capacity":10000,"empty":298,"full":114,"on_shipper":29,"on_consignee":0,"shortage":0,"acc_shortage":0,"booking":18,"acc_booking":6076,"fulfillment":18,"acc_fulfillment":6076,"transfer_cost":0.0,"port_name":"Durban","position":{"lat":-29.8579,"lng":31.0292},"status":"surplus"},{"frame_index":718,"name":"ports_2","capacity":10000,"empty":498,"full":71,"on_shipper":25,"on_consignee":0,"shortage":0,"acc_shortage":298,"booking":15,"acc_booking":6052,"fulfillment":15,"acc_fulfillment":5754,"transfer_cost":0.0,"port_name":"Itagual","position":{"lat":-22.85222,"lng":-43.77528},"status":"surplus"},{"frame_index":718,"name":"ports_3","capacity":10000,"empty":2525,"full":1207,"on_shipper":141,"on_consignee":0,"shortage":0,"acc_shortage":0,"booking":93,"acc_booking":34583,"fulfillment":93,"acc_fulfillment":34583,"transfer_cost":0.0,"port_name":"LeHavre","position":{"lat":49.490002,"lng":0.1},"status":"surplus"},{"frame_index":718,"name":"ports_4","capacity":10000,"empty":402,"full":1150,"on_shipper":126,"on_consignee":0,"shortage":0,"acc_shortage":150,"booking":79,"acc_booking":28947,"fulfillment":79,"acc_fulfillment":28797,"transfer_cost":0.0,"port_name":"Los Angeles","position":{"lat":34.052235,"lng":-118.243683},"status":"balance"},{"frame_index":718,"name":"ports_5","capacity":10000,"empty":1880,"full":1155,"on_shipper":137,"on_consignee":0,"shortage":0,"acc_shortage":123,"booking":82,"acc_booking":29017,"fulfillment":82,"acc_fulfillment":28894,"transfer_cost":0.0,"port_name":"Manzanillo","position":{"lat":19.11695,"lng":-104.34214},"status":"surplus"},{"frame_index":718,"name":"ports_6","capacity":10000,"empty":277,"full":333,"on_shipper":39,"on_consignee":0,"shortage":0,"acc_shortage":1336,"booking":24,"acc_booking":8912,"fulfillment":24,"acc_fulfillment":7576,"transfer_cost":0.0,"port_name":"Melbourne","position":{"lat":-37.840935,"lng":144.946457},"status":"surplus"},{"frame_index":718,"name":"ports_7","capacity":10000,"empty":994,"full":165,"on_shipper":48,"on_consignee":0,"shortage":0,"acc_shortage":0,"booking":24,"acc_booking":8917,"fulfillment":24,"acc_fulfillment":8917,"transfer_cost":0.0,"port_name":"Montreal","position":{"lat":45.516136,"lng":-73.65683},"status":"surplus"},{"frame_index":718,"name":"ports_8","capacity":10000,"empty":4029,"full":74,"on_shipper":94,"on_consignee":0,"shortage":0,"acc_shortage":0,"booking":50,"acc_booking":17422,"fulfillment":50,"acc_fulfillment":17422,"transfer_cost":0.0,"port_name":"New York","position":{"lat":40.73061,"lng":-73.935242},"status":"surplus"},{"frame_index":718,"name":"ports_9","capacity":10000,"empty":1240,"full":98,"on_shipper":59,"on_consignee":0,"shortage":0,"acc_shortage":45,"booking":46,"acc_booking":17469,"fulfillment":46,"acc_fulfillment":17424,"transfer_cost":0.0,"port_name":"Oakland","position":{"lat":37.804363,"lng":-122.271111},"status":"surplus"},{"frame_index":718,"name":"ports_10","capacity":10000,"empty":1481,"full":320,"on_shipper":44,"on_consignee":0,"shortage":0,"acc_shortage":314,"booking":24,"acc_booking":8930,"fulfillment":24,"acc_fulfillment":8616,"transfer_cost":0.0,"port_name":"Prince Rupert","position":{"lat":54.312519,"lng":-130.305405},"status":"surplus"},{"frame_index":718,"name":"ports_11","capacity":10000,"empty":2295,"full":2468,"on_shipper":133,"on_consignee":0,"shortage":0,"acc_shortage":204,"booking":96,"acc_booking":34541,"fulfillment":96,"acc_fulfillment":34337,"transfer_cost":0.0,"port_name":"Pusan","position":{"lat":35.166668,"lng":129.066666},"status":"surplus"},{"frame_index":718,"name":"ports_12","capacity":10000,"empty":2991,"full":1012,"on_shipper":194,"on_consignee":0,"shortage":0,"acc_shortage":0,"booking":127,"acc_booking":46130,"fulfillment":127,"acc_fulfillment":46130,"transfer_cost":0.0,"port_name":"Qingdao","position":{"lat":36.066898,"lng":120.382698},"status":"surplus"},{"frame_index":718,"name":"ports_13","capacity":10000,"empty":464,"full":125,"on_shipper":28,"on_consignee":0,"shortage":0,"acc_shortage":325,"booking":15,"acc_booking":6060,"fulfillment":15,"acc_fulfillment":5735,"transfer_cost":0.0,"port_name":"San Antonio","position":{"lat":29.424349,"lng":-98.491142},"status":"surplus"},{"frame_index":718,"name":"ports_14","capacity":10000,"empty":710,"full":177,"on_shipper":21,"on_consignee":0,"shortage":0,"acc_shortage":762,"booking":17,"acc_booking":6095,"fulfillment":17,"acc_fulfillment":5333,"transfer_cost":0.0,"port_name":"Santos","position":{"lat":-23.96083,"lng":-46.33361},"status":"surplus"},{"frame_index":718,"name":"ports_15","capacity":10000,"empty":2705,"full":1372,"on_shipper":206,"on_consignee":0,"shortage":0,"acc_shortage":0,"booking":111,"acc_booking":40297,"fulfillment":111,"acc_fulfillment":40297,"transfer_cost":0.0,"port_name":"Seattle","position":{"lat":47.608013,"lng":-122.335167},"status":"surplus"},{"frame_index":718,"name":"ports_16","capacity":10000,"empty":1313,"full":2756,"on_shipper":283,"on_consignee":0,"shortage":0,"acc_shortage":712,"booking":173,"acc_booking":57412,"fulfillment":173,"acc_fulfillment":56700,"transfer_cost":0.0,"port_name":"Shanghai","position":{"lat":31.224361,"lng":121.46917},"status":"surplus"},{"frame_index":718,"name":"ports_17","capacity":10000,"empty":2956,"full":429,"on_shipper":85,"on_consignee":9,"shortage":0,"acc_shortage":283,"booking":63,"acc_booking":23235,"fulfillment":63,"acc_fulfillment":22952,"transfer_cost":45.0,"port_name":"Singapore","position":{"lat":1.29027,"lng":103.851959},"status":"surplus"},{"frame_index":718,"name":"ports_18","capacity":10000,"empty":139,"full":320,"on_shipper":23,"on_consignee":0,"shortage":0,"acc_shortage":1082,"booking":23,"acc_booking":8895,"fulfillment":23,"acc_fulfillment":7813,"transfer_cost":0.0,"port_name":"Sydney","position":{"lat":-33.865143,"lng":151.2099},"status":"balance"},{"frame_index":718,"name":"ports_19","capacity":10000,"empty":983,"full":472,"on_shipper":43,"on_consignee":0,"shortage":0,"acc_shortage":0,"booking":30,"acc_booking":11822,"fulfillment":30,"acc_fulfillment":11822,"transfer_cost":0.0,"port_name":"Vancouver","position":{"lat":49.246292,"lng":-123.116226},"status":"surplus"},{"frame_index":718,"name":"ports_20","capacity":10000,"empty":0,"full":1533,"on_shipper":41,"on_consignee":0,"shortage":89,"acc_shortage":524,"booking":107,"acc_booking":40067,"fulfillment":18,"acc_fulfillment":39543,"transfer_cost":0.0,"port_name":"Yantian","position":{"lat":26.8533,"lng":119.8575},"status":"demand"},{"frame_index":718,"name":"ports_21","capacity":10000,"empty":385,"full":945,"on_shipper":186,"on_consignee":0,"shortage":0,"acc_shortage":4175,"booking":117,"acc_booking":38140,"fulfillment":117,"acc_fulfillment":33965,"transfer_cost":0.0,"port_name":"Yokohama","position":{"lat":35.443707,"lng":139.638031},"status":"demand"}]