[{"frame_index":550,"name":"ports_0","capacity":10000,"empty":4653,"full":2751,"on_shipper":103,"on_consignee":0,"shortage":0,"acc_shortage":522,"booking":39,"acc_booking":70812,"fulfillment":39,"acc_fulfillment":70290,"transfer_cost":0.0,"port_name":"Bremerhaven","position":{"lat":53.549999,"lng":8.583333},"status":"surplus"},{"frame_index":550,"name":"ports_1","capacity":10000,"empty":435,"full":157,"on_shipper":6,"on_consignee":0,"shortage":0,"acc_shortage":0,"booking":3,"acc_booking":4725,"fulfillment":3,"acc_fulfillment":4725,"transfer_cost":0.0,"port_name":"Durban","position":{"lat":-29.8579,"lng":31.0292},"status":"surplus"},{"frame_index":550,"name":"ports_2","capacity":10000,"empty":365,"full":17,"on_shipper":3,"on_consignee":0,"shortage":0,"acc_shortage":233,"booking":3,"acc_booking":4696,"fulfillment":3,"acc_fulfillment":4463,"transfer_cost":0.0,"port_name":"Itagual","position":{"lat":-22.85222,"lng":-43.77528},"status":"surplus"},{"frame_index":550,"name":"ports_3","capacity":10000,"empty":998,"full":1294,"on_shipper":21,"on_consignee":0,"shortage":0,"acc_shortage":0,"booking":16,"acc_booking":26857,"fulfillment":16,"acc_fulfillment":26857,"transfer_cost":0.0,"port_name":"LeHavre","position":{"lat":49.490002,"lng":0.1},"status":"surplus"},{"frame_index":550,"name":"ports_4","capacity":10000,"empty":1076,"full":125,"on_shipper":33,"on_consignee":0,"shortage":0,"acc_shortage":0,"booking":14,"acc_booking":22460,"fulfillment":14,"acc_fulfillment":22460,"transfer_cost":0.0,"port_name":"Los Angeles","position":{"lat":34.052235,"lng":-118.243683},"status":"surplus"},{"frame_index":550,"name":"ports_5","capacity":10000,"empty":2300,"full":104,"on_shipper":29,"on_consignee":0,"shortage":0,"acc_shortage":123,"booking":12,"acc_booking":22503,"fulfillment":12,"acc_fulfillment":22380,"transfer_cost":0.0,"port_name":"Manzanillo","position":{"lat":19.11695,"lng":-104.34214},"status":"surplus"},{"frame_index":550,"name":"ports_6","capacity":10000,"empty":0,"full":420,"on_shipper":0,"on_consignee":0,"shortage":5,"acc_shortage":1240,"booking":5,"acc_booking":6914,"fulfillment":0,"acc_fulfillment":5674,"transfer_cost":0.0,"port_name":"Melbourne","position":{"lat":-37.840935,"lng":144.946457},"status":"balance"},{"frame_index":550,"name":"ports_7","capacity":10000,"empty":1611,"full":67,"on_shipper":4,"on_consignee":0,"shortage":0,"acc_shortage":0,"booking":4,"acc_booking":6916,"fulfillment":4,"acc_fulfillment":6916,"transfer_cost":0.0,"port_name":"Montreal","position":{"lat":45.516136,"lng":-73.65683},"status":"surplus"},{"frame_index":550,"name":"ports_8","capacity":10000,"empty":2922,"full":181,"on_shipper":9,"on_consignee":0,"shortage":0,"acc_shortage":0,"booking":9,"acc_booking":13523,"fulfillment":9,"acc_fulfillment":13523,"transfer_cost":0.0,"port_name":"New York","position":{"lat":40.73061,"lng":-73.935242},"status":"surplus"},{"frame_index":550,"name":"ports_9","capacity":10000,"empty":2396,"full":86,"on_shipper":16,"on_consignee":0,"shortage":0,"acc_shortage":45,"booking":9,"acc_booking":13551,"fulfillment":9,"acc_fulfillment":13506,"transfer_cost":0.0,"port_name":"Oakland","position":{"lat":37.804363,"lng":-122.271111},"status":"surplus"},{"frame_index":550,"name":"ports_10","capacity":10000,"empty":989,"full":65,"on_shipper":11,"on_consignee":0,"shortage":0,"acc_shortage":314,"booking":5,"acc_booking":6935,"fulfillment":5,"acc_fulfillment":6621,"transfer_cost":0.0,"port_name":"Prince Rupert","position":{"lat":54.312519,"lng":-130.305405},"status":"surplus"},{"frame_index":550,"name":"ports_11","capacity":10000,"empty":365,"full":1809,"on_shipper":33,"on_consignee":0,"shortage":0,"acc_shortage":204,"booking":16,"acc_booking":26804,"fulfillment":16,"acc_fulfillment":26600,"transfer_cost":0.0,"port_name":"Pusan","position":{"lat":35.166668,"lng":129.066666},"status":"surplus"},{"frame_index":550,"name":"ports_12","capacity":10000,"empty":2567,"full":1265,"on_shipper":50,"on_consignee":38,"shortage":0,"acc_shortage":0,"booking":21,"acc_booking":35851,"fulfillment":21,"acc_fulfillment":35851,"transfer_cost":265.0,"port_name":"Qingdao","position":{"lat":36.066898,"lng":120.382698},"status":"surplus"},{"frame_index":550,"name":"ports_13","capacity":10000,"empty":181,"full":202,"on_shipper":8,"on_consignee":0,"shortage":0,"acc_shortage":286,"booking":3,"acc_booking":4691,"fulfillment":3,"acc_fulfillment":4405,"transfer_cost":0.0,"port_name":"San Antonio","position":{"lat":29.424349,"lng":-98.491142},"status":"surplus"},{"frame_index":550,"name":"ports_14","capacity":10000,"empty":196,"full":411,"on_shipper":6,"on_consignee":0,"shortage":0,"acc_shortage":762,"booking":3,"acc_booking":4738,"fulfillment":3,"acc_fulfillment":3976,"transfer_cost":0.0,"port_name":"Santos","position":{"lat":-23.96083,"lng":-46.33361},"status":"surplus"},{"frame_index":550,"name":"ports_15","capacity":10000,"empty":2142,"full":2367,"on_shipper":30,"on_consignee":0,"shortage":0,"acc_shortage":0,"booking":19,"acc_booking":31286,"fulfillment":19,"acc_fulfillment":31286,"transfer_cost":0.0,"port_name":"Seattle","position":{"lat":47.608013,"lng":-122.335167},"status":"surplus"},{"frame_index":550,"name":"ports_16","capacity":10000,"empty":144,"full":2158,"on_shipper":41,"on_consignee":823,"shortage":0,"acc_shortage":470,"booking":26,"acc_booking":44632,"fulfillment":26,"acc_fulfillment":44162,"transfer_cost":8.0,"port_name":"Shanghai","position":{"lat":31.224361,"lng":121.46917},"status":"balance"},{"frame_index":550,"name":"ports_17","capacity":10000,"empty":397,"full":696,"on_shipper":22,"on_consignee":0,"shortage":0,"acc_shortage":40,"booking":11,"acc_booking":18025,"fulfillment":11,"acc_fulfillment":17985,"transfer_cost":0.0,"port_name":"Singapore","position":{"lat":1.29027,"lng":103.851959},"status":"surplus"},{"frame_index":550,"name":"ports_18","capacity":10000,"empty":777,"full":32,"on_shipper":10,"on_consignee":0,"shortage":0,"acc_shortage":957,"booking":4,"acc_booking":6888,"fulfillment":4,"acc_fulfillment":5931,"transfer_cost":0.0,"port_name":"Sydney","position":{"lat":-33.865143,"lng":151.2099},"status":"surplus"},{"frame_index":550,"name":"ports_19","capacity":10000,"empty":714,"full":260,"on_shipper":11,"on_consignee":0,"shortage":0,"acc_shortage":0,"booking":6,"acc_booking":9194,"fulfillment":6,"acc_fulfillment":9194,"transfer_cost":0.0,"port_name":"Vancouver","position":{"lat":49.246292,"lng":-123.116226},"status":"surplus"},{"frame_index":550,"name":"ports_20","capacity":10000,"empty":29,"full":1897,"on_shipper":50,"on_consignee":272,"shortage":0,"acc_shortage":395,"booking":21,"acc_booking":31090,"fulfillment":21,"acc_fulfillment":30695,"transfer_cost":0.0,"port_name":"Yantian","position":{"lat":26.8533,"lng":119.8575},"status":"demand"},{"frame_index":550,"name":"ports_21","capacity":10000,"empty":197,"full":209,"on_shipper":30,"on_consignee":0,"shortage":0,"acc_shortage":3258,"booking":12,"acc_booking":29676,"fulfillment":12,"acc_fulfillment":26418,"transfer_cost":0.0,"port_name":"Yokohama","position":{"lat":35.443707,"lng":139.638031},"status":"surplus"}]