[{"frame_index":877,"name":"ports_0","capacity":10000,"empty":1247,"full":1084,"on_shipper":84,"on_consignee":0,"shortage":0,"acc_shortage":522,"booking":67,"acc_booking":113858,"fulfillment":67,"acc_fulfillment":113336,"transfer_cost":0.0,"port_name":"Bremerhaven","position":{"lat":53.549999,"lng":8.583333},"status":"surplus"},{"frame_index":877,"name":"ports_1","capacity":10000,"empty":0,"full":301,"on_shipper":0,"on_consignee":0,"shortage":6,"acc_shortage":53,"booking":6,"acc_booking":7562,"fulfillment":0,"acc_fulfillment":7509,"transfer_cost":0.0,"port_name":"Durban","position":{"lat":-29.8579,"lng":31.0292},"status":"balance"},{"frame_index":877,"name":"ports_2","capacity":10000,"empty":347,"full":355,"on_shipper":6,"on_consignee":0,"shortage":0,"acc_shortage":298,"booking":6,"acc_booking":7526,"fulfillment":6,"acc_fulfillment":7228,"transfer_cost":0.0,"port_name":"Itagual","position":{"lat":-22.85222,"lng":-43.77528},"status":"surplus"},{"frame_index":877,"name":"ports_3","capacity":10000,"empty":2467,"full":1393,"on_shipper":33,"on_consignee":796,"shortage":0,"acc_shortage":0,"booking":31,"acc_booking":43076,"fulfillment":31,"acc_fulfillment":43076,"transfer_cost":1023.0,"port_name":"LeHavre","position":{"lat":49.490002,"lng":0.1},"status":"surplus"},{"frame_index":877,"name":"ports_4","capacity":10000,"empty":709,"full":208,"on_shipper":37,"on_consignee":0,"shortage":0,"acc_shortage":290,"booking":26,"acc_booking":36075,"fulfillment":26,"acc_fulfillment":35785,"transfer_cost":0.0,"port_name":"Los Angeles","position":{"lat":34.052235,"lng":-118.243683},"status":"surplus"},{"frame_index":877,"name":"ports_5","capacity":10000,"empty":100,"full":555,"on_shipper":27,"on_consignee":0,"shortage":0,"acc_shortage":123,"booking":25,"acc_booking":36185,"fulfillment":25,"acc_fulfillment":36062,"transfer_cost":0.0,"port_name":"Manzanillo","position":{"lat":19.11695,"lng":-104.34214},"status":"balance"},{"frame_index":877,"name":"ports_6","capacity":10000,"empty":0,"full":506,"on_shipper":0,"on_consignee":0,"shortage":8,"acc_shortage":1723,"booking":8,"acc_booking":11099,"fulfillment":0,"acc_fulfillment":9376,"transfer_cost":0.0,"port_name":"Melbourne","position":{"lat":-37.840935,"lng":144.946457},"status":"balance"},{"frame_index":877,"name":"ports_7","capacity":10000,"empty":438,"full":457,"on_shipper":8,"on_consignee":0,"shortage":0,"acc_shortage":0,"booking":8,"acc_booking":11110,"fulfillment":8,"acc_fulfillment":11110,"transfer_cost":0.0,"port_name":"Montreal","position":{"lat":45.516136,"lng":-73.65683},"status":"surplus"},{"frame_index":877,"name":"ports_8","capacity":10000,"empty":3411,"full":844,"on_shipper":19,"on_consignee":0,"shortage":0,"acc_shortage":136,"booking":15,"acc_booking":21713,"fulfillment":15,"acc_fulfillment":21577,"transfer_cost":0.0,"port_name":"New York","position":{"lat":40.73061,"lng":-73.935242},"status":"surplus"},{"frame_index":877,"name":"ports_9","capacity":10000,"empty":281,"full":1308,"on_shipper":14,"on_consignee":0,"shortage":0,"acc_shortage":45,"booking":14,"acc_booking":21727,"fulfillment":14,"acc_fulfillment":21682,"transfer_cost":0.0,"port_name":"Oakland","position":{"lat":37.804363,"lng":-122.271111},"status":"surplus"},{"frame_index":877,"name":"ports_10","capacity":10000,"empty":1069,"full":409,"on_shipper":8,"on_consignee":0,"shortage":0,"acc_shortage":314,"booking":7,"acc_booking":11144,"fulfillment":7,"acc_fulfillment":10830,"transfer_cost":0.0,"port_name":"Prince Rupert","position":{"lat":54.312519,"lng":-130.305405},"status":"surplus"},{"frame_index":877,"name":"ports_11","capacity":10000,"empty":611,"full":1932,"on_shipper":34,"on_consignee":166,"shortage":0,"acc_shortage":204,"booking":30,"acc_booking":43034,"fulfillment":30,"acc_fulfillment":42830,"transfer_cost":0.0,"port_name":"Pusan","position":{"lat":35.166668,"lng":129.066666},"status":"surplus"},{"frame_index":877,"name":"ports_12","capacity":10000,"empty":184,"full":3235,"on_shipper":56,"on_consignee":0,"shortage":0,"acc_shortage":0,"booking":42,"acc_booking":57525,"fulfillment":42,"acc_fulfillment":57525,"transfer_cost":0.0,"port_name":"Qingdao","position":{"lat":36.066898,"lng":120.382698},"status":"balance"},{"frame_index":877,"name":"ports_13","capacity":10000,"empty":43,"full":0,"on_shipper":7,"on_consignee":318,"shortage":0,"acc_shortage":449,"booking":6,"acc_booking":7531,"fulfillment":6,"acc_fulfillment":7082,"transfer_cost":173.0,"port_name":"San Antonio","position":{"lat":29.424349,"lng":-98.491142},"status":"balance"},{"frame_index":877,"name":"ports_14","capacity":10000,"empty":65,"full":547,"on_shipper":5,"on_consignee":0,"shortage":0,"acc_shortage":819,"booking":5,"acc_booking":7585,"fulfillment":5,"acc_fulfillment":6766,"transfer_cost":0.0,"port_name":"Santos","position":{"lat":-23.96083,"lng":-46.33361},"status":"balance"},{"frame_index":877,"name":"ports_15","capacity":10000,"empty":900,"full":1588,"on_shipper":42,"on_consignee":0,"shortage":0,"acc_shortage":0,"booking":36,"acc_booking":50260,"fulfillment":36,"acc_fulfillment":50260,"transfer_cost":0.0,"port_name":"Seattle","position":{"lat":47.608013,"lng":-122.335167},"status":"surplus"},{"frame_index":877,"name":"ports_16","capacity":10000,"empty":237,"full":3596,"on_shipper":63,"on_consignee":0,"shortage":0,"acc_shortage":817,"booking":47,"acc_booking":71545,"fulfillment":47,"acc_fulfillment":70728,"transfer_cost":0.0,"port_name":"Shanghai","position":{"lat":31.224361,"lng":121.46917},"status":"balance"},{"frame_index":877,"name":"ports_17","capacity":10000,"empty":1751,"full":997,"on_shipper":25,"on_consignee":26,"shortage":0,"acc_shortage":283,"booking":20,"acc_booking":28928,"fulfillment":20,"acc_fulfillment":28645,"transfer_cost":0.0,"port_name":"Singapore","position":{"lat":1.29027,"lng":103.851959},"status":"surplus"},{"frame_index":877,"name":"ports_18","capacity":10000,"empty":574,"full":397,"on_shipper":10,"on_consignee":0,"shortage":0,"acc_shortage":1374,"booking":8,"acc_booking":11119,"fulfillment":8,"acc_fulfillment":9745,"transfer_cost":0.0,"port_name":"Sydney","position":{"lat":-33.865143,"lng":151.2099},"status":"surplus"},{"frame_index":877,"name":"ports_19","capacity":10000,"empty":1122,"full":148,"on_shipper":13,"on_consignee":143,"shortage":0,"acc_shortage":0,"booking":11,"acc_booking":14711,"fulfillment":11,"acc_fulfillment":14711,"transfer_cost":0.0,"port_name":"Vancouver","position":{"lat":49.246292,"lng":-123.116226},"status":"surplus"},{"frame_index":877,"name":"ports_20","capacity":10000,"empty":100,"full":1848,"on_shipper":45,"on_consignee":0,"shortage":0,"acc_shortage":1265,"booking":34,"acc_booking":49976,"fulfillment":34,"acc_fulfillment":48711,"transfer_cost":0.0,"port_name":"Yantian","position":{"lat":26.8533,"lng":119.8575},"status":"demand"},{"frame_index":877,"name":"ports_21","capacity":10000,"empty":580,"full":54,"on_shipper":29,"on_consignee":301,"shortage":0,"acc_shortage":7235,"booking":29,"acc_booking":47740,"fulfillment":29,"acc_fulfillment":40505,"transfer_cost":0.0,"port_name":"Yokohama","position":{"lat":35.443707,"lng":139.638031},"status":"surplus"}]