[{"frame_index":959,"name":"ports_0","capacity":10000,"empty":2883,"full":2730,"on_shipper":12,"on_consignee":689,"shortage":134,"acc_shortage":737,"booking":134,"acc_booking":123983,"fulfillment":0,"acc_fulfillment":123246,"transfer_cost":1034.0,"port_name":"Bremerhaven","position":{"lat":53.549999,"lng":8.583333},"status":"surplus"},{"frame_index":959,"name":"ports_1","capacity":10000,"empty":431,"full":78,"on_shipper":15,"on_consignee":0,"shortage":0,"acc_shortage":113,"booking":7,"acc_booking":8236,"fulfillment":7,"acc_fulfillment":8123,"transfer_cost":0.0,"port_name":"Durban","position":{"lat":-29.8579,"lng":31.0292},"status":"surplus"},{"frame_index":959,"name":"ports_2","capacity":10000,"empty":429,"full":395,"on_shipper":13,"on_consignee":0,"shortage":0,"acc_shortage":298,"booking":7,"acc_booking":8199,"fulfillment":7,"acc_fulfillment":7901,"transfer_cost":0.0,"port_name":"Itagual","position":{"lat":-22.85222,"lng":-43.77528},"status":"surplus"},{"frame_index":959,"name":"ports_3","capacity":10000,"empty":3805,"full":525,"on_shipper":73,"on_consignee":0,"shortage":0,"acc_shortage":0,"booking":42,"acc_booking":46895,"fulfillment":42,"acc_fulfillment":46895,"transfer_cost":0.0,"port_name":"LeHavre","position":{"lat":49.490002,"lng":0.1},"status":"surplus"},{"frame_index":959,"name":"ports_4","capacity":10000,"empty":2108,"full":617,"on_shipper":61,"on_consignee":0,"shortage":0,"acc_shortage":290,"booking":37,"acc_booking":39274,"fulfillment":37,"acc_fulfillment":38984,"transfer_cost":0.0,"port_name":"Los Angeles","position":{"lat":34.052235,"lng":-118.243683},"status":"surplus"},{"frame_index":959,"name":"ports_5","capacity":10000,"empty":761,"full":736,"on_shipper":52,"on_consignee":0,"shortage":0,"acc_shortage":163,"booking":31,"acc_booking":39325,"fulfillment":31,"acc_fulfillment":39162,"transfer_cost":0.0,"port_name":"Manzanillo","position":{"lat":19.11695,"lng":-104.34214},"status":"surplus"},{"frame_index":959,"name":"ports_6","capacity":10000,"empty":0,"full":640,"on_shipper":0,"on_consignee":0,"shortage":11,"acc_shortage":1882,"booking":11,"acc_booking":12085,"fulfillment":0,"acc_fulfillment":10203,"transfer_cost":0.0,"port_name":"Melbourne","position":{"lat":-37.840935,"lng":144.946457},"status":"demand"},{"frame_index":959,"name":"ports_7","capacity":10000,"empty":1490,"full":0,"on_shipper":24,"on_consignee":0,"shortage":0,"acc_shortage":0,"booking":11,"acc_booking":12096,"fulfillment":11,"acc_fulfillment":12096,"transfer_cost":0.0,"port_name":"Montreal","position":{"lat":45.516136,"lng":-73.65683},"status":"surplus"},{"frame_index":959,"name":"ports_8","capacity":10000,"empty":881,"full":842,"on_shipper":46,"on_consignee":0,"shortage":0,"acc_shortage":136,"booking":21,"acc_booking":23630,"fulfillment":21,"acc_fulfillment":23494,"transfer_cost":0.0,"port_name":"New York","position":{"lat":40.73061,"lng":-73.935242},"status":"surplus"},{"frame_index":959,"name":"ports_9","capacity":10000,"empty":817,"full":1026,"on_shipper":32,"on_consignee":0,"shortage":0,"acc_shortage":45,"booking":20,"acc_booking":23662,"fulfillment":20,"acc_fulfillment":23617,"transfer_cost":0.0,"port_name":"Oakland","position":{"lat":37.804363,"lng":-122.271111},"status":"surplus"},{"frame_index":959,"name":"ports_10","capacity":10000,"empty":1484,"full":122,"on_shipper":14,"on_consignee":0,"shortage":0,"acc_shortage":314,"booking":10,"acc_booking":12109,"fulfillment":10,"acc_fulfillment":11795,"transfer_cost":0.0,"port_name":"Prince Rupert","position":{"lat":54.312519,"lng":-130.305405},"status":"surplus"},{"frame_index":959,"name":"ports_11","capacity":10000,"empty":2613,"full":1185,"on_shipper":57,"on_consignee":0,"shortage":0,"acc_shortage":204,"booking":42,"acc_booking":46835,"fulfillment":42,"acc_fulfillment":46631,"transfer_cost":0.0,"port_name":"Pusan","position":{"lat":35.166668,"lng":129.066666},"status":"surplus"},{"frame_index":959,"name":"ports_12","capacity":10000,"empty":3492,"full":1240,"on_shipper":63,"on_consignee":397,"shortage":0,"acc_shortage":0,"booking":52,"acc_booking":62636,"fulfillment":52,"acc_fulfillment":62636,"transfer_cost":0.0,"port_name":"Qingdao","position":{"lat":36.066898,"lng":120.382698},"status":"surplus"},{"frame_index":959,"name":"ports_13","capacity":10000,"empty":68,"full":333,"on_shipper":12,"on_consignee":0,"shortage":0,"acc_shortage":449,"booking":8,"acc_booking":8204,"fulfillment":8,"acc_fulfillment":7755,"transfer_cost":0.0,"port_name":"San Antonio","position":{"lat":29.424349,"lng":-98.491142},"status":"balance"},{"frame_index":959,"name":"ports_14","capacity":10000,"empty":593,"full":105,"on_shipper":13,"on_consignee":0,"shortage":0,"acc_shortage":876,"booking":8,"acc_booking":8262,"fulfillment":8,"acc_fulfillment":7386,"transfer_cost":0.0,"port_name":"Santos","position":{"lat":-23.96083,"lng":-46.33361},"status":"surplus"},{"frame_index":959,"name":"ports_15","capacity":10000,"empty":732,"full":0,"on_shipper":49,"on_consignee":534,"shortage":0,"acc_shortage":859,"booking":49,"acc_booking":54706,"fulfillment":49,"acc_fulfillment":53847,"transfer_cost":0.0,"port_name":"Seattle","position":{"lat":47.608013,"lng":-122.335167},"status":"surplus"},{"frame_index":959,"name":"ports_16","capacity":10000,"empty":1652,"full":1682,"on_shipper":90,"on_consignee":0,"shortage":0,"acc_shortage":817,"booking":77,"acc_booking":78015,"fulfillment":77,"acc_fulfillment":77198,"transfer_cost":0.0,"port_name":"Shanghai","position":{"lat":31.224361,"lng":121.46917},"status":"surplus"},{"frame_index":959,"name":"ports_17","capacity":10000,"empty":104,"full":717,"on_shipper":41,"on_consignee":5,"shortage":0,"acc_shortage":283,"booking":29,"acc_booking":31488,"fulfillment":29,"acc_fulfillment":31205,"transfer_cost":0.0,"port_name":"Singapore","position":{"lat":1.29027,"lng":103.851959},"status":"balance"},{"frame_index":959,"name":"ports_18","capacity":10000,"empty":639,"full":193,"on_shipper":13,"on_consignee":0,"shortage":0,"acc_shortage":1374,"booking":10,"acc_booking":12101,"fulfillment":10,"acc_fulfillment":10727,"transfer_cost":0.0,"port_name":"Sydney","position":{"lat":-33.865143,"lng":151.2099},"status":"surplus"},{"frame_index":959,"name":"ports_19","capacity":10000,"empty":413,"full":1247,"on_shipper":23,"on_consignee":0,"shortage":0,"acc_shortage":0,"booking":15,"acc_booking":16014,"fulfillment":15,"acc_fulfillment":16014,"transfer_cost":0.0,"port_name":"Vancouver","position":{"lat":49.246292,"lng":-123.116226},"status":"surplus"},{"frame_index":959,"name":"ports_20","capacity":10000,"empty":1026,"full":1067,"on_shipper":84,"on_consignee":0,"shortage":0,"acc_shortage":1425,"booking":55,"acc_booking":54346,"fulfillment":55,"acc_fulfillment":52921,"transfer_cost":0.0,"port_name":"Yantian","position":{"lat":26.8533,"lng":119.8575},"status":"surplus"},{"frame_index":959,"name":"ports_21","capacity":10000,"empty":1493,"full":1079,"on_shipper":71,"on_consignee":0,"shortage":0,"acc_shortage":7238,"booking":49,"acc_booking":51907,"fulfillment":49,"acc_fulfillment":44669,"transfer_cost":0.0,"port_name":"Yokohama","position":{"lat":35.443707,"lng":139.638031},"status":"surplus"}]