[{"frame_index":63,"name":"ports_0","capacity":10000,"empty":8381,"full":1394,"on_shipper":103,"on_consignee":0,"shortage":0,"acc_shortage":0,"booking":73,"acc_booking":8468,"fulfillment":73,"acc_fulfillment":8468,"transfer_cost":0.0,"port_name":"Bremerhaven","position":{"lat":53.549999,"lng":8.583333},"status":"surplus"},{"frame_index":63,"name":"ports_1","capacity":10000,"empty":502,"full":336,"on_shipper":12,"on_consignee":0,"shortage":0,"acc_shortage":0,"booking":6,"acc_booking":570,"fulfillment":6,"acc_fulfillment":570,"transfer_cost":0.0,"port_name":"Durban","position":{"lat":-29.8579,"lng":31.0292},"status":"surplus"},{"frame_index":63,"name":"ports_2","capacity":10000,"empty":516,"full":197,"on_shipper":7,"on_consignee":0,"shortage":0,"acc_shortage":0,"booking":5,"acc_booking":564,"fulfillment":5,"acc_fulfillment":564,"transfer_cost":0.0,"port_name":"Itagual","position":{"lat":-22.85222,"lng":-43.77528},"status":"surplus"},{"frame_index":63,"name":"ports_3","capacity":10000,"empty":2732,"full":627,"on_shipper":45,"on_consignee":0,"shortage":0,"acc_shortage":0,"booking":30,"acc_booking":3253,"fulfillment":30,"acc_fulfillment":3253,"transfer_cost":0.0,"port_name":"LeHavre","position":{"lat":49.490002,"lng":0.1},"status":"surplus"},{"frame_index":63,"name":"ports_4","capacity":10000,"empty":2289,"full":2186,"on_shipper":60,"on_consignee":0,"shortage":0,"acc_shortage":0,"booking":26,"acc_booking":2711,"fulfillment":26,"acc_fulfillment":2711,"transfer_cost":0.0,"port_name":"Los Angeles","position":{"lat":34.052235,"lng":-118.243683},"status":"surplus"},{"frame_index":63,"name":"ports_5","capacity":10000,"empty":2555,"full":710,"on_shipper":53,"on_consignee":0,"shortage":0,"acc_shortage":0,"booking":26,"acc_booking":2716,"fulfillment":26,"acc_fulfillment":2716,"transfer_cost":0.0,"port_name":"Manzanillo","position":{"lat":19.11695,"lng":-104.34214},"status":"surplus"},{"frame_index":63,"name":"ports_6","capacity":10000,"empty":777,"full":360,"on_shipper":18,"on_consignee":0,"shortage":0,"acc_shortage":0,"booking":8,"acc_booking":832,"fulfillment":8,"acc_fulfillment":832,"transfer_cost":0.0,"port_name":"Melbourne","position":{"lat":-37.840935,"lng":144.946457},"status":"surplus"},{"frame_index":63,"name":"ports_7","capacity":10000,"empty":1485,"full":70,"on_shipper":8,"on_consignee":0,"shortage":0,"acc_shortage":0,"booking":8,"acc_booking":831,"fulfillment":8,"acc_fulfillment":831,"transfer_cost":0.0,"port_name":"Montreal","position":{"lat":45.516136,"lng":-73.65683},"status":"surplus"},{"frame_index":63,"name":"ports_8","capacity":10000,"empty":2334,"full":510,"on_shipper":26,"on_consignee":0,"shortage":0,"acc_shortage":0,"booking":15,"acc_booking":1627,"fulfillment":15,"acc_fulfillment":1627,"transfer_cost":0.0,"port_name":"New York","position":{"lat":40.73061,"lng":-73.935242},"status":"surplus"},{"frame_index":63,"name":"ports_9","capacity":10000,"empty":1560,"full":907,"on_shipper":22,"on_consignee":0,"shortage":0,"acc_shortage":0,"booking":16,"acc_booking":1616,"fulfillment":16,"acc_fulfillment":1616,"transfer_cost":0.0,"port_name":"Oakland","position":{"lat":37.804363,"lng":-122.271111},"status":"surplus"},{"frame_index":63,"name":"ports_10","capacity":10000,"empty":673,"full":286,"on_shipper":21,"on_consignee":0,"shortage":0,"acc_shortage":0,"booking":7,"acc_booking":840,"fulfillment":7,"acc_fulfillment":840,"transfer_cost":0.0,"port_name":"Prince Rupert","position":{"lat":54.312519,"lng":-130.305405},"status":"surplus"},{"frame_index":63,"name":"ports_11","capacity":10000,"empty":2943,"full":2144,"on_shipper":60,"on_consignee":0,"shortage":0,"acc_shortage":0,"booking":29,"acc_booking":3239,"fulfillment":29,"acc_fulfillment":3239,"transfer_cost":0.0,"port_name":"Pusan","position":{"lat":35.166668,"lng":129.066666},"status":"surplus"},{"frame_index":63,"name":"ports_12","capacity":10000,"empty":4213,"full":827,"on_shipper":92,"on_consignee":0,"shortage":0,"acc_shortage":0,"booking":39,"acc_booking":4338,"fulfillment":39,"acc_fulfillment":4338,"transfer_cost":0.0,"port_name":"Qingdao","position":{"lat":36.066898,"lng":120.382698},"status":"surplus"},{"frame_index":63,"name":"ports_13","capacity":10000,"empty":446,"full":358,"on_shipper":6,"on_consignee":0,"shortage":0,"acc_shortage":0,"booking":5,"acc_booking":568,"fulfillment":5,"acc_fulfillment":568,"transfer_cost":0.0,"port_name":"San Antonio","position":{"lat":29.424349,"lng":-98.491142},"status":"surplus"},{"frame_index":63,"name":"ports_14","capacity":10000,"empty":437,"full":9,"on_shipper":12,"on_consignee":0,"shortage":0,"acc_shortage":0,"booking":6,"acc_booking":577,"fulfillment":6,"acc_fulfillment":577,"transfer_cost":0.0,"port_name":"Santos","position":{"lat":-23.96083,"lng":-46.33361},"status":"surplus"},{"frame_index":63,"name":"ports_15","capacity":10000,"empty":3449,"full":2000,"on_shipper":80,"on_consignee":0,"shortage":0,"acc_shortage":0,"booking":35,"acc_booking":3783,"fulfillment":35,"acc_fulfillment":3783,"transfer_cost":0.0,"port_name":"Seattle","position":{"lat":47.608013,"lng":-122.335167},"status":"surplus"},{"frame_index":63,"name":"ports_16","capacity":10000,"empty":4562,"full":2221,"on_shipper":113,"on_consignee":0,"shortage":0,"acc_shortage":0,"booking":59,"acc_booking":5502,"fulfillment":59,"acc_fulfillment":5502,"transfer_cost":0.0,"port_name":"Shanghai","position":{"lat":31.224361,"lng":121.46917},"status":"surplus"},{"frame_index":63,"name":"ports_17","capacity":10000,"empty":2009,"full":483,"on_shipper":28,"on_consignee":0,"shortage":0,"acc_shortage":0,"booking":21,"acc_booking":2178,"fulfillment":21,"acc_fulfillment":2178,"transfer_cost":0.0,"port_name":"Singapore","position":{"lat":1.29027,"lng":103.851959},"status":"surplus"},{"frame_index":63,"name":"ports_18","capacity":10000,"empty":688,"full":397,"on_shipper":12,"on_consignee":0,"shortage":0,"acc_shortage":0,"booking":7,"acc_booking":815,"fulfillment":7,"acc_fulfillment":815,"transfer_cost":0.0,"port_name":"Sydney","position":{"lat":-33.865143,"lng":151.2099},"status":"surplus"},{"frame_index":63,"name":"ports_19","capacity":10000,"empty":908,"full":400,"on_shipper":20,"on_consignee":93,"shortage":0,"acc_shortage":0,"booking":11,"acc_booking":1111,"fulfillment":11,"acc_fulfillment":1111,"transfer_cost":0.0,"port_name":"Vancouver","position":{"lat":49.246292,"lng":-123.116226},"status":"surplus"},{"frame_index":63,"name":"ports_20","capacity":10000,"empty":3335,"full":1806,"on_shipper":74,"on_consignee":0,"shortage":0,"acc_shortage":0,"booking":34,"acc_booking":3749,"fulfillment":34,"acc_fulfillment":3749,"transfer_cost":0.0,"port_name":"Yantian","position":{"lat":26.8533,"lng":119.8575},"status":"surplus"},{"frame_index":63,"name":"ports_21","capacity":10000,"empty":4473,"full":1342,"on_shipper":69,"on_consignee":0,"shortage":0,"acc_shortage":0,"booking":29,"acc_booking":3636,"fulfillment":29,"acc_fulfillment":3636,"transfer_cost":0.0,"port_name":"Yokohama","position":{"lat":35.443707,"lng":139.638031},"status":"surplus"}]