[{"frame_index":150,"name":"ports_0","capacity":10000,"empty":5922,"full":2099,"on_shipper":161,"on_consignee":173,"shortage":0,"acc_shortage":0,"booking":140,"acc_booking":17740,"fulfillment":140,"acc_fulfillment":17740,"transfer_cost":0.0,"port_name":"Bremerhaven","position":{"lat":53.549999,"lng":8.583333},"status":"surplus"},{"frame_index":150,"name":"ports_1","capacity":10000,"empty":894,"full":9,"on_shipper":14,"on_consignee":0,"shortage":0,"acc_shortage":0,"booking":10,"acc_booking":1195,"fulfillment":10,"acc_fulfillment":1195,"transfer_cost":0.0,"port_name":"Durban","position":{"lat":-29.8579,"lng":31.0292},"status":"surplus"},{"frame_index":150,"name":"ports_2","capacity":10000,"empty":0,"full":720,"on_shipper":0,"on_consignee":0,"shortage":10,"acc_shortage":107,"booking":10,"acc_booking":1187,"fulfillment":0,"acc_fulfillment":1080,"transfer_cost":0.0,"port_name":"Itagual","position":{"lat":-22.85222,"lng":-43.77528},"status":"balance"},{"frame_index":150,"name":"ports_3","capacity":10000,"empty":1671,"full":987,"on_shipper":76,"on_consignee":0,"shortage":0,"acc_shortage":0,"booking":59,"acc_booking":6777,"fulfillment":59,"acc_fulfillment":6777,"transfer_cost":0.0,"port_name":"LeHavre","position":{"lat":49.490002,"lng":0.1},"status":"surplus"},{"frame_index":150,"name":"ports_4","capacity":10000,"empty":2489,"full":1151,"on_shipper":62,"on_consignee":0,"shortage":0,"acc_shortage":0,"booking":49,"acc_booking":5659,"fulfillment":49,"acc_fulfillment":5659,"transfer_cost":0.0,"port_name":"Los Angeles","position":{"lat":34.052235,"lng":-118.243683},"status":"surplus"},{"frame_index":150,"name":"ports_5","capacity":10000,"empty":2537,"full":135,"on_shipper":57,"on_consignee":0,"shortage":0,"acc_shortage":0,"booking":50,"acc_booking":5604,"fulfillment":50,"acc_fulfillment":5604,"transfer_cost":0.0,"port_name":"Manzanillo","position":{"lat":19.11695,"lng":-104.34214},"status":"surplus"},{"frame_index":150,"name":"ports_6","capacity":10000,"empty":649,"full":195,"on_shipper":15,"on_consignee":0,"shortage":0,"acc_shortage":0,"booking":15,"acc_booking":1747,"fulfillment":15,"acc_fulfillment":1747,"transfer_cost":0.0,"port_name":"Melbourne","position":{"lat":-37.840935,"lng":144.946457},"status":"surplus"},{"frame_index":150,"name":"ports_7","capacity":10000,"empty":2581,"full":116,"on_shipper":18,"on_consignee":0,"shortage":0,"acc_shortage":0,"booking":15,"acc_booking":1742,"fulfillment":15,"acc_fulfillment":1742,"transfer_cost":0.0,"port_name":"Montreal","position":{"lat":45.516136,"lng":-73.65683},"status":"surplus"},{"frame_index":150,"name":"ports_8","capacity":10000,"empty":1160,"full":688,"on_shipper":37,"on_consignee":0,"shortage":0,"acc_shortage":0,"booking":29,"acc_booking":3409,"fulfillment":29,"acc_fulfillment":3409,"transfer_cost":0.0,"port_name":"New York","position":{"lat":40.73061,"lng":-73.935242},"status":"surplus"},{"frame_index":150,"name":"ports_9","capacity":10000,"empty":1857,"full":522,"on_shipper":37,"on_consignee":0,"shortage":0,"acc_shortage":0,"booking":27,"acc_booking":3381,"fulfillment":27,"acc_fulfillment":3381,"transfer_cost":0.0,"port_name":"Oakland","position":{"lat":37.804363,"lng":-122.271111},"status":"surplus"},{"frame_index":150,"name":"ports_10","capacity":10000,"empty":1101,"full":16,"on_shipper":21,"on_consignee":0,"shortage":0,"acc_shortage":0,"booking":16,"acc_booking":1735,"fulfillment":16,"acc_fulfillment":1735,"transfer_cost":0.0,"port_name":"Prince Rupert","position":{"lat":54.312519,"lng":-130.305405},"status":"surplus"},{"frame_index":150,"name":"ports_11","capacity":10000,"empty":2280,"full":645,"on_shipper":72,"on_consignee":0,"shortage":0,"acc_shortage":0,"booking":57,"acc_booking":6744,"fulfillment":57,"acc_fulfillment":6744,"transfer_cost":0.0,"port_name":"Pusan","position":{"lat":35.166668,"lng":129.066666},"status":"surplus"},{"frame_index":150,"name":"ports_12","capacity":10000,"empty":4339,"full":575,"on_shipper":97,"on_consignee":214,"shortage":0,"acc_shortage":0,"booking":72,"acc_booking":8998,"fulfillment":72,"acc_fulfillment":8998,"transfer_cost":0.0,"port_name":"Qingdao","position":{"lat":36.066898,"lng":120.382698},"status":"surplus"},{"frame_index":150,"name":"ports_13","capacity":10000,"empty":207,"full":266,"on_shipper":12,"on_consignee":0,"shortage":0,"acc_shortage":0,"booking":9,"acc_booking":1197,"fulfillment":9,"acc_fulfillment":1197,"transfer_cost":0.0,"port_name":"San Antonio","position":{"lat":29.424349,"lng":-98.491142},"status":"surplus"},{"frame_index":150,"name":"ports_14","capacity":10000,"empty":0,"full":224,"on_shipper":0,"on_consignee":0,"shortage":8,"acc_shortage":25,"booking":8,"acc_booking":1201,"fulfillment":0,"acc_fulfillment":1176,"transfer_cost":0.0,"port_name":"Santos","position":{"lat":-23.96083,"lng":-46.33361},"status":"balance"},{"frame_index":150,"name":"ports_15","capacity":10000,"empty":3529,"full":506,"on_shipper":84,"on_consignee":0,"shortage":0,"acc_shortage":0,"booking":69,"acc_booking":7877,"fulfillment":69,"acc_fulfillment":7877,"transfer_cost":0.0,"port_name":"Seattle","position":{"lat":47.608013,"lng":-122.335167},"status":"surplus"},{"frame_index":150,"name":"ports_16","capacity":10000,"empty":2240,"full":865,"on_shipper":113,"on_consignee":0,"shortage":0,"acc_shortage":0,"booking":82,"acc_booking":11279,"fulfillment":82,"acc_fulfillment":11279,"transfer_cost":0.0,"port_name":"Shanghai","position":{"lat":31.224361,"lng":121.46917},"status":"surplus"},{"frame_index":150,"name":"ports_17","capacity":10000,"empty":1411,"full":622,"on_shipper":43,"on_consignee":0,"shortage":0,"acc_shortage":0,"booking":39,"acc_booking":4546,"fulfillment":39,"acc_fulfillment":4546,"transfer_cost":0.0,"port_name":"Singapore","position":{"lat":1.29027,"lng":103.851959},"status":"surplus"},{"frame_index":150,"name":"ports_18","capacity":10000,"empty":708,"full":113,"on_shipper":23,"on_consignee":0,"shortage":0,"acc_shortage":0,"booking":16,"acc_booking":1726,"fulfillment":16,"acc_fulfillment":1726,"transfer_cost":0.0,"port_name":"Sydney","position":{"lat":-33.865143,"lng":151.2099},"status":"surplus"},{"frame_index":150,"name":"ports_19","capacity":10000,"empty":1207,"full":346,"on_shipper":19,"on_consignee":0,"shortage":0,"acc_shortage":0,"booking":19,"acc_booking":2313,"fulfillment":19,"acc_fulfillment":2313,"transfer_cost":0.0,"port_name":"Vancouver","position":{"lat":49.246292,"lng":-123.116226},"status":"surplus"},{"frame_index":150,"name":"ports_20","capacity":10000,"empty":2353,"full":201,"on_shipper":79,"on_consignee":0,"shortage":0,"acc_shortage":0,"booking":65,"acc_booking":7724,"fulfillment":65,"acc_fulfillment":7724,"transfer_cost":0.0,"port_name":"Yantian","position":{"lat":26.8533,"lng":119.8575},"status":"surplus"},{"frame_index":150,"name":"ports_21","capacity":10000,"empty":3331,"full":467,"on_shipper":83,"on_consignee":0,"shortage":0,"acc_shortage":0,"booking":66,"acc_booking":7330,"fulfillment":66,"acc_fulfillment":7330,"transfer_cost":0.0,"port_name":"Yokohama","position":{"lat":35.443707,"lng":139.638031},"status":"surplus"}]