[{"frame_index":1070,"name":"ports_0","capacity":10000,"empty":1734,"full":1504,"on_shipper":229,"on_consignee":441,"shortage":0,"acc_shortage":861,"booking":183,"acc_booking":138219,"fulfillment":183,"acc_fulfillment":137358,"transfer_cost":31.0,"port_name":"Bremerhaven","position":{"lat":53.549999,"lng":8.583333},"status":"surplus"},{"frame_index":1070,"name":"ports_1","capacity":10000,"empty":351,"full":254,"on_shipper":19,"on_consignee":0,"shortage":0,"acc_shortage":113,"booking":11,"acc_booking":9180,"fulfillment":11,"acc_fulfillment":9067,"transfer_cost":0.0,"port_name":"Durban","position":{"lat":-29.8579,"lng":31.0292},"status":"surplus"},{"frame_index":1070,"name":"ports_2","capacity":10000,"empty":410,"full":339,"on_shipper":13,"on_consignee":0,"shortage":0,"acc_shortage":298,"booking":10,"acc_booking":9145,"fulfillment":10,"acc_fulfillment":8847,"transfer_cost":0.0,"port_name":"Itagual","position":{"lat":-22.85222,"lng":-43.77528},"status":"surplus"},{"frame_index":1070,"name":"ports_3","capacity":10000,"empty":4761,"full":2368,"on_shipper":112,"on_consignee":0,"shortage":0,"acc_shortage":0,"booking":61,"acc_booking":52260,"fulfillment":61,"acc_fulfillment":52260,"transfer_cost":0.0,"port_name":"LeHavre","position":{"lat":49.490002,"lng":0.1},"status":"surplus"},{"frame_index":1070,"name":"ports_4","capacity":10000,"empty":1246,"full":1889,"on_shipper":77,"on_consignee":0,"shortage":0,"acc_shortage":290,"booking":53,"acc_booking":43767,"fulfillment":53,"acc_fulfillment":43477,"transfer_cost":0.0,"port_name":"Los Angeles","position":{"lat":34.052235,"lng":-118.243683},"status":"surplus"},{"frame_index":1070,"name":"ports_5","capacity":10000,"empty":623,"full":712,"on_shipper":55,"on_consignee":0,"shortage":0,"acc_shortage":194,"booking":47,"acc_booking":43838,"fulfillment":47,"acc_fulfillment":43644,"transfer_cost":0.0,"port_name":"Manzanillo","position":{"lat":19.11695,"lng":-104.34214},"status":"surplus"},{"frame_index":1070,"name":"ports_6","capacity":10000,"empty":160,"full":420,"on_shipper":28,"on_consignee":0,"shortage":0,"acc_shortage":2108,"booking":16,"acc_booking":13476,"fulfillment":16,"acc_fulfillment":11368,"transfer_cost":0.0,"port_name":"Melbourne","position":{"lat":-37.840935,"lng":144.946457},"status":"surplus"},{"frame_index":1070,"name":"ports_7","capacity":10000,"empty":1294,"full":410,"on_shipper":16,"on_consignee":0,"shortage":0,"acc_shortage":0,"booking":16,"acc_booking":13480,"fulfillment":16,"acc_fulfillment":13480,"transfer_cost":0.0,"port_name":"Montreal","position":{"lat":45.516136,"lng":-73.65683},"status":"surplus"},{"frame_index":1070,"name":"ports_8","capacity":10000,"empty":5261,"full":643,"on_shipper":48,"on_consignee":0,"shortage":0,"acc_shortage":136,"booking":31,"acc_booking":26353,"fulfillment":31,"acc_fulfillment":26217,"transfer_cost":0.0,"port_name":"New York","position":{"lat":40.73061,"lng":-73.935242},"status":"surplus"},{"frame_index":1070,"name":"ports_9","capacity":10000,"empty":1671,"full":501,"on_shipper":66,"on_consignee":0,"shortage":0,"acc_shortage":45,"booking":35,"acc_booking":26403,"fulfillment":35,"acc_fulfillment":26358,"transfer_cost":0.0,"port_name":"Oakland","position":{"lat":37.804363,"lng":-122.271111},"status":"surplus"},{"frame_index":1070,"name":"ports_10","capacity":10000,"empty":1590,"full":17,"on_shipper":26,"on_consignee":66,"shortage":0,"acc_shortage":314,"booking":16,"acc_booking":13472,"fulfillment":16,"acc_fulfillment":13158,"transfer_cost":0.0,"port_name":"Prince Rupert","position":{"lat":54.312519,"lng":-130.305405},"status":"surplus"},{"frame_index":1070,"name":"ports_11","capacity":10000,"empty":2375,"full":1249,"on_shipper":89,"on_consignee":0,"shortage":0,"acc_shortage":204,"booking":60,"acc_booking":52217,"fulfillment":60,"acc_fulfillment":52013,"transfer_cost":0.0,"port_name":"Pusan","position":{"lat":35.166668,"lng":129.066666},"status":"surplus"},{"frame_index":1070,"name":"ports_12","capacity":10000,"empty":3232,"full":1291,"on_shipper":154,"on_consignee":458,"shortage":0,"acc_shortage":0,"booking":94,"acc_booking":69780,"fulfillment":94,"acc_fulfillment":69780,"transfer_cost":1.0,"port_name":"Qingdao","position":{"lat":36.066898,"lng":120.382698},"status":"surplus"},{"frame_index":1070,"name":"ports_13","capacity":10000,"empty":258,"full":288,"on_shipper":18,"on_consignee":0,"shortage":0,"acc_shortage":459,"booking":10,"acc_booking":9144,"fulfillment":10,"acc_fulfillment":8685,"transfer_cost":0.0,"port_name":"San Antonio","position":{"lat":29.424349,"lng":-98.491142},"status":"surplus"},{"frame_index":1070,"name":"ports_14","capacity":10000,"empty":0,"full":378,"on_shipper":0,"on_consignee":0,"shortage":11,"acc_shortage":1042,"booking":11,"acc_booking":9204,"fulfillment":0,"acc_fulfillment":8162,"transfer_cost":0.0,"port_name":"Santos","position":{"lat":-23.96083,"lng":-46.33361},"status":"demand"},{"frame_index":1070,"name":"ports_15","capacity":10000,"empty":1409,"full":1809,"on_shipper":105,"on_consignee":0,"shortage":0,"acc_shortage":1489,"booking":71,"acc_booking":60946,"fulfillment":71,"acc_fulfillment":59457,"transfer_cost":0.0,"port_name":"Seattle","position":{"lat":47.608013,"lng":-122.335167},"status":"surplus"},{"frame_index":1070,"name":"ports_16","capacity":10000,"empty":1606,"full":2995,"on_shipper":173,"on_consignee":0,"shortage":0,"acc_shortage":817,"booking":112,"acc_booking":86919,"fulfillment":112,"acc_fulfillment":86102,"transfer_cost":0.0,"port_name":"Shanghai","position":{"lat":31.224361,"lng":121.46917},"status":"surplus"},{"frame_index":1070,"name":"ports_17","capacity":10000,"empty":2996,"full":763,"on_shipper":70,"on_consignee":0,"shortage":0,"acc_shortage":619,"booking":43,"acc_booking":35095,"fulfillment":43,"acc_fulfillment":34476,"transfer_cost":0.0,"port_name":"Singapore","position":{"lat":1.29027,"lng":103.851959},"status":"surplus"},{"frame_index":1070,"name":"ports_18","capacity":10000,"empty":374,"full":262,"on_shipper":24,"on_consignee":0,"shortage":0,"acc_shortage":1374,"booking":14,"acc_booking":13469,"fulfillment":14,"acc_fulfillment":12095,"transfer_cost":0.0,"port_name":"Sydney","position":{"lat":-33.865143,"lng":151.2099},"status":"surplus"},{"frame_index":1070,"name":"ports_19","capacity":10000,"empty":1018,"full":469,"on_shipper":35,"on_consignee":0,"shortage":0,"acc_shortage":0,"booking":23,"acc_booking":17841,"fulfillment":23,"acc_fulfillment":17841,"transfer_cost":0.0,"port_name":"Vancouver","position":{"lat":49.246292,"lng":-123.116226},"status":"surplus"},{"frame_index":1070,"name":"ports_20","capacity":10000,"empty":2,"full":2148,"on_shipper":22,"on_consignee":8,"shortage":79,"acc_shortage":1570,"booking":79,"acc_booking":60689,"fulfillment":0,"acc_fulfillment":59119,"transfer_cost":2.0,"port_name":"Yantian","position":{"lat":26.8533,"lng":119.8575},"status":"demand"},{"frame_index":1070,"name":"ports_21","capacity":10000,"empty":0,"full":1139,"on_shipper":0,"on_consignee":0,"shortage":72,"acc_shortage":9054,"booking":72,"acc_booking":57820,"fulfillment":0,"acc_fulfillment":48766,"transfer_cost":0.0,"port_name":"Yokohama","position":{"lat":35.443707,"lng":139.638031},"status":"demand"}]