[{"frame_index":756,"name":"ports_0","capacity":10000,"empty":4772,"full":2244,"on_shipper":348,"on_consignee":0,"shortage":0,"acc_shortage":522,"booking":218,"acc_booking":98117,"fulfillment":218,"acc_fulfillment":97595,"transfer_cost":0.0,"port_name":"Bremerhaven","position":{"lat":53.549999,"lng":8.583333},"status":"surplus"},{"frame_index":756,"name":"ports_1","capacity":10000,"empty":265,"full":129,"on_shipper":18,"on_consignee":0,"shortage":0,"acc_shortage":10,"booking":12,"acc_booking":6513,"fulfillment":12,"acc_fulfillment":6503,"transfer_cost":0.0,"port_name":"Durban","position":{"lat":-29.8579,"lng":31.0292},"status":"surplus"},{"frame_index":756,"name":"ports_2","capacity":10000,"empty":397,"full":284,"on_shipper":16,"on_consignee":0,"shortage":0,"acc_shortage":298,"booking":13,"acc_booking":6492,"fulfillment":13,"acc_fulfillment":6194,"transfer_cost":0.0,"port_name":"Itagual","position":{"lat":-22.85222,"lng":-43.77528},"status":"surplus"},{"frame_index":756,"name":"ports_3","capacity":10000,"empty":390,"full":3209,"on_shipper":128,"on_consignee":0,"shortage":0,"acc_shortage":0,"booking":72,"acc_booking":37135,"fulfillment":72,"acc_fulfillment":37135,"transfer_cost":0.0,"port_name":"LeHavre","position":{"lat":49.490002,"lng":0.1},"status":"balance"},{"frame_index":756,"name":"ports_4","capacity":10000,"empty":1796,"full":745,"on_shipper":96,"on_consignee":0,"shortage":0,"acc_shortage":290,"booking":61,"acc_booking":31086,"fulfillment":61,"acc_fulfillment":30796,"transfer_cost":0.0,"port_name":"Los Angeles","position":{"lat":34.052235,"lng":-118.243683},"status":"surplus"},{"frame_index":756,"name":"ports_5","capacity":10000,"empty":2226,"full":95,"on_shipper":109,"on_consignee":0,"shortage":0,"acc_shortage":123,"booking":52,"acc_booking":31191,"fulfillment":52,"acc_fulfillment":31068,"transfer_cost":0.0,"port_name":"Manzanillo","position":{"lat":19.11695,"lng":-104.34214},"status":"surplus"},{"frame_index":756,"name":"ports_6","capacity":10000,"empty":0,"full":450,"on_shipper":0,"on_consignee":0,"shortage":18,"acc_shortage":1497,"booking":18,"acc_booking":9565,"fulfillment":0,"acc_fulfillment":8068,"transfer_cost":0.0,"port_name":"Melbourne","position":{"lat":-37.840935,"lng":144.946457},"status":"demand"},{"frame_index":756,"name":"ports_7","capacity":10000,"empty":176,"full":552,"on_shipper":36,"on_consignee":0,"shortage":0,"acc_shortage":0,"booking":18,"acc_booking":9574,"fulfillment":18,"acc_fulfillment":9574,"transfer_cost":0.0,"port_name":"Montreal","position":{"lat":45.516136,"lng":-73.65683},"status":"surplus"},{"frame_index":756,"name":"ports_8","capacity":10000,"empty":182,"full":861,"on_shipper":37,"on_consignee":0,"shortage":0,"acc_shortage":0,"booking":37,"acc_booking":18700,"fulfillment":37,"acc_fulfillment":18700,"transfer_cost":0.0,"port_name":"New York","position":{"lat":40.73061,"lng":-73.935242},"status":"balance"},{"frame_index":756,"name":"ports_9","capacity":10000,"empty":585,"full":328,"on_shipper":43,"on_consignee":0,"shortage":0,"acc_shortage":45,"booking":32,"acc_booking":18745,"fulfillment":32,"acc_fulfillment":18700,"transfer_cost":0.0,"port_name":"Oakland","position":{"lat":37.804363,"lng":-122.271111},"status":"surplus"},{"frame_index":756,"name":"ports_10","capacity":10000,"empty":1362,"full":87,"on_shipper":27,"on_consignee":0,"shortage":0,"acc_shortage":314,"booking":16,"acc_booking":9588,"fulfillment":16,"acc_fulfillment":9274,"transfer_cost":0.0,"port_name":"Prince Rupert","position":{"lat":54.312519,"lng":-130.305405},"status":"surplus"},{"frame_index":756,"name":"ports_11","capacity":10000,"empty":2348,"full":263,"on_shipper":100,"on_consignee":0,"shortage":0,"acc_shortage":204,"booking":71,"acc_booking":37095,"fulfillment":71,"acc_fulfillment":36891,"transfer_cost":0.0,"port_name":"Pusan","position":{"lat":35.166668,"lng":129.066666},"status":"surplus"},{"frame_index":756,"name":"ports_12","capacity":10000,"empty":2231,"full":1898,"on_shipper":142,"on_consignee":80,"shortage":0,"acc_shortage":0,"booking":104,"acc_booking":49541,"fulfillment":104,"acc_fulfillment":49541,"transfer_cost":218.0,"port_name":"Qingdao","position":{"lat":36.066898,"lng":120.382698},"status":"surplus"},{"frame_index":756,"name":"ports_13","capacity":10000,"empty":18,"full":579,"on_shipper":20,"on_consignee":0,"shortage":0,"acc_shortage":325,"booking":12,"acc_booking":6506,"fulfillment":12,"acc_fulfillment":6181,"transfer_cost":0.0,"port_name":"San Antonio","position":{"lat":29.424349,"lng":-98.491142},"status":"balance"},{"frame_index":756,"name":"ports_14","capacity":10000,"empty":265,"full":622,"on_shipper":21,"on_consignee":0,"shortage":0,"acc_shortage":762,"booking":11,"acc_booking":6540,"fulfillment":11,"acc_fulfillment":5778,"transfer_cost":0.0,"port_name":"Santos","position":{"lat":-23.96083,"lng":-46.33361},"status":"surplus"},{"frame_index":756,"name":"ports_15","capacity":10000,"empty":731,"full":2925,"on_shipper":128,"on_consignee":45,"shortage":0,"acc_shortage":0,"booking":85,"acc_booking":43313,"fulfillment":85,"acc_fulfillment":43313,"transfer_cost":0.0,"port_name":"Seattle","position":{"lat":47.608013,"lng":-122.335167},"status":"surplus"},{"frame_index":756,"name":"ports_16","capacity":10000,"empty":375,"full":2843,"on_shipper":179,"on_consignee":231,"shortage":0,"acc_shortage":760,"booking":129,"acc_booking":61625,"fulfillment":129,"acc_fulfillment":60865,"transfer_cost":13.0,"port_name":"Shanghai","position":{"lat":31.224361,"lng":121.46917},"status":"demand"},{"frame_index":756,"name":"ports_17","capacity":10000,"empty":1240,"full":988,"on_shipper":63,"on_consignee":336,"shortage":0,"acc_shortage":283,"booking":48,"acc_booking":24957,"fulfillment":48,"acc_fulfillment":24674,"transfer_cost":919.0,"port_name":"Singapore","position":{"lat":1.29027,"lng":103.851959},"status":"surplus"},{"frame_index":756,"name":"ports_18","capacity":10000,"empty":135,"full":244,"on_shipper":32,"on_consignee":0,"shortage":0,"acc_shortage":1226,"booking":18,"acc_booking":9573,"fulfillment":18,"acc_fulfillment":8347,"transfer_cost":0.0,"port_name":"Sydney","position":{"lat":-33.865143,"lng":151.2099},"status":"balance"},{"frame_index":756,"name":"ports_19","capacity":10000,"empty":876,"full":484,"on_shipper":33,"on_consignee":0,"shortage":0,"acc_shortage":0,"booking":23,"acc_booking":12693,"fulfillment":23,"acc_fulfillment":12693,"transfer_cost":0.0,"port_name":"Vancouver","position":{"lat":49.246292,"lng":-123.116226},"status":"surplus"},{"frame_index":756,"name":"ports_20","capacity":10000,"empty":479,"full":2211,"on_shipper":148,"on_consignee":0,"shortage":0,"acc_shortage":942,"booking":92,"acc_booking":43018,"fulfillment":92,"acc_fulfillment":42076,"transfer_cost":0.0,"port_name":"Yantian","position":{"lat":26.8533,"lng":119.8575},"status":"balance"},{"frame_index":756,"name":"ports_21","capacity":10000,"empty":0,"full":296,"on_shipper":87,"on_consignee":0,"shortage":27,"acc_shortage":5169,"booking":85,"acc_booking":41130,"fulfillment":58,"acc_fulfillment":35961,"transfer_cost":0.0,"port_name":"Yokohama","position":{"lat":35.443707,"lng":139.638031},"status":"demand"}]