[{"frame_index":842,"name":"ports_0","capacity":10000,"empty":6123,"full":3816,"on_shipper":396,"on_consignee":0,"shortage":0,"acc_shortage":522,"booking":279,"acc_booking":108197,"fulfillment":279,"acc_fulfillment":107675,"transfer_cost":0.0,"port_name":"Bremerhaven","position":{"lat":53.549999,"lng":8.583333},"status":"surplus"},{"frame_index":842,"name":"ports_1","capacity":10000,"empty":120,"full":252,"on_shipper":41,"on_consignee":0,"shortage":0,"acc_shortage":10,"booking":21,"acc_booking":7197,"fulfillment":21,"acc_fulfillment":7187,"transfer_cost":0.0,"port_name":"Durban","position":{"lat":-29.8579,"lng":31.0292},"status":"balance"},{"frame_index":842,"name":"ports_2","capacity":10000,"empty":457,"full":99,"on_shipper":30,"on_consignee":0,"shortage":0,"acc_shortage":298,"booking":21,"acc_booking":7165,"fulfillment":21,"acc_fulfillment":6867,"transfer_cost":0.0,"port_name":"Itagual","position":{"lat":-22.85222,"lng":-43.77528},"status":"surplus"},{"frame_index":842,"name":"ports_3","capacity":10000,"empty":4499,"full":667,"on_shipper":198,"on_consignee":0,"shortage":0,"acc_shortage":0,"booking":116,"acc_booking":40990,"fulfillment":116,"acc_fulfillment":40990,"transfer_cost":0.0,"port_name":"LeHavre","position":{"lat":49.490002,"lng":0.1},"status":"surplus"},{"frame_index":842,"name":"ports_4","capacity":10000,"empty":2711,"full":780,"on_shipper":158,"on_consignee":0,"shortage":0,"acc_shortage":290,"booking":100,"acc_booking":34316,"fulfillment":100,"acc_fulfillment":34026,"transfer_cost":0.0,"port_name":"Los Angeles","position":{"lat":34.052235,"lng":-118.243683},"status":"surplus"},{"frame_index":842,"name":"ports_5","capacity":10000,"empty":2306,"full":402,"on_shipper":146,"on_consignee":0,"shortage":0,"acc_shortage":123,"booking":94,"acc_booking":34454,"fulfillment":94,"acc_fulfillment":34331,"transfer_cost":0.0,"port_name":"Manzanillo","position":{"lat":19.11695,"lng":-104.34214},"status":"surplus"},{"frame_index":842,"name":"ports_6","capacity":10000,"empty":345,"full":76,"on_shipper":60,"on_consignee":0,"shortage":0,"acc_shortage":1654,"booking":29,"acc_booking":10561,"fulfillment":29,"acc_fulfillment":8907,"transfer_cost":0.0,"port_name":"Melbourne","position":{"lat":-37.840935,"lng":144.946457},"status":"surplus"},{"frame_index":842,"name":"ports_7","capacity":10000,"empty":731,"full":271,"on_shipper":45,"on_consignee":0,"shortage":0,"acc_shortage":0,"booking":30,"acc_booking":10577,"fulfillment":30,"acc_fulfillment":10577,"transfer_cost":0.0,"port_name":"Montreal","position":{"lat":45.516136,"lng":-73.65683},"status":"surplus"},{"frame_index":842,"name":"ports_8","capacity":10000,"empty":2980,"full":698,"on_shipper":120,"on_consignee":0,"shortage":0,"acc_shortage":136,"booking":60,"acc_booking":20651,"fulfillment":60,"acc_fulfillment":20515,"transfer_cost":0.0,"port_name":"New York","position":{"lat":40.73061,"lng":-73.935242},"status":"surplus"},{"frame_index":842,"name":"ports_9","capacity":10000,"empty":1330,"full":159,"on_shipper":114,"on_consignee":0,"shortage":0,"acc_shortage":45,"booking":61,"acc_booking":20678,"fulfillment":61,"acc_fulfillment":20633,"transfer_cost":0.0,"port_name":"Oakland","position":{"lat":37.804363,"lng":-122.271111},"status":"surplus"},{"frame_index":842,"name":"ports_10","capacity":10000,"empty":776,"full":669,"on_shipper":55,"on_consignee":0,"shortage":0,"acc_shortage":314,"booking":27,"acc_booking":10599,"fulfillment":27,"acc_fulfillment":10285,"transfer_cost":0.0,"port_name":"Prince Rupert","position":{"lat":54.312519,"lng":-130.305405},"status":"surplus"},{"frame_index":842,"name":"ports_11","capacity":10000,"empty":1881,"full":1331,"on_shipper":154,"on_consignee":0,"shortage":0,"acc_shortage":204,"booking":112,"acc_booking":40948,"fulfillment":112,"acc_fulfillment":40744,"transfer_cost":0.0,"port_name":"Pusan","position":{"lat":35.166668,"lng":129.066666},"status":"surplus"},{"frame_index":842,"name":"ports_12","capacity":10000,"empty":2744,"full":2547,"on_shipper":272,"on_consignee":0,"shortage":0,"acc_shortage":0,"booking":173,"acc_booking":54677,"fulfillment":173,"acc_fulfillment":54677,"transfer_cost":0.0,"port_name":"Qingdao","position":{"lat":36.066898,"lng":120.382698},"status":"surplus"},{"frame_index":842,"name":"ports_13","capacity":10000,"empty":531,"full":59,"on_shipper":30,"on_consignee":0,"shortage":0,"acc_shortage":449,"booking":18,"acc_booking":7175,"fulfillment":18,"acc_fulfillment":6726,"transfer_cost":0.0,"port_name":"San Antonio","position":{"lat":29.424349,"lng":-98.491142},"status":"surplus"},{"frame_index":842,"name":"ports_14","capacity":10000,"empty":435,"full":147,"on_shipper":35,"on_consignee":0,"shortage":0,"acc_shortage":819,"booking":18,"acc_booking":7215,"fulfillment":18,"acc_fulfillment":6396,"transfer_cost":0.0,"port_name":"Santos","position":{"lat":-23.96083,"lng":-46.33361},"status":"surplus"},{"frame_index":842,"name":"ports_15","capacity":10000,"empty":270,"full":2670,"on_shipper":230,"on_consignee":0,"shortage":0,"acc_shortage":0,"booking":141,"acc_booking":47810,"fulfillment":141,"acc_fulfillment":47810,"transfer_cost":0.0,"port_name":"Seattle","position":{"lat":47.608013,"lng":-122.335167},"status":"demand"},{"frame_index":842,"name":"ports_16","capacity":10000,"empty":1154,"full":1421,"on_shipper":408,"on_consignee":279,"shortage":0,"acc_shortage":760,"booking":197,"acc_booking":68014,"fulfillment":197,"acc_fulfillment":67254,"transfer_cost":0.0,"port_name":"Shanghai","position":{"lat":31.224361,"lng":121.46917},"status":"surplus"},{"frame_index":842,"name":"ports_17","capacity":10000,"empty":179,"full":947,"on_shipper":110,"on_consignee":0,"shortage":0,"acc_shortage":283,"booking":76,"acc_booking":27527,"fulfillment":76,"acc_fulfillment":27244,"transfer_cost":0.0,"port_name":"Singapore","position":{"lat":1.29027,"lng":103.851959},"status":"demand"},{"frame_index":842,"name":"ports_18","capacity":10000,"empty":696,"full":501,"on_shipper":53,"on_consignee":0,"shortage":0,"acc_shortage":1374,"booking":32,"acc_booking":10586,"fulfillment":32,"acc_fulfillment":9212,"transfer_cost":0.0,"port_name":"Sydney","position":{"lat":-33.865143,"lng":151.2099},"status":"surplus"},{"frame_index":842,"name":"ports_19","capacity":10000,"empty":1242,"full":188,"on_shipper":80,"on_consignee":0,"shortage":0,"acc_shortage":0,"booking":39,"acc_booking":14012,"fulfillment":39,"acc_fulfillment":14012,"transfer_cost":0.0,"port_name":"Vancouver","position":{"lat":49.246292,"lng":-123.116226},"status":"surplus"},{"frame_index":842,"name":"ports_20","capacity":10000,"empty":992,"full":1599,"on_shipper":190,"on_consignee":0,"shortage":0,"acc_shortage":942,"booking":134,"acc_booking":47560,"fulfillment":134,"acc_fulfillment":46618,"transfer_cost":0.0,"port_name":"Yantian","position":{"lat":26.8533,"lng":119.8575},"status":"surplus"},{"frame_index":842,"name":"ports_21","capacity":10000,"empty":264,"full":1377,"on_shipper":256,"on_consignee":0,"shortage":0,"acc_shortage":6236,"booking":147,"acc_booking":45325,"fulfillment":147,"acc_fulfillment":39089,"transfer_cost":0.0,"port_name":"Yokohama","position":{"lat":35.443707,"lng":139.638031},"status":"demand"}]