[{"frame_index":23,"name":"ports_0","capacity":10000,"empty":14603,"full":506,"on_shipper":95,"on_consignee":0,"shortage":0,"acc_shortage":0,"booking":76,"acc_booking":1397,"fulfillment":76,"acc_fulfillment":1397,"transfer_cost":0.0,"port_name":"Bremerhaven","position":{"lat":53.549999,"lng":8.583333},"status":"surplus"},{"frame_index":23,"name":"ports_1","capacity":10000,"empty":913,"full":16,"on_shipper":7,"on_consignee":0,"shortage":0,"acc_shortage":0,"booking":5,"acc_booking":98,"fulfillment":5,"acc_fulfillment":98,"transfer_cost":0.0,"port_name":"Durban","position":{"lat":-29.8579,"lng":31.0292},"status":"surplus"},{"frame_index":23,"name":"ports_2","capacity":10000,"empty":902,"full":53,"on_shipper":6,"on_consignee":0,"shortage":0,"acc_shortage":0,"booking":5,"acc_booking":98,"fulfillment":5,"acc_fulfillment":98,"transfer_cost":0.0,"port_name":"Itagual","position":{"lat":-22.85222,"lng":-43.77528},"status":"surplus"},{"frame_index":23,"name":"ports_3","capacity":10000,"empty":4786,"full":247,"on_shipper":43,"on_consignee":0,"shortage":0,"acc_shortage":0,"booking":28,"acc_booking":546,"fulfillment":28,"acc_fulfillment":546,"transfer_cost":668.0,"port_name":"LeHavre","position":{"lat":49.490002,"lng":0.1},"status":"surplus"},{"frame_index":23,"name":"ports_4","capacity":10000,"empty":4546,"full":367,"on_shipper":25,"on_consignee":0,"shortage":0,"acc_shortage":0,"booking":22,"acc_booking":454,"fulfillment":22,"acc_fulfillment":454,"transfer_cost":0.0,"port_name":"Los Angeles","position":{"lat":34.052235,"lng":-118.243683},"status":"surplus"},{"frame_index":23,"name":"ports_5","capacity":10000,"empty":4545,"full":338,"on_shipper":26,"on_consignee":0,"shortage":0,"acc_shortage":0,"booking":20,"acc_booking":455,"fulfillment":20,"acc_fulfillment":455,"transfer_cost":0.0,"port_name":"Manzanillo","position":{"lat":19.11695,"lng":-104.34214},"status":"surplus"},{"frame_index":23,"name":"ports_6","capacity":10000,"empty":1357,"full":132,"on_shipper":11,"on_consignee":0,"shortage":0,"acc_shortage":0,"booking":7,"acc_booking":143,"fulfillment":7,"acc_fulfillment":143,"transfer_cost":0.0,"port_name":"Melbourne","position":{"lat":-37.840935,"lng":144.946457},"status":"surplus"},{"frame_index":23,"name":"ports_7","capacity":10000,"empty":1359,"full":130,"on_shipper":11,"on_consignee":0,"shortage":0,"acc_shortage":0,"booking":7,"acc_booking":141,"fulfillment":7,"acc_fulfillment":141,"transfer_cost":0.0,"port_name":"Montreal","position":{"lat":45.516136,"lng":-73.65683},"status":"surplus"},{"frame_index":23,"name":"ports_8","capacity":10000,"empty":2724,"full":259,"on_shipper":17,"on_consignee":0,"shortage":0,"acc_shortage":0,"booking":13,"acc_booking":276,"fulfillment":13,"acc_fulfillment":276,"transfer_cost":0.0,"port_name":"New York","position":{"lat":40.73061,"lng":-73.935242},"status":"surplus"},{"frame_index":23,"name":"ports_9","capacity":10000,"empty":2726,"full":260,"on_shipper":14,"on_consignee":0,"shortage":0,"acc_shortage":0,"booking":12,"acc_booking":274,"fulfillment":12,"acc_fulfillment":274,"transfer_cost":0.0,"port_name":"Oakland","position":{"lat":37.804363,"lng":-122.271111},"status":"surplus"},{"frame_index":23,"name":"ports_10","capacity":10000,"empty":1351,"full":138,"on_shipper":11,"on_consignee":0,"shortage":0,"acc_shortage":0,"booking":7,"acc_booking":149,"fulfillment":7,"acc_fulfillment":149,"transfer_cost":0.0,"port_name":"Prince Rupert","position":{"lat":54.312519,"lng":-130.305405},"status":"surplus"},{"frame_index":23,"name":"ports_11","capacity":10000,"empty":5452,"full":163,"on_shipper":33,"on_consignee":0,"shortage":0,"acc_shortage":0,"booking":26,"acc_booking":548,"fulfillment":26,"acc_fulfillment":548,"transfer_cost":0.0,"port_name":"Pusan","position":{"lat":35.166668,"lng":129.066666},"status":"surplus"},{"frame_index":23,"name":"ports_12","capacity":10000,"empty":7274,"full":409,"on_shipper":55,"on_consignee":0,"shortage":0,"acc_shortage":0,"booking":38,"acc_booking":726,"fulfillment":38,"acc_fulfillment":726,"transfer_cost":0.0,"port_name":"Qingdao","position":{"lat":36.066898,"lng":120.382698},"status":"surplus"},{"frame_index":23,"name":"ports_13","capacity":10000,"empty":902,"full":92,"on_shipper":6,"on_consignee":0,"shortage":0,"acc_shortage":0,"booking":5,"acc_booking":98,"fulfillment":5,"acc_fulfillment":98,"transfer_cost":0.0,"port_name":"San Antonio","position":{"lat":29.424349,"lng":-98.491142},"status":"surplus"},{"frame_index":23,"name":"ports_14","capacity":10000,"empty":901,"full":95,"on_shipper":4,"on_consignee":0,"shortage":0,"acc_shortage":0,"booking":4,"acc_booking":99,"fulfillment":4,"acc_fulfillment":99,"transfer_cost":0.0,"port_name":"Santos","position":{"lat":-23.96083,"lng":-46.33361},"status":"surplus"},{"frame_index":23,"name":"ports_15","capacity":10000,"empty":6373,"full":469,"on_shipper":39,"on_consignee":0,"shortage":0,"acc_shortage":0,"booking":32,"acc_booking":627,"fulfillment":32,"acc_fulfillment":627,"transfer_cost":0.0,"port_name":"Seattle","position":{"lat":47.608013,"lng":-122.335167},"status":"surplus"},{"frame_index":23,"name":"ports_16","capacity":10000,"empty":9086,"full":532,"on_shipper":56,"on_consignee":0,"shortage":0,"acc_shortage":0,"booking":47,"acc_booking":914,"fulfillment":47,"acc_fulfillment":914,"transfer_cost":0.0,"port_name":"Shanghai","position":{"lat":31.224361,"lng":121.46917},"status":"surplus"},{"frame_index":23,"name":"ports_17","capacity":10000,"empty":3637,"full":168,"on_shipper":24,"on_consignee":0,"shortage":0,"acc_shortage":0,"booking":19,"acc_booking":367,"fulfillment":19,"acc_fulfillment":367,"transfer_cost":0.0,"port_name":"Singapore","position":{"lat":1.29027,"lng":103.851959},"status":"surplus"},{"frame_index":23,"name":"ports_18","capacity":10000,"empty":1357,"full":133,"on_shipper":10,"on_consignee":0,"shortage":0,"acc_shortage":0,"booking":7,"acc_booking":143,"fulfillment":7,"acc_fulfillment":143,"transfer_cost":0.0,"port_name":"Sydney","position":{"lat":-33.865143,"lng":151.2099},"status":"surplus"},{"frame_index":23,"name":"ports_19","capacity":10000,"empty":1814,"full":147,"on_shipper":12,"on_consignee":0,"shortage":0,"acc_shortage":0,"booking":9,"acc_booking":186,"fulfillment":9,"acc_fulfillment":186,"transfer_cost":0.0,"port_name":"Vancouver","position":{"lat":49.246292,"lng":-123.116226},"status":"surplus"},{"frame_index":23,"name":"ports_20","capacity":10000,"empty":6360,"full":470,"on_shipper":39,"on_consignee":0,"shortage":0,"acc_shortage":0,"booking":34,"acc_booking":643,"fulfillment":34,"acc_fulfillment":643,"transfer_cost":0.0,"port_name":"Yantian","position":{"lat":26.8533,"lng":119.8575},"status":"surplus"},{"frame_index":23,"name":"ports_21","capacity":10000,"empty":7527,"full":447,"on_shipper":26,"on_consignee":0,"shortage":0,"acc_shortage":0,"booking":23,"acc_booking":473,"fulfillment":23,"acc_fulfillment":473,"transfer_cost":0.0,"port_name":"Yokohama","position":{"lat":35.443707,"lng":139.638031},"status":"surplus"}]