[{"frame_index":473,"name":"ports_0","capacity":10000,"empty":4702,"full":339,"on_shipper":195,"on_consignee":0,"shortage":0,"acc_shortage":522,"booking":139,"acc_booking":58597,"fulfillment":139,"acc_fulfillment":58075,"transfer_cost":0.0,"port_name":"Bremerhaven","position":{"lat":53.549999,"lng":8.583333},"status":"surplus"},{"frame_index":473,"name":"ports_1","capacity":10000,"empty":216,"full":195,"on_shipper":8,"on_consignee":0,"shortage":0,"acc_shortage":0,"booking":8,"acc_booking":3935,"fulfillment":8,"acc_fulfillment":3935,"transfer_cost":0.0,"port_name":"Durban","position":{"lat":-29.8579,"lng":31.0292},"status":"surplus"},{"frame_index":473,"name":"ports_2","capacity":10000,"empty":931,"full":49,"on_shipper":13,"on_consignee":0,"shortage":0,"acc_shortage":233,"booking":9,"acc_booking":3910,"fulfillment":9,"acc_fulfillment":3677,"transfer_cost":0.0,"port_name":"Itagual","position":{"lat":-22.85222,"lng":-43.77528},"status":"surplus"},{"frame_index":473,"name":"ports_3","capacity":10000,"empty":1781,"full":114,"on_shipper":72,"on_consignee":129,"shortage":0,"acc_shortage":0,"booking":48,"acc_booking":22301,"fulfillment":48,"acc_fulfillment":22301,"transfer_cost":62.0,"port_name":"LeHavre","position":{"lat":49.490002,"lng":0.1},"status":"surplus"},{"frame_index":473,"name":"ports_4","capacity":10000,"empty":2552,"full":135,"on_shipper":55,"on_consignee":207,"shortage":0,"acc_shortage":0,"booking":40,"acc_booking":18639,"fulfillment":40,"acc_fulfillment":18639,"transfer_cost":0.0,"port_name":"Los Angeles","position":{"lat":34.052235,"lng":-118.243683},"status":"surplus"},{"frame_index":473,"name":"ports_5","capacity":10000,"empty":1705,"full":364,"on_shipper":48,"on_consignee":0,"shortage":0,"acc_shortage":123,"booking":40,"acc_booking":18722,"fulfillment":40,"acc_fulfillment":18599,"transfer_cost":0.0,"port_name":"Manzanillo","position":{"lat":19.11695,"lng":-104.34214},"status":"surplus"},{"frame_index":473,"name":"ports_6","capacity":10000,"empty":87,"full":421,"on_shipper":15,"on_consignee":0,"shortage":0,"acc_shortage":819,"booking":12,"acc_booking":5744,"fulfillment":12,"acc_fulfillment":4925,"transfer_cost":0.0,"port_name":"Melbourne","position":{"lat":-37.840935,"lng":144.946457},"status":"balance"},{"frame_index":473,"name":"ports_7","capacity":10000,"empty":1476,"full":362,"on_shipper":16,"on_consignee":0,"shortage":0,"acc_shortage":0,"booking":12,"acc_booking":5747,"fulfillment":12,"acc_fulfillment":5747,"transfer_cost":0.0,"port_name":"Montreal","position":{"lat":45.516136,"lng":-73.65683},"status":"surplus"},{"frame_index":473,"name":"ports_8","capacity":10000,"empty":3418,"full":283,"on_shipper":32,"on_consignee":0,"shortage":0,"acc_shortage":0,"booking":24,"acc_booking":11211,"fulfillment":24,"acc_fulfillment":11211,"transfer_cost":0.0,"port_name":"New York","position":{"lat":40.73061,"lng":-73.935242},"status":"surplus"},{"frame_index":473,"name":"ports_9","capacity":10000,"empty":2686,"full":115,"on_shipper":33,"on_consignee":0,"shortage":0,"acc_shortage":45,"booking":24,"acc_booking":11225,"fulfillment":24,"acc_fulfillment":11180,"transfer_cost":0.0,"port_name":"Oakland","position":{"lat":37.804363,"lng":-122.271111},"status":"surplus"},{"frame_index":473,"name":"ports_10","capacity":10000,"empty":295,"full":180,"on_shipper":17,"on_consignee":0,"shortage":0,"acc_shortage":0,"booking":12,"acc_booking":5742,"fulfillment":12,"acc_fulfillment":5742,"transfer_cost":0.0,"port_name":"Prince Rupert","position":{"lat":54.312519,"lng":-130.305405},"status":"surplus"},{"frame_index":473,"name":"ports_11","capacity":10000,"empty":2837,"full":234,"on_shipper":68,"on_consignee":0,"shortage":0,"acc_shortage":204,"booking":46,"acc_booking":22236,"fulfillment":46,"acc_fulfillment":22032,"transfer_cost":0.0,"port_name":"Pusan","position":{"lat":35.166668,"lng":129.066666},"status":"surplus"},{"frame_index":473,"name":"ports_12","capacity":10000,"empty":2822,"full":1282,"on_shipper":106,"on_consignee":0,"shortage":0,"acc_shortage":0,"booking":70,"acc_booking":29726,"fulfillment":70,"acc_fulfillment":29726,"transfer_cost":0.0,"port_name":"Qingdao","position":{"lat":36.066898,"lng":120.382698},"status":"surplus"},{"frame_index":473,"name":"ports_13","capacity":10000,"empty":488,"full":124,"on_shipper":9,"on_consignee":0,"shortage":0,"acc_shortage":286,"booking":8,"acc_booking":3902,"fulfillment":8,"acc_fulfillment":3616,"transfer_cost":0.0,"port_name":"San Antonio","position":{"lat":29.424349,"lng":-98.491142},"status":"surplus"},{"frame_index":473,"name":"ports_14","capacity":10000,"empty":313,"full":108,"on_shipper":9,"on_consignee":0,"shortage":0,"acc_shortage":697,"booking":7,"acc_booking":3943,"fulfillment":7,"acc_fulfillment":3246,"transfer_cost":0.0,"port_name":"Santos","position":{"lat":-23.96083,"lng":-46.33361},"status":"surplus"},{"frame_index":473,"name":"ports_15","capacity":10000,"empty":3863,"full":382,"on_shipper":78,"on_consignee":634,"shortage":0,"acc_shortage":0,"booking":56,"acc_booking":25963,"fulfillment":56,"acc_fulfillment":25963,"transfer_cost":0.0,"port_name":"Seattle","position":{"lat":47.608013,"lng":-122.335167},"status":"surplus"},{"frame_index":473,"name":"ports_16","capacity":10000,"empty":1482,"full":784,"on_shipper":105,"on_consignee":0,"shortage":0,"acc_shortage":0,"booking":70,"acc_booking":37044,"fulfillment":70,"acc_fulfillment":37044,"transfer_cost":0.0,"port_name":"Shanghai","position":{"lat":31.224361,"lng":121.46917},"status":"surplus"},{"frame_index":473,"name":"ports_17","capacity":10000,"empty":1516,"full":342,"on_shipper":40,"on_consignee":0,"shortage":0,"acc_shortage":40,"booking":33,"acc_booking":14956,"fulfillment":33,"acc_fulfillment":14916,"transfer_cost":0.0,"port_name":"Singapore","position":{"lat":1.29027,"lng":103.851959},"status":"surplus"},{"frame_index":473,"name":"ports_18","capacity":10000,"empty":755,"full":55,"on_shipper":19,"on_consignee":0,"shortage":0,"acc_shortage":774,"booking":12,"acc_booking":5709,"fulfillment":12,"acc_fulfillment":4935,"transfer_cost":0.0,"port_name":"Sydney","position":{"lat":-33.865143,"lng":151.2099},"status":"surplus"},{"frame_index":473,"name":"ports_19","capacity":10000,"empty":831,"full":258,"on_shipper":20,"on_consignee":0,"shortage":0,"acc_shortage":0,"booking":16,"acc_booking":7632,"fulfillment":16,"acc_fulfillment":7632,"transfer_cost":0.0,"port_name":"Vancouver","position":{"lat":49.246292,"lng":-123.116226},"status":"surplus"},{"frame_index":473,"name":"ports_20","capacity":10000,"empty":1651,"full":444,"on_shipper":72,"on_consignee":0,"shortage":0,"acc_shortage":350,"booking":52,"acc_booking":25694,"fulfillment":52,"acc_fulfillment":25344,"transfer_cost":0.0,"port_name":"Yantian","position":{"lat":26.8533,"lng":119.8575},"status":"surplus"},{"frame_index":473,"name":"ports_21","capacity":10000,"empty":191,"full":1449,"on_shipper":65,"on_consignee":0,"shortage":0,"acc_shortage":2740,"booking":55,"acc_booking":24435,"fulfillment":55,"acc_fulfillment":21695,"transfer_cost":0.0,"port_name":"Yokohama","position":{"lat":35.443707,"lng":139.638031},"status":"demand"}]