[{"frame_index":292,"name":"ports_0","capacity":10000,"empty":760,"full":4492,"on_shipper":340,"on_consignee":0,"shortage":0,"acc_shortage":0,"booking":212,"acc_booking":37576,"fulfillment":212,"acc_fulfillment":37576,"transfer_cost":0.0,"port_name":"Bremerhaven","position":{"lat":53.549999,"lng":8.583333},"status":"demand"},{"frame_index":292,"name":"ports_1","capacity":10000,"empty":615,"full":272,"on_shipper":19,"on_consignee":0,"shortage":0,"acc_shortage":0,"booking":13,"acc_booking":2514,"fulfillment":13,"acc_fulfillment":2514,"transfer_cost":0.0,"port_name":"Durban","position":{"lat":-29.8579,"lng":31.0292},"status":"surplus"},{"frame_index":292,"name":"ports_2","capacity":10000,"empty":737,"full":214,"on_shipper":20,"on_consignee":0,"shortage":0,"acc_shortage":233,"booking":14,"acc_booking":2497,"fulfillment":14,"acc_fulfillment":2264,"transfer_cost":0.0,"port_name":"Itagual","position":{"lat":-22.85222,"lng":-43.77528},"status":"surplus"},{"frame_index":292,"name":"ports_3","capacity":10000,"empty":2144,"full":122,"on_shipper":136,"on_consignee":425,"shortage":0,"acc_shortage":0,"booking":82,"acc_booking":14309,"fulfillment":82,"acc_fulfillment":14309,"transfer_cost":0.0,"port_name":"LeHavre","position":{"lat":49.490002,"lng":0.1},"status":"surplus"},{"frame_index":292,"name":"ports_4","capacity":10000,"empty":1527,"full":475,"on_shipper":105,"on_consignee":0,"shortage":0,"acc_shortage":0,"booking":71,"acc_booking":11954,"fulfillment":71,"acc_fulfillment":11954,"transfer_cost":0.0,"port_name":"Los Angeles","position":{"lat":34.052235,"lng":-118.243683},"status":"surplus"},{"frame_index":292,"name":"ports_5","capacity":10000,"empty":1274,"full":704,"on_shipper":94,"on_consignee":0,"shortage":0,"acc_shortage":123,"booking":76,"acc_booking":11971,"fulfillment":76,"acc_fulfillment":11848,"transfer_cost":0.0,"port_name":"Manzanillo","position":{"lat":19.11695,"lng":-104.34214},"status":"surplus"},{"frame_index":292,"name":"ports_6","capacity":10000,"empty":52,"full":210,"on_shipper":25,"on_consignee":0,"shortage":0,"acc_shortage":0,"booking":21,"acc_booking":3675,"fulfillment":21,"acc_fulfillment":3675,"transfer_cost":0.0,"port_name":"Melbourne","position":{"lat":-37.840935,"lng":144.946457},"status":"demand"},{"frame_index":292,"name":"ports_7","capacity":10000,"empty":1701,"full":580,"on_shipper":30,"on_consignee":0,"shortage":0,"acc_shortage":0,"booking":22,"acc_booking":3679,"fulfillment":22,"acc_fulfillment":3679,"transfer_cost":0.0,"port_name":"Montreal","position":{"lat":45.516136,"lng":-73.65683},"status":"surplus"},{"frame_index":292,"name":"ports_8","capacity":10000,"empty":477,"full":0,"on_shipper":54,"on_consignee":770,"shortage":0,"acc_shortage":0,"booking":40,"acc_booking":7191,"fulfillment":40,"acc_fulfillment":7191,"transfer_cost":1906.0,"port_name":"New York","position":{"lat":40.73061,"lng":-73.935242},"status":"surplus"},{"frame_index":292,"name":"ports_9","capacity":10000,"empty":1305,"full":0,"on_shipper":48,"on_consignee":134,"shortage":0,"acc_shortage":0,"booking":39,"acc_booking":7169,"fulfillment":39,"acc_fulfillment":7169,"transfer_cost":1305.0,"port_name":"Oakland","position":{"lat":37.804363,"lng":-122.271111},"status":"surplus"},{"frame_index":292,"name":"ports_10","capacity":10000,"empty":917,"full":671,"on_shipper":41,"on_consignee":0,"shortage":0,"acc_shortage":0,"booking":24,"acc_booking":3672,"fulfillment":24,"acc_fulfillment":3672,"transfer_cost":0.0,"port_name":"Prince Rupert","position":{"lat":54.312519,"lng":-130.305405},"status":"surplus"},{"frame_index":292,"name":"ports_11","capacity":10000,"empty":1725,"full":516,"on_shipper":99,"on_consignee":0,"shortage":0,"acc_shortage":0,"booking":81,"acc_booking":14264,"fulfillment":81,"acc_fulfillment":14264,"transfer_cost":0.0,"port_name":"Pusan","position":{"lat":35.166668,"lng":129.066666},"status":"surplus"},{"frame_index":292,"name":"ports_12","capacity":10000,"empty":480,"full":2406,"on_shipper":132,"on_consignee":0,"shortage":0,"acc_shortage":0,"booking":108,"acc_booking":19058,"fulfillment":108,"acc_fulfillment":19058,"transfer_cost":0.0,"port_name":"Qingdao","position":{"lat":36.066898,"lng":120.382698},"status":"demand"},{"frame_index":292,"name":"ports_13","capacity":10000,"empty":113,"full":532,"on_shipper":21,"on_consignee":0,"shortage":0,"acc_shortage":55,"booking":14,"acc_booking":2500,"fulfillment":14,"acc_fulfillment":2445,"transfer_cost":0.0,"port_name":"San Antonio","position":{"lat":29.424349,"lng":-98.491142},"status":"balance"},{"frame_index":292,"name":"ports_14","capacity":10000,"empty":841,"full":427,"on_shipper":21,"on_consignee":0,"shortage":0,"acc_shortage":697,"booking":14,"acc_booking":2535,"fulfillment":14,"acc_fulfillment":1838,"transfer_cost":0.0,"port_name":"Santos","position":{"lat":-23.96083,"lng":-46.33361},"status":"surplus"},{"frame_index":292,"name":"ports_15","capacity":10000,"empty":3377,"full":1891,"on_shipper":152,"on_consignee":0,"shortage":0,"acc_shortage":0,"booking":95,"acc_booking":16626,"fulfillment":95,"acc_fulfillment":16626,"transfer_cost":0.0,"port_name":"Seattle","position":{"lat":47.608013,"lng":-122.335167},"status":"surplus"},{"frame_index":292,"name":"ports_16","capacity":10000,"empty":1590,"full":1781,"on_shipper":190,"on_consignee":351,"shortage":0,"acc_shortage":0,"booking":130,"acc_booking":23817,"fulfillment":130,"acc_fulfillment":23817,"transfer_cost":0.0,"port_name":"Shanghai","position":{"lat":31.224361,"lng":121.46917},"status":"surplus"},{"frame_index":292,"name":"ports_17","capacity":10000,"empty":3322,"full":374,"on_shipper":67,"on_consignee":1,"shortage":0,"acc_shortage":40,"booking":58,"acc_booking":9588,"fulfillment":58,"acc_fulfillment":9548,"transfer_cost":0.0,"port_name":"Singapore","position":{"lat":1.29027,"lng":103.851959},"status":"surplus"},{"frame_index":292,"name":"ports_18","capacity":10000,"empty":36,"full":155,"on_shipper":39,"on_consignee":0,"shortage":0,"acc_shortage":192,"booking":22,"acc_booking":3656,"fulfillment":22,"acc_fulfillment":3464,"transfer_cost":0.0,"port_name":"Sydney","position":{"lat":-33.865143,"lng":151.2099},"status":"demand"},{"frame_index":292,"name":"ports_19","capacity":10000,"empty":327,"full":848,"on_shipper":29,"on_consignee":0,"shortage":0,"acc_shortage":0,"booking":29,"acc_booking":4887,"fulfillment":29,"acc_fulfillment":4887,"transfer_cost":0.0,"port_name":"Vancouver","position":{"lat":49.246292,"lng":-123.116226},"status":"surplus"},{"frame_index":292,"name":"ports_20","capacity":10000,"empty":1444,"full":779,"on_shipper":141,"on_consignee":29,"shortage":0,"acc_shortage":0,"booking":94,"acc_booking":16422,"fulfillment":94,"acc_fulfillment":16422,"transfer_cost":0.0,"port_name":"Yantian","position":{"lat":26.8533,"lng":119.8575},"status":"surplus"},{"frame_index":292,"name":"ports_21","capacity":10000,"empty":0,"full":1561,"on_shipper":17,"on_consignee":0,"shortage":101,"acc_shortage":619,"booking":101,"acc_booking":15771,"fulfillment":0,"acc_fulfillment":15152,"transfer_cost":0.0,"port_name":"Yokohama","position":{"lat":35.443707,"lng":139.638031},"status":"demand"}]