[{"frame_index":503,"name":"ports_0","capacity":10000,"empty":2650,"full":1837,"on_shipper":367,"on_consignee":250,"shortage":0,"acc_shortage":522,"booking":284,"acc_booking":63781,"fulfillment":284,"acc_fulfillment":63259,"transfer_cost":0.0,"port_name":"Bremerhaven","position":{"lat":53.549999,"lng":8.583333},"status":"surplus"},{"frame_index":503,"name":"ports_1","capacity":10000,"empty":422,"full":108,"on_shipper":22,"on_consignee":0,"shortage":0,"acc_shortage":0,"booking":15,"acc_booking":4263,"fulfillment":15,"acc_fulfillment":4263,"transfer_cost":0.0,"port_name":"Durban","position":{"lat":-29.8579,"lng":31.0292},"status":"surplus"},{"frame_index":503,"name":"ports_2","capacity":10000,"empty":942,"full":64,"on_shipper":21,"on_consignee":0,"shortage":0,"acc_shortage":233,"booking":15,"acc_booking":4233,"fulfillment":15,"acc_fulfillment":4000,"transfer_cost":0.0,"port_name":"Itagual","position":{"lat":-22.85222,"lng":-43.77528},"status":"surplus"},{"frame_index":503,"name":"ports_3","capacity":10000,"empty":1946,"full":266,"on_shipper":128,"on_consignee":389,"shortage":0,"acc_shortage":0,"booking":96,"acc_booking":24198,"fulfillment":96,"acc_fulfillment":24198,"transfer_cost":834.0,"port_name":"LeHavre","position":{"lat":49.490002,"lng":0.1},"status":"surplus"},{"frame_index":503,"name":"ports_4","capacity":10000,"empty":2017,"full":1558,"on_shipper":78,"on_consignee":0,"shortage":0,"acc_shortage":0,"booking":78,"acc_booking":20225,"fulfillment":78,"acc_fulfillment":20225,"transfer_cost":0.0,"port_name":"Los Angeles","position":{"lat":34.052235,"lng":-118.243683},"status":"surplus"},{"frame_index":503,"name":"ports_5","capacity":10000,"empty":1949,"full":202,"on_shipper":92,"on_consignee":0,"shortage":0,"acc_shortage":123,"booking":84,"acc_booking":20320,"fulfillment":84,"acc_fulfillment":20197,"transfer_cost":0.0,"port_name":"Manzanillo","position":{"lat":19.11695,"lng":-104.34214},"status":"surplus"},{"frame_index":503,"name":"ports_6","capacity":10000,"empty":279,"full":96,"on_shipper":45,"on_consignee":0,"shortage":0,"acc_shortage":837,"booking":23,"acc_booking":6232,"fulfillment":23,"acc_fulfillment":5395,"transfer_cost":0.0,"port_name":"Melbourne","position":{"lat":-37.840935,"lng":144.946457},"status":"surplus"},{"frame_index":503,"name":"ports_7","capacity":10000,"empty":1905,"full":310,"on_shipper":35,"on_consignee":0,"shortage":0,"acc_shortage":0,"booking":24,"acc_booking":6233,"fulfillment":24,"acc_fulfillment":6233,"transfer_cost":0.0,"port_name":"Montreal","position":{"lat":45.516136,"lng":-73.65683},"status":"surplus"},{"frame_index":503,"name":"ports_8","capacity":10000,"empty":1223,"full":58,"on_shipper":65,"on_consignee":0,"shortage":0,"acc_shortage":0,"booking":46,"acc_booking":12167,"fulfillment":46,"acc_fulfillment":12167,"transfer_cost":0.0,"port_name":"New York","position":{"lat":40.73061,"lng":-73.935242},"status":"surplus"},{"frame_index":503,"name":"ports_9","capacity":10000,"empty":1385,"full":392,"on_shipper":62,"on_consignee":0,"shortage":0,"acc_shortage":45,"booking":54,"acc_booking":12171,"fulfillment":54,"acc_fulfillment":12126,"transfer_cost":0.0,"port_name":"Oakland","position":{"lat":37.804363,"lng":-122.271111},"status":"surplus"},{"frame_index":503,"name":"ports_10","capacity":10000,"empty":0,"full":492,"on_shipper":0,"on_consignee":0,"shortage":21,"acc_shortage":200,"booking":21,"acc_booking":6237,"fulfillment":0,"acc_fulfillment":6037,"transfer_cost":0.0,"port_name":"Prince Rupert","position":{"lat":54.312519,"lng":-130.305405},"status":"demand"},{"frame_index":503,"name":"ports_11","capacity":10000,"empty":2423,"full":1392,"on_shipper":155,"on_consignee":0,"shortage":0,"acc_shortage":204,"booking":97,"acc_booking":24126,"fulfillment":97,"acc_fulfillment":23922,"transfer_cost":0.0,"port_name":"Pusan","position":{"lat":35.166668,"lng":129.066666},"status":"surplus"},{"frame_index":503,"name":"ports_12","capacity":10000,"empty":3030,"full":1765,"on_shipper":206,"on_consignee":390,"shortage":0,"acc_shortage":0,"booking":134,"acc_booking":32285,"fulfillment":134,"acc_fulfillment":32285,"transfer_cost":316.0,"port_name":"Qingdao","position":{"lat":36.066898,"lng":120.382698},"status":"surplus"},{"frame_index":503,"name":"ports_13","capacity":10000,"empty":414,"full":232,"on_shipper":25,"on_consignee":0,"shortage":0,"acc_shortage":286,"booking":16,"acc_booking":4232,"fulfillment":16,"acc_fulfillment":3946,"transfer_cost":0.0,"port_name":"San Antonio","position":{"lat":29.424349,"lng":-98.491142},"status":"surplus"},{"frame_index":503,"name":"ports_14","capacity":10000,"empty":0,"full":412,"on_shipper":18,"on_consignee":0,"shortage":6,"acc_shortage":703,"booking":14,"acc_booking":4262,"fulfillment":8,"acc_fulfillment":3559,"transfer_cost":0.0,"port_name":"Santos","position":{"lat":-23.96083,"lng":-46.33361},"status":"demand"},{"frame_index":503,"name":"ports_15","capacity":10000,"empty":4161,"full":103,"on_shipper":175,"on_consignee":374,"shortage":0,"acc_shortage":0,"booking":107,"acc_booking":28159,"fulfillment":107,"acc_fulfillment":28159,"transfer_cost":0.0,"port_name":"Seattle","position":{"lat":47.608013,"lng":-122.335167},"status":"surplus"},{"frame_index":503,"name":"ports_16","capacity":10000,"empty":330,"full":1736,"on_shipper":202,"on_consignee":0,"shortage":0,"acc_shortage":70,"booking":131,"acc_booking":40164,"fulfillment":131,"acc_fulfillment":40094,"transfer_cost":0.0,"port_name":"Shanghai","position":{"lat":31.224361,"lng":121.46917},"status":"demand"},{"frame_index":503,"name":"ports_17","capacity":10000,"empty":1917,"full":617,"on_shipper":85,"on_consignee":0,"shortage":0,"acc_shortage":40,"booking":64,"acc_booking":16230,"fulfillment":64,"acc_fulfillment":16190,"transfer_cost":0.0,"port_name":"Singapore","position":{"lat":1.29027,"lng":103.851959},"status":"surplus"},{"frame_index":503,"name":"ports_18","capacity":10000,"empty":259,"full":532,"on_shipper":38,"on_consignee":0,"shortage":0,"acc_shortage":774,"booking":25,"acc_booking":6205,"fulfillment":25,"acc_fulfillment":5431,"transfer_cost":0.0,"port_name":"Sydney","position":{"lat":-33.865143,"lng":151.2099},"status":"surplus"},{"frame_index":503,"name":"ports_19","capacity":10000,"empty":504,"full":456,"on_shipper":51,"on_consignee":0,"shortage":0,"acc_shortage":0,"booking":33,"acc_booking":8287,"fulfillment":33,"acc_fulfillment":8287,"transfer_cost":0.0,"port_name":"Vancouver","position":{"lat":49.246292,"lng":-123.116226},"status":"surplus"},{"frame_index":503,"name":"ports_20","capacity":10000,"empty":1085,"full":1208,"on_shipper":111,"on_consignee":4,"shortage":0,"acc_shortage":350,"booking":98,"acc_booking":27934,"fulfillment":98,"acc_fulfillment":27584,"transfer_cost":0.0,"port_name":"Yantian","position":{"lat":26.8533,"lng":119.8575},"status":"surplus"},{"frame_index":503,"name":"ports_21","capacity":10000,"empty":1225,"full":1642,"on_shipper":147,"on_consignee":0,"shortage":0,"acc_shortage":2740,"booking":112,"acc_booking":26634,"fulfillment":112,"acc_fulfillment":23894,"transfer_cost":0.0,"port_name":"Yokohama","position":{"lat":35.443707,"lng":139.638031},"status":"surplus"}]