[{"frame_index":522,"name":"ports_0","capacity":10000,"empty":5057,"full":1399,"on_shipper":209,"on_consignee":0,"shortage":0,"acc_shortage":522,"booking":179,"acc_booking":67837,"fulfillment":179,"acc_fulfillment":67315,"transfer_cost":0.0,"port_name":"Bremerhaven","position":{"lat":53.549999,"lng":8.583333},"status":"surplus"},{"frame_index":522,"name":"ports_1","capacity":10000,"empty":234,"full":184,"on_shipper":17,"on_consignee":0,"shortage":0,"acc_shortage":0,"booking":11,"acc_booking":4529,"fulfillment":11,"acc_fulfillment":4529,"transfer_cost":0.0,"port_name":"Durban","position":{"lat":-29.8579,"lng":31.0292},"status":"surplus"},{"frame_index":522,"name":"ports_2","capacity":10000,"empty":679,"full":325,"on_shipper":23,"on_consignee":0,"shortage":0,"acc_shortage":233,"booking":13,"acc_booking":4496,"fulfillment":13,"acc_fulfillment":4263,"transfer_cost":0.0,"port_name":"Itagual","position":{"lat":-22.85222,"lng":-43.77528},"status":"surplus"},{"frame_index":522,"name":"ports_3","capacity":10000,"empty":847,"full":1078,"on_shipper":111,"on_consignee":1010,"shortage":0,"acc_shortage":0,"booking":71,"acc_booking":25743,"fulfillment":71,"acc_fulfillment":25743,"transfer_cost":0.0,"port_name":"LeHavre","position":{"lat":49.490002,"lng":0.1},"status":"surplus"},{"frame_index":522,"name":"ports_4","capacity":10000,"empty":723,"full":2850,"on_shipper":80,"on_consignee":0,"shortage":0,"acc_shortage":0,"booking":59,"acc_booking":21519,"fulfillment":59,"acc_fulfillment":21519,"transfer_cost":0.0,"port_name":"Los Angeles","position":{"lat":34.052235,"lng":-118.243683},"status":"surplus"},{"frame_index":522,"name":"ports_5","capacity":10000,"empty":673,"full":1475,"on_shipper":95,"on_consignee":0,"shortage":0,"acc_shortage":123,"booking":61,"acc_booking":21596,"fulfillment":61,"acc_fulfillment":21473,"transfer_cost":0.0,"port_name":"Manzanillo","position":{"lat":19.11695,"lng":-104.34214},"status":"surplus"},{"frame_index":522,"name":"ports_6","capacity":10000,"empty":0,"full":420,"on_shipper":0,"on_consignee":0,"shortage":18,"acc_shortage":950,"booking":18,"acc_booking":6624,"fulfillment":0,"acc_fulfillment":5674,"transfer_cost":0.0,"port_name":"Melbourne","position":{"lat":-37.840935,"lng":144.946457},"status":"demand"},{"frame_index":522,"name":"ports_7","capacity":10000,"empty":1513,"full":709,"on_shipper":28,"on_consignee":0,"shortage":0,"acc_shortage":0,"booking":18,"acc_booking":6625,"fulfillment":18,"acc_fulfillment":6625,"transfer_cost":0.0,"port_name":"Montreal","position":{"lat":45.516136,"lng":-73.65683},"status":"surplus"},{"frame_index":522,"name":"ports_8","capacity":10000,"empty":435,"full":860,"on_shipper":51,"on_consignee":0,"shortage":0,"acc_shortage":0,"booking":33,"acc_booking":12955,"fulfillment":33,"acc_fulfillment":12955,"transfer_cost":0.0,"port_name":"New York","position":{"lat":40.73061,"lng":-73.935242},"status":"surplus"},{"frame_index":522,"name":"ports_9","capacity":10000,"empty":575,"full":1204,"on_shipper":60,"on_consignee":0,"shortage":0,"acc_shortage":45,"booking":31,"acc_booking":12981,"fulfillment":31,"acc_fulfillment":12936,"transfer_cost":0.0,"port_name":"Oakland","position":{"lat":37.804363,"lng":-122.271111},"status":"surplus"},{"frame_index":522,"name":"ports_10","capacity":10000,"empty":935,"full":182,"on_shipper":31,"on_consignee":0,"shortage":0,"acc_shortage":314,"booking":21,"acc_booking":6636,"fulfillment":21,"acc_fulfillment":6322,"transfer_cost":0.0,"port_name":"Prince Rupert","position":{"lat":54.312519,"lng":-130.305405},"status":"surplus"},{"frame_index":522,"name":"ports_11","capacity":10000,"empty":1141,"full":2297,"on_shipper":124,"on_consignee":0,"shortage":0,"acc_shortage":204,"booking":69,"acc_booking":25679,"fulfillment":69,"acc_fulfillment":25475,"transfer_cost":0.0,"port_name":"Pusan","position":{"lat":35.166668,"lng":129.066666},"status":"surplus"},{"frame_index":522,"name":"ports_12","capacity":10000,"empty":2249,"full":2759,"on_shipper":130,"on_consignee":0,"shortage":0,"acc_shortage":0,"booking":98,"acc_booking":34351,"fulfillment":98,"acc_fulfillment":34351,"transfer_cost":0.0,"port_name":"Qingdao","position":{"lat":36.066898,"lng":120.382698},"status":"surplus"},{"frame_index":522,"name":"ports_13","capacity":10000,"empty":497,"full":119,"on_shipper":20,"on_consignee":0,"shortage":0,"acc_shortage":286,"booking":11,"acc_booking":4489,"fulfillment":11,"acc_fulfillment":4203,"transfer_cost":0.0,"port_name":"San Antonio","position":{"lat":29.424349,"lng":-98.491142},"status":"surplus"},{"frame_index":522,"name":"ports_14","capacity":10000,"empty":397,"full":195,"on_shipper":21,"on_consignee":0,"shortage":0,"acc_shortage":762,"booking":14,"acc_booking":4537,"fulfillment":14,"acc_fulfillment":3775,"transfer_cost":0.0,"port_name":"Santos","position":{"lat":-23.96083,"lng":-46.33361},"status":"surplus"},{"frame_index":522,"name":"ports_15","capacity":10000,"empty":3203,"full":1542,"on_shipper":140,"on_consignee":0,"shortage":0,"acc_shortage":0,"booking":78,"acc_booking":29967,"fulfillment":78,"acc_fulfillment":29967,"transfer_cost":0.0,"port_name":"Seattle","position":{"lat":47.608013,"lng":-122.335167},"status":"surplus"},{"frame_index":522,"name":"ports_16","capacity":10000,"empty":788,"full":2256,"on_shipper":192,"on_consignee":62,"shortage":0,"acc_shortage":165,"booking":133,"acc_booking":42702,"fulfillment":133,"acc_fulfillment":42537,"transfer_cost":0.0,"port_name":"Shanghai","position":{"lat":31.224361,"lng":121.46917},"status":"surplus"},{"frame_index":522,"name":"ports_17","capacity":10000,"empty":762,"full":902,"on_shipper":82,"on_consignee":0,"shortage":0,"acc_shortage":40,"booking":47,"acc_booking":17269,"fulfillment":47,"acc_fulfillment":17229,"transfer_cost":0.0,"port_name":"Singapore","position":{"lat":1.29027,"lng":103.851959},"status":"surplus"},{"frame_index":522,"name":"ports_18","capacity":10000,"empty":0,"full":829,"on_shipper":0,"on_consignee":0,"shortage":18,"acc_shortage":902,"booking":18,"acc_booking":6592,"fulfillment":0,"acc_fulfillment":5690,"transfer_cost":0.0,"port_name":"Sydney","position":{"lat":-33.865143,"lng":151.2099},"status":"demand"},{"frame_index":522,"name":"ports_19","capacity":10000,"empty":199,"full":644,"on_shipper":35,"on_consignee":0,"shortage":0,"acc_shortage":0,"booking":22,"acc_booking":8809,"fulfillment":22,"acc_fulfillment":8809,"transfer_cost":0.0,"port_name":"Vancouver","position":{"lat":49.246292,"lng":-123.116226},"status":"surplus"},{"frame_index":522,"name":"ports_20","capacity":10000,"empty":783,"full":1766,"on_shipper":145,"on_consignee":54,"shortage":0,"acc_shortage":350,"booking":80,"acc_booking":29791,"fulfillment":80,"acc_fulfillment":29441,"transfer_cost":771.0,"port_name":"Yantian","position":{"lat":26.8533,"lng":119.8575},"status":"surplus"},{"frame_index":522,"name":"ports_21","capacity":10000,"empty":632,"full":238,"on_shipper":131,"on_consignee":0,"shortage":0,"acc_shortage":3190,"booking":79,"acc_booking":28486,"fulfillment":79,"acc_fulfillment":25296,"transfer_cost":0.0,"port_name":"Yokohama","position":{"lat":35.443707,"lng":139.638031},"status":"surplus"}]