[{"frame_index":343,"name":"ports_0","capacity":10000,"empty":6356,"full":948,"on_shipper":64,"on_consignee":0,"shortage":0,"acc_shortage":522,"booking":52,"acc_booking":43032,"fulfillment":52,"acc_fulfillment":42510,"transfer_cost":0.0,"port_name":"Bremerhaven","position":{"lat":53.549999,"lng":8.583333},"status":"surplus"},{"frame_index":343,"name":"ports_1","capacity":10000,"empty":481,"full":44,"on_shipper":3,"on_consignee":0,"shortage":0,"acc_shortage":0,"booking":3,"acc_booking":2866,"fulfillment":3,"acc_fulfillment":2866,"transfer_cost":0.0,"port_name":"Durban","position":{"lat":-29.8579,"lng":31.0292},"status":"surplus"},{"frame_index":343,"name":"ports_2","capacity":10000,"empty":387,"full":579,"on_shipper":5,"on_consignee":0,"shortage":0,"acc_shortage":233,"booking":3,"acc_booking":2847,"fulfillment":3,"acc_fulfillment":2614,"transfer_cost":0.0,"port_name":"Itagual","position":{"lat":-22.85222,"lng":-43.77528},"status":"surplus"},{"frame_index":343,"name":"ports_3","capacity":10000,"empty":1575,"full":355,"on_shipper":32,"on_consignee":0,"shortage":0,"acc_shortage":0,"booking":18,"acc_booking":16313,"fulfillment":18,"acc_fulfillment":16313,"transfer_cost":0.0,"port_name":"LeHavre","position":{"lat":49.490002,"lng":0.1},"status":"surplus"},{"frame_index":343,"name":"ports_4","capacity":10000,"empty":855,"full":1380,"on_shipper":21,"on_consignee":0,"shortage":0,"acc_shortage":0,"booking":15,"acc_booking":13627,"fulfillment":15,"acc_fulfillment":13627,"transfer_cost":0.0,"port_name":"Los Angeles","position":{"lat":34.052235,"lng":-118.243683},"status":"surplus"},{"frame_index":343,"name":"ports_5","capacity":10000,"empty":1506,"full":298,"on_shipper":20,"on_consignee":0,"shortage":0,"acc_shortage":123,"booking":14,"acc_booking":13658,"fulfillment":14,"acc_fulfillment":13535,"transfer_cost":0.0,"port_name":"Manzanillo","position":{"lat":19.11695,"lng":-104.34214},"status":"surplus"},{"frame_index":343,"name":"ports_6","capacity":10000,"empty":242,"full":67,"on_shipper":8,"on_consignee":0,"shortage":0,"acc_shortage":340,"booking":5,"acc_booking":4192,"fulfillment":5,"acc_fulfillment":3852,"transfer_cost":0.0,"port_name":"Melbourne","position":{"lat":-37.840935,"lng":144.946457},"status":"surplus"},{"frame_index":343,"name":"ports_7","capacity":10000,"empty":1682,"full":194,"on_shipper":7,"on_consignee":0,"shortage":0,"acc_shortage":0,"booking":5,"acc_booking":4199,"fulfillment":5,"acc_fulfillment":4199,"transfer_cost":0.0,"port_name":"Montreal","position":{"lat":45.516136,"lng":-73.65683},"status":"surplus"},{"frame_index":343,"name":"ports_8","capacity":10000,"empty":4382,"full":66,"on_shipper":14,"on_consignee":0,"shortage":0,"acc_shortage":0,"booking":9,"acc_booking":8196,"fulfillment":9,"acc_fulfillment":8196,"transfer_cost":0.0,"port_name":"New York","position":{"lat":40.73061,"lng":-73.935242},"status":"surplus"},{"frame_index":343,"name":"ports_9","capacity":10000,"empty":786,"full":951,"on_shipper":8,"on_consignee":0,"shortage":0,"acc_shortage":0,"booking":8,"acc_booking":8160,"fulfillment":8,"acc_fulfillment":8160,"transfer_cost":0.0,"port_name":"Oakland","position":{"lat":37.804363,"lng":-122.271111},"status":"surplus"},{"frame_index":343,"name":"ports_10","capacity":10000,"empty":1400,"full":44,"on_shipper":5,"on_consignee":0,"shortage":0,"acc_shortage":0,"booking":4,"acc_booking":4190,"fulfillment":4,"acc_fulfillment":4190,"transfer_cost":0.0,"port_name":"Prince Rupert","position":{"lat":54.312519,"lng":-130.305405},"status":"surplus"},{"frame_index":343,"name":"ports_11","capacity":10000,"empty":2069,"full":474,"on_shipper":25,"on_consignee":0,"shortage":0,"acc_shortage":0,"booking":18,"acc_booking":16254,"fulfillment":18,"acc_fulfillment":16254,"transfer_cost":0.0,"port_name":"Pusan","position":{"lat":35.166668,"lng":129.066666},"status":"surplus"},{"frame_index":343,"name":"ports_12","capacity":10000,"empty":2482,"full":698,"on_shipper":33,"on_consignee":0,"shortage":0,"acc_shortage":0,"booking":24,"acc_booking":21714,"fulfillment":24,"acc_fulfillment":21714,"transfer_cost":0.0,"port_name":"Qingdao","position":{"lat":36.066898,"lng":120.382698},"status":"surplus"},{"frame_index":343,"name":"ports_13","capacity":10000,"empty":711,"full":20,"on_shipper":6,"on_consignee":0,"shortage":0,"acc_shortage":123,"booking":3,"acc_booking":2846,"fulfillment":3,"acc_fulfillment":2723,"transfer_cost":0.0,"port_name":"San Antonio","position":{"lat":29.424349,"lng":-98.491142},"status":"surplus"},{"frame_index":343,"name":"ports_14","capacity":10000,"empty":864,"full":33,"on_shipper":6,"on_consignee":0,"shortage":0,"acc_shortage":697,"booking":3,"acc_booking":2900,"fulfillment":3,"acc_fulfillment":2203,"transfer_cost":0.0,"port_name":"Santos","position":{"lat":-23.96083,"lng":-46.33361},"status":"surplus"},{"frame_index":343,"name":"ports_15","capacity":10000,"empty":5428,"full":256,"on_shipper":36,"on_consignee":0,"shortage":0,"acc_shortage":0,"booking":21,"acc_booking":18957,"fulfillment":21,"acc_fulfillment":18957,"transfer_cost":0.0,"port_name":"Seattle","position":{"lat":47.608013,"lng":-122.335167},"status":"surplus"},{"frame_index":343,"name":"ports_16","capacity":10000,"empty":2738,"full":354,"on_shipper":39,"on_consignee":2,"shortage":0,"acc_shortage":0,"booking":27,"acc_booking":27069,"fulfillment":27,"acc_fulfillment":27069,"transfer_cost":0.0,"port_name":"Shanghai","position":{"lat":31.224361,"lng":121.46917},"status":"surplus"},{"frame_index":343,"name":"ports_17","capacity":10000,"empty":1522,"full":561,"on_shipper":21,"on_consignee":0,"shortage":0,"acc_shortage":40,"booking":12,"acc_booking":10931,"fulfillment":12,"acc_fulfillment":10891,"transfer_cost":0.0,"port_name":"Singapore","position":{"lat":1.29027,"lng":103.851959},"status":"surplus"},{"frame_index":343,"name":"ports_18","capacity":10000,"empty":234,"full":137,"on_shipper":9,"on_consignee":0,"shortage":0,"acc_shortage":377,"booking":5,"acc_booking":4168,"fulfillment":5,"acc_fulfillment":3791,"transfer_cost":0.0,"port_name":"Sydney","position":{"lat":-33.865143,"lng":151.2099},"status":"surplus"},{"frame_index":343,"name":"ports_19","capacity":10000,"empty":502,"full":608,"on_shipper":11,"on_consignee":0,"shortage":0,"acc_shortage":0,"booking":7,"acc_booking":5573,"fulfillment":7,"acc_fulfillment":5573,"transfer_cost":0.0,"port_name":"Vancouver","position":{"lat":49.246292,"lng":-123.116226},"status":"surplus"},{"frame_index":343,"name":"ports_20","capacity":10000,"empty":600,"full":494,"on_shipper":25,"on_consignee":0,"shortage":0,"acc_shortage":0,"booking":19,"acc_booking":18767,"fulfillment":19,"acc_fulfillment":18767,"transfer_cost":0.0,"port_name":"Yantian","position":{"lat":26.8533,"lng":119.8575},"status":"surplus"},{"frame_index":343,"name":"ports_21","capacity":10000,"empty":1098,"full":1898,"on_shipper":19,"on_consignee":0,"shortage":0,"acc_shortage":1887,"booking":13,"acc_booking":17879,"fulfillment":13,"acc_fulfillment":15992,"transfer_cost":0.0,"port_name":"Yokohama","position":{"lat":35.443707,"lng":139.638031},"status":"surplus"}]