[{"frame_index":581,"name":"ports_0","capacity":10000,"empty":8190,"full":1143,"on_shipper":107,"on_consignee":0,"shortage":0,"acc_shortage":522,"booking":71,"acc_booking":72829,"fulfillment":71,"acc_fulfillment":72307,"transfer_cost":0.0,"port_name":"Bremerhaven","position":{"lat":53.549999,"lng":8.583333},"status":"surplus"},{"frame_index":581,"name":"ports_1","capacity":10000,"empty":301,"full":293,"on_shipper":4,"on_consignee":0,"shortage":0,"acc_shortage":0,"booking":4,"acc_booking":4859,"fulfillment":4,"acc_fulfillment":4859,"transfer_cost":0.0,"port_name":"Durban","position":{"lat":-29.8579,"lng":31.0292},"status":"surplus"},{"frame_index":581,"name":"ports_2","capacity":10000,"empty":553,"full":28,"on_shipper":8,"on_consignee":0,"shortage":0,"acc_shortage":233,"booking":4,"acc_booking":4833,"fulfillment":4,"acc_fulfillment":4600,"transfer_cost":0.0,"port_name":"Itagual","position":{"lat":-22.85222,"lng":-43.77528},"status":"surplus"},{"frame_index":581,"name":"ports_3","capacity":10000,"empty":253,"full":1611,"on_shipper":38,"on_consignee":351,"shortage":0,"acc_shortage":0,"booking":24,"acc_booking":27602,"fulfillment":24,"acc_fulfillment":27602,"transfer_cost":0.0,"port_name":"LeHavre","position":{"lat":49.490002,"lng":0.1},"status":"surplus"},{"frame_index":581,"name":"ports_4","capacity":10000,"empty":1662,"full":239,"on_shipper":27,"on_consignee":0,"shortage":0,"acc_shortage":0,"booking":19,"acc_booking":23090,"fulfillment":19,"acc_fulfillment":23090,"transfer_cost":0.0,"port_name":"Los Angeles","position":{"lat":34.052235,"lng":-118.243683},"status":"surplus"},{"frame_index":581,"name":"ports_5","capacity":10000,"empty":1668,"full":736,"on_shipper":29,"on_consignee":0,"shortage":0,"acc_shortage":123,"booking":17,"acc_booking":23135,"fulfillment":17,"acc_fulfillment":23012,"transfer_cost":0.0,"port_name":"Manzanillo","position":{"lat":19.11695,"lng":-104.34214},"status":"surplus"},{"frame_index":581,"name":"ports_6","capacity":10000,"empty":531,"full":103,"on_shipper":10,"on_consignee":0,"shortage":0,"acc_shortage":1259,"booking":6,"acc_booking":7112,"fulfillment":6,"acc_fulfillment":5853,"transfer_cost":0.0,"port_name":"Melbourne","position":{"lat":-37.840935,"lng":144.946457},"status":"surplus"},{"frame_index":581,"name":"ports_7","capacity":10000,"empty":1412,"full":264,"on_shipper":6,"on_consignee":0,"shortage":0,"acc_shortage":0,"booking":6,"acc_booking":7115,"fulfillment":6,"acc_fulfillment":7115,"transfer_cost":0.0,"port_name":"Montreal","position":{"lat":45.516136,"lng":-73.65683},"status":"surplus"},{"frame_index":581,"name":"ports_8","capacity":10000,"empty":1768,"full":362,"on_shipper":18,"on_consignee":0,"shortage":0,"acc_shortage":0,"booking":12,"acc_booking":13899,"fulfillment":12,"acc_fulfillment":13899,"transfer_cost":0.0,"port_name":"New York","position":{"lat":40.73061,"lng":-73.935242},"status":"surplus"},{"frame_index":581,"name":"ports_9","capacity":10000,"empty":463,"full":287,"on_shipper":15,"on_consignee":0,"shortage":0,"acc_shortage":45,"booking":12,"acc_booking":13924,"fulfillment":12,"acc_fulfillment":13879,"transfer_cost":0.0,"port_name":"Oakland","position":{"lat":37.804363,"lng":-122.271111},"status":"surplus"},{"frame_index":581,"name":"ports_10","capacity":10000,"empty":794,"full":261,"on_shipper":10,"on_consignee":0,"shortage":0,"acc_shortage":314,"booking":6,"acc_booking":7130,"fulfillment":6,"acc_fulfillment":6816,"transfer_cost":0.0,"port_name":"Prince Rupert","position":{"lat":54.312519,"lng":-130.305405},"status":"surplus"},{"frame_index":581,"name":"ports_11","capacity":10000,"empty":1356,"full":459,"on_shipper":36,"on_consignee":0,"shortage":0,"acc_shortage":204,"booking":24,"acc_booking":27558,"fulfillment":24,"acc_fulfillment":27354,"transfer_cost":0.0,"port_name":"Pusan","position":{"lat":35.166668,"lng":129.066666},"status":"surplus"},{"frame_index":581,"name":"ports_12","capacity":10000,"empty":4974,"full":536,"on_shipper":39,"on_consignee":0,"shortage":0,"acc_shortage":0,"booking":30,"acc_booking":36840,"fulfillment":30,"acc_fulfillment":36840,"transfer_cost":0.0,"port_name":"Qingdao","position":{"lat":36.066898,"lng":120.382698},"status":"surplus"},{"frame_index":581,"name":"ports_13","capacity":10000,"empty":439,"full":44,"on_shipper":7,"on_consignee":0,"shortage":0,"acc_shortage":286,"booking":5,"acc_booking":4826,"fulfillment":5,"acc_fulfillment":4540,"transfer_cost":0.0,"port_name":"San Antonio","position":{"lat":29.424349,"lng":-98.491142},"status":"surplus"},{"frame_index":581,"name":"ports_14","capacity":10000,"empty":374,"full":121,"on_shipper":7,"on_consignee":0,"shortage":0,"acc_shortage":762,"booking":4,"acc_booking":4873,"fulfillment":4,"acc_fulfillment":4111,"transfer_cost":0.0,"port_name":"Santos","position":{"lat":-23.96083,"lng":-46.33361},"status":"surplus"},{"frame_index":581,"name":"ports_15","capacity":10000,"empty":4053,"full":32,"on_shipper":43,"on_consignee":457,"shortage":0,"acc_shortage":0,"booking":26,"acc_booking":32149,"fulfillment":26,"acc_fulfillment":32149,"transfer_cost":0.0,"port_name":"Seattle","position":{"lat":47.608013,"lng":-122.335167},"status":"surplus"},{"frame_index":581,"name":"ports_16","capacity":10000,"empty":1224,"full":796,"on_shipper":49,"on_consignee":0,"shortage":0,"acc_shortage":470,"booking":39,"acc_booking":45844,"fulfillment":39,"acc_fulfillment":45374,"transfer_cost":0.0,"port_name":"Shanghai","position":{"lat":31.224361,"lng":121.46917},"status":"surplus"},{"frame_index":581,"name":"ports_17","capacity":10000,"empty":312,"full":409,"on_shipper":24,"on_consignee":0,"shortage":0,"acc_shortage":40,"booking":15,"acc_booking":18528,"fulfillment":15,"acc_fulfillment":18488,"transfer_cost":0.0,"port_name":"Singapore","position":{"lat":1.29027,"lng":103.851959},"status":"surplus"},{"frame_index":581,"name":"ports_18","capacity":10000,"empty":582,"full":228,"on_shipper":9,"on_consignee":0,"shortage":0,"acc_shortage":957,"booking":6,"acc_booking":7083,"fulfillment":6,"acc_fulfillment":6126,"transfer_cost":0.0,"port_name":"Sydney","position":{"lat":-33.865143,"lng":151.2099},"status":"surplus"},{"frame_index":581,"name":"ports_19","capacity":10000,"empty":765,"full":410,"on_shipper":12,"on_consignee":0,"shortage":0,"acc_shortage":0,"booking":8,"acc_booking":9458,"fulfillment":8,"acc_fulfillment":9458,"transfer_cost":0.0,"port_name":"Vancouver","position":{"lat":49.246292,"lng":-123.116226},"status":"surplus"},{"frame_index":581,"name":"ports_20","capacity":10000,"empty":637,"full":1917,"on_shipper":45,"on_consignee":57,"shortage":0,"acc_shortage":395,"booking":30,"acc_booking":31954,"fulfillment":30,"acc_fulfillment":31559,"transfer_cost":0.0,"port_name":"Yantian","position":{"lat":26.8533,"lng":119.8575},"status":"surplus"},{"frame_index":581,"name":"ports_21","capacity":10000,"empty":761,"full":234,"on_shipper":26,"on_consignee":0,"shortage":0,"acc_shortage":3258,"booking":20,"acc_booking":30336,"fulfillment":20,"acc_fulfillment":27078,"transfer_cost":0.0,"port_name":"Yokohama","position":{"lat":35.443707,"lng":139.638031},"status":"surplus"}]