[{"frame_index":805,"name":"ports_0","capacity":10000,"empty":2913,"full":3571,"on_shipper":134,"on_consignee":0,"shortage":0,"acc_shortage":522,"booking":85,"acc_booking":101869,"fulfillment":85,"acc_fulfillment":101347,"transfer_cost":0.0,"port_name":"Bremerhaven","position":{"lat":53.549999,"lng":8.583333},"status":"surplus"},{"frame_index":805,"name":"ports_1","capacity":10000,"empty":344,"full":74,"on_shipper":9,"on_consignee":0,"shortage":0,"acc_shortage":10,"booking":6,"acc_booking":6774,"fulfillment":6,"acc_fulfillment":6764,"transfer_cost":0.0,"port_name":"Durban","position":{"lat":-29.8579,"lng":31.0292},"status":"surplus"},{"frame_index":805,"name":"ports_2","capacity":10000,"empty":433,"full":148,"on_shipper":7,"on_consignee":0,"shortage":0,"acc_shortage":298,"booking":6,"acc_booking":6750,"fulfillment":6,"acc_fulfillment":6452,"transfer_cost":0.0,"port_name":"Itagual","position":{"lat":-22.85222,"lng":-43.77528},"status":"surplus"},{"frame_index":805,"name":"ports_3","capacity":10000,"empty":3648,"full":205,"on_shipper":52,"on_consignee":189,"shortage":0,"acc_shortage":0,"booking":34,"acc_booking":38559,"fulfillment":34,"acc_fulfillment":38559,"transfer_cost":1.0,"port_name":"LeHavre","position":{"lat":49.490002,"lng":0.1},"status":"surplus"},{"frame_index":805,"name":"ports_4","capacity":10000,"empty":1144,"full":642,"on_shipper":49,"on_consignee":0,"shortage":0,"acc_shortage":290,"booking":30,"acc_booking":32277,"fulfillment":30,"acc_fulfillment":31987,"transfer_cost":0.0,"port_name":"Los Angeles","position":{"lat":34.052235,"lng":-118.243683},"status":"surplus"},{"frame_index":805,"name":"ports_5","capacity":10000,"empty":2635,"full":109,"on_shipper":39,"on_consignee":0,"shortage":0,"acc_shortage":123,"booking":25,"acc_booking":32387,"fulfillment":25,"acc_fulfillment":32264,"transfer_cost":0.0,"port_name":"Manzanillo","position":{"lat":19.11695,"lng":-104.34214},"status":"surplus"},{"frame_index":805,"name":"ports_6","capacity":10000,"empty":171,"full":270,"on_shipper":10,"on_consignee":0,"shortage":0,"acc_shortage":1572,"booking":9,"acc_booking":9940,"fulfillment":9,"acc_fulfillment":8368,"transfer_cost":0.0,"port_name":"Melbourne","position":{"lat":-37.840935,"lng":144.946457},"status":"surplus"},{"frame_index":805,"name":"ports_7","capacity":10000,"empty":890,"full":159,"on_shipper":9,"on_consignee":0,"shortage":0,"acc_shortage":0,"booking":9,"acc_booking":9951,"fulfillment":9,"acc_fulfillment":9951,"transfer_cost":0.0,"port_name":"Montreal","position":{"lat":45.516136,"lng":-73.65683},"status":"surplus"},{"frame_index":805,"name":"ports_8","capacity":10000,"empty":2318,"full":181,"on_shipper":31,"on_consignee":0,"shortage":0,"acc_shortage":136,"booking":17,"acc_booking":19433,"fulfillment":17,"acc_fulfillment":19297,"transfer_cost":0.0,"port_name":"New York","position":{"lat":40.73061,"lng":-73.935242},"status":"surplus"},{"frame_index":805,"name":"ports_9","capacity":10000,"empty":1552,"full":106,"on_shipper":16,"on_consignee":0,"shortage":0,"acc_shortage":45,"booking":16,"acc_booking":19469,"fulfillment":16,"acc_fulfillment":19424,"transfer_cost":0.0,"port_name":"Oakland","position":{"lat":37.804363,"lng":-122.271111},"status":"surplus"},{"frame_index":805,"name":"ports_10","capacity":10000,"empty":1414,"full":77,"on_shipper":9,"on_consignee":0,"shortage":0,"acc_shortage":314,"booking":9,"acc_booking":9961,"fulfillment":9,"acc_fulfillment":9647,"transfer_cost":0.0,"port_name":"Prince Rupert","position":{"lat":54.312519,"lng":-130.305405},"status":"surplus"},{"frame_index":805,"name":"ports_11","capacity":10000,"empty":3409,"full":246,"on_shipper":52,"on_consignee":309,"shortage":0,"acc_shortage":204,"booking":36,"acc_booking":38517,"fulfillment":36,"acc_fulfillment":38313,"transfer_cost":0.0,"port_name":"Pusan","position":{"lat":35.166668,"lng":129.066666},"status":"surplus"},{"frame_index":805,"name":"ports_12","capacity":10000,"empty":2948,"full":984,"on_shipper":71,"on_consignee":0,"shortage":0,"acc_shortage":0,"booking":49,"acc_booking":51470,"fulfillment":49,"acc_fulfillment":51470,"transfer_cost":0.0,"port_name":"Qingdao","position":{"lat":36.066898,"lng":120.382698},"status":"surplus"},{"frame_index":805,"name":"ports_13","capacity":10000,"empty":692,"full":72,"on_shipper":10,"on_consignee":0,"shortage":0,"acc_shortage":449,"booking":6,"acc_booking":6757,"fulfillment":6,"acc_fulfillment":6308,"transfer_cost":0.0,"port_name":"San Antonio","position":{"lat":29.424349,"lng":-98.491142},"status":"surplus"},{"frame_index":805,"name":"ports_14","capacity":10000,"empty":177,"full":108,"on_shipper":10,"on_consignee":0,"shortage":0,"acc_shortage":762,"booking":6,"acc_booking":6799,"fulfillment":6,"acc_fulfillment":6037,"transfer_cost":0.0,"port_name":"Santos","position":{"lat":-23.96083,"lng":-46.33361},"status":"surplus"},{"frame_index":805,"name":"ports_15","capacity":10000,"empty":2403,"full":207,"on_shipper":60,"on_consignee":0,"shortage":0,"acc_shortage":0,"booking":40,"acc_booking":44976,"fulfillment":40,"acc_fulfillment":44976,"transfer_cost":0.0,"port_name":"Seattle","position":{"lat":47.608013,"lng":-122.335167},"status":"surplus"},{"frame_index":805,"name":"ports_16","capacity":10000,"empty":3190,"full":423,"on_shipper":77,"on_consignee":164,"shortage":0,"acc_shortage":760,"booking":50,"acc_booking":64007,"fulfillment":50,"acc_fulfillment":63247,"transfer_cost":0.0,"port_name":"Shanghai","position":{"lat":31.224361,"lng":121.46917},"status":"surplus"},{"frame_index":805,"name":"ports_17","capacity":10000,"empty":1530,"full":193,"on_shipper":28,"on_consignee":0,"shortage":0,"acc_shortage":283,"booking":23,"acc_booking":25908,"fulfillment":23,"acc_fulfillment":25625,"transfer_cost":0.0,"port_name":"Singapore","position":{"lat":1.29027,"lng":103.851959},"status":"surplus"},{"frame_index":805,"name":"ports_18","capacity":10000,"empty":266,"full":242,"on_shipper":9,"on_consignee":0,"shortage":0,"acc_shortage":1374,"booking":9,"acc_booking":9955,"fulfillment":9,"acc_fulfillment":8581,"transfer_cost":0.0,"port_name":"Sydney","position":{"lat":-33.865143,"lng":151.2099},"status":"surplus"},{"frame_index":805,"name":"ports_19","capacity":10000,"empty":956,"full":392,"on_shipper":22,"on_consignee":0,"shortage":0,"acc_shortage":0,"booking":12,"acc_booking":13190,"fulfillment":12,"acc_fulfillment":13190,"transfer_cost":0.0,"port_name":"Vancouver","position":{"lat":49.246292,"lng":-123.116226},"status":"surplus"},{"frame_index":805,"name":"ports_20","capacity":10000,"empty":2103,"full":285,"on_shipper":61,"on_consignee":157,"shortage":0,"acc_shortage":942,"booking":45,"acc_booking":44688,"fulfillment":45,"acc_fulfillment":43746,"transfer_cost":0.0,"port_name":"Yantian","position":{"lat":26.8533,"lng":119.8575},"status":"surplus"},{"frame_index":805,"name":"ports_21","capacity":10000,"empty":1506,"full":447,"on_shipper":47,"on_consignee":0,"shortage":0,"acc_shortage":6236,"booking":38,"acc_booking":42495,"fulfillment":38,"acc_fulfillment":36259,"transfer_cost":0.0,"port_name":"Yokohama","position":{"lat":35.443707,"lng":139.638031},"status":"surplus"}]