[{"frame_index":712,"name":"ports_0","capacity":10000,"empty":4235,"full":2344,"on_shipper":309,"on_consignee":0,"shortage":0,"acc_shortage":522,"booking":207,"acc_booking":89922,"fulfillment":207,"acc_fulfillment":89400,"transfer_cost":0.0,"port_name":"Bremerhaven","position":{"lat":53.549999,"lng":8.583333},"status":"surplus"},{"frame_index":712,"name":"ports_1","capacity":10000,"empty":395,"full":23,"on_shipper":23,"on_consignee":0,"shortage":0,"acc_shortage":0,"booking":16,"acc_booking":5979,"fulfillment":16,"acc_fulfillment":5979,"transfer_cost":0.0,"port_name":"Durban","position":{"lat":-29.8579,"lng":31.0292},"status":"surplus"},{"frame_index":712,"name":"ports_2","capacity":10000,"empty":169,"full":346,"on_shipper":20,"on_consignee":0,"shortage":0,"acc_shortage":298,"booking":14,"acc_booking":5959,"fulfillment":14,"acc_fulfillment":5661,"transfer_cost":0.0,"port_name":"Itagual","position":{"lat":-22.85222,"lng":-43.77528},"status":"surplus"},{"frame_index":712,"name":"ports_3","capacity":10000,"empty":3080,"full":673,"on_shipper":120,"on_consignee":0,"shortage":0,"acc_shortage":0,"booking":88,"acc_booking":34028,"fulfillment":88,"acc_fulfillment":34028,"transfer_cost":0.0,"port_name":"LeHavre","position":{"lat":49.490002,"lng":0.1},"status":"surplus"},{"frame_index":712,"name":"ports_4","capacity":10000,"empty":869,"full":726,"on_shipper":83,"on_consignee":0,"shortage":0,"acc_shortage":150,"booking":73,"acc_booking":28480,"fulfillment":73,"acc_fulfillment":28330,"transfer_cost":0.0,"port_name":"Los Angeles","position":{"lat":34.052235,"lng":-118.243683},"status":"surplus"},{"frame_index":712,"name":"ports_5","capacity":10000,"empty":2340,"full":719,"on_shipper":113,"on_consignee":0,"shortage":0,"acc_shortage":123,"booking":84,"acc_booking":28557,"fulfillment":84,"acc_fulfillment":28434,"transfer_cost":0.0,"port_name":"Manzanillo","position":{"lat":19.11695,"lng":-104.34214},"status":"surplus"},{"frame_index":712,"name":"ports_6","capacity":10000,"empty":419,"full":195,"on_shipper":35,"on_consignee":0,"shortage":0,"acc_shortage":1336,"booking":23,"acc_booking":8770,"fulfillment":23,"acc_fulfillment":7434,"transfer_cost":0.0,"port_name":"Melbourne","position":{"lat":-37.840935,"lng":144.946457},"status":"surplus"},{"frame_index":712,"name":"ports_7","capacity":10000,"empty":1136,"full":40,"on_shipper":31,"on_consignee":0,"shortage":0,"acc_shortage":0,"booking":22,"acc_booking":8775,"fulfillment":22,"acc_fulfillment":8775,"transfer_cost":0.0,"port_name":"Montreal","position":{"lat":45.516136,"lng":-73.65683},"status":"surplus"},{"frame_index":712,"name":"ports_8","capacity":10000,"empty":4153,"full":766,"on_shipper":77,"on_consignee":0,"shortage":0,"acc_shortage":0,"booking":43,"acc_booking":17140,"fulfillment":43,"acc_fulfillment":17140,"transfer_cost":0.0,"port_name":"New York","position":{"lat":40.73061,"lng":-73.935242},"status":"surplus"},{"frame_index":712,"name":"ports_9","capacity":10000,"empty":1306,"full":427,"on_shipper":60,"on_consignee":0,"shortage":0,"acc_shortage":45,"booking":45,"acc_booking":17202,"fulfillment":45,"acc_fulfillment":17157,"transfer_cost":0.0,"port_name":"Oakland","position":{"lat":37.804363,"lng":-122.271111},"status":"surplus"},{"frame_index":712,"name":"ports_10","capacity":10000,"empty":1621,"full":188,"on_shipper":36,"on_consignee":0,"shortage":0,"acc_shortage":314,"booking":27,"acc_booking":8790,"fulfillment":27,"acc_fulfillment":8476,"transfer_cost":0.0,"port_name":"Prince Rupert","position":{"lat":54.312519,"lng":-130.305405},"status":"surplus"},{"frame_index":712,"name":"ports_11","capacity":10000,"empty":2844,"full":1932,"on_shipper":120,"on_consignee":0,"shortage":0,"acc_shortage":204,"booking":85,"acc_booking":33992,"fulfillment":85,"acc_fulfillment":33788,"transfer_cost":0.0,"port_name":"Pusan","position":{"lat":35.166668,"lng":129.066666},"status":"surplus"},{"frame_index":712,"name":"ports_12","capacity":10000,"empty":2329,"full":2114,"on_shipper":153,"on_consignee":0,"shortage":0,"acc_shortage":0,"booking":121,"acc_booking":45369,"fulfillment":121,"acc_fulfillment":45369,"transfer_cost":0.0,"port_name":"Qingdao","position":{"lat":36.066898,"lng":120.382698},"status":"surplus"},{"frame_index":712,"name":"ports_13","capacity":10000,"empty":560,"full":38,"on_shipper":19,"on_consignee":0,"shortage":0,"acc_shortage":325,"booking":17,"acc_booking":5964,"fulfillment":17,"acc_fulfillment":5639,"transfer_cost":0.0,"port_name":"San Antonio","position":{"lat":29.424349,"lng":-98.491142},"status":"surplus"},{"frame_index":712,"name":"ports_14","capacity":10000,"empty":803,"full":79,"on_shipper":26,"on_consignee":0,"shortage":0,"acc_shortage":762,"booking":18,"acc_booking":6002,"fulfillment":18,"acc_fulfillment":5240,"transfer_cost":0.0,"port_name":"Santos","position":{"lat":-23.96083,"lng":-46.33361},"status":"surplus"},{"frame_index":712,"name":"ports_15","capacity":10000,"empty":2841,"full":1299,"on_shipper":143,"on_consignee":0,"shortage":0,"acc_shortage":0,"booking":104,"acc_booking":39643,"fulfillment":104,"acc_fulfillment":39643,"transfer_cost":0.0,"port_name":"Seattle","position":{"lat":47.608013,"lng":-122.335167},"status":"surplus"},{"frame_index":712,"name":"ports_16","capacity":10000,"empty":1705,"full":1945,"on_shipper":238,"on_consignee":325,"shortage":0,"acc_shortage":712,"booking":153,"acc_booking":56489,"fulfillment":153,"acc_fulfillment":55777,"transfer_cost":6.0,"port_name":"Shanghai","position":{"lat":31.224361,"lng":121.46917},"status":"surplus"},{"frame_index":712,"name":"ports_17","capacity":10000,"empty":3284,"full":201,"on_shipper":86,"on_consignee":0,"shortage":0,"acc_shortage":283,"booking":58,"acc_booking":22862,"fulfillment":58,"acc_fulfillment":22579,"transfer_cost":0.0,"port_name":"Singapore","position":{"lat":1.29027,"lng":103.851959},"status":"surplus"},{"frame_index":712,"name":"ports_18","capacity":10000,"empty":283,"full":168,"on_shipper":31,"on_consignee":0,"shortage":0,"acc_shortage":1082,"booking":25,"acc_booking":8751,"fulfillment":25,"acc_fulfillment":7669,"transfer_cost":0.0,"port_name":"Sydney","position":{"lat":-33.865143,"lng":151.2099},"status":"surplus"},{"frame_index":712,"name":"ports_19","capacity":10000,"empty":1160,"full":292,"on_shipper":46,"on_consignee":0,"shortage":0,"acc_shortage":0,"booking":31,"acc_booking":11645,"fulfillment":31,"acc_fulfillment":11645,"transfer_cost":0.0,"port_name":"Vancouver","position":{"lat":49.246292,"lng":-123.116226},"status":"surplus"},{"frame_index":712,"name":"ports_20","capacity":10000,"empty":335,"full":1331,"on_shipper":152,"on_consignee":0,"shortage":0,"acc_shortage":395,"booking":107,"acc_booking":39400,"fulfillment":107,"acc_fulfillment":39005,"transfer_cost":0.0,"port_name":"Yantian","position":{"lat":26.8533,"lng":119.8575},"status":"demand"},{"frame_index":712,"name":"ports_21","capacity":10000,"empty":1061,"full":319,"on_shipper":136,"on_consignee":0,"shortage":0,"acc_shortage":4175,"booking":107,"acc_booking":37464,"fulfillment":107,"acc_fulfillment":33289,"transfer_cost":0.0,"port_name":"Yokohama","position":{"lat":35.443707,"lng":139.638031},"status":"surplus"}]