[{"frame_index":545,"name":"ports_0","capacity":10000,"empty":3366,"full":2541,"on_shipper":114,"on_consignee":0,"shortage":0,"acc_shortage":522,"booking":75,"acc_booking":70420,"fulfillment":75,"acc_fulfillment":69898,"transfer_cost":0.0,"port_name":"Bremerhaven","position":{"lat":53.549999,"lng":8.583333},"status":"surplus"},{"frame_index":545,"name":"ports_1","capacity":10000,"empty":463,"full":126,"on_shipper":9,"on_consignee":0,"shortage":0,"acc_shortage":0,"booking":5,"acc_booking":4697,"fulfillment":5,"acc_fulfillment":4697,"transfer_cost":0.0,"port_name":"Durban","position":{"lat":-29.8579,"lng":31.0292},"status":"surplus"},{"frame_index":545,"name":"ports_2","capacity":10000,"empty":879,"full":11,"on_shipper":9,"on_consignee":0,"shortage":0,"acc_shortage":233,"booking":5,"acc_booking":4667,"fulfillment":5,"acc_fulfillment":4434,"transfer_cost":0.0,"port_name":"Itagual","position":{"lat":-22.85222,"lng":-43.77528},"status":"surplus"},{"frame_index":545,"name":"ports_3","capacity":10000,"empty":1011,"full":1117,"on_shipper":51,"on_consignee":134,"shortage":0,"acc_shortage":0,"booking":26,"acc_booking":26710,"fulfillment":26,"acc_fulfillment":26710,"transfer_cost":0.0,"port_name":"LeHavre","position":{"lat":49.490002,"lng":0.1},"status":"surplus"},{"frame_index":545,"name":"ports_4","capacity":10000,"empty":516,"full":150,"on_shipper":29,"on_consignee":20,"shortage":0,"acc_shortage":0,"booking":21,"acc_booking":22334,"fulfillment":21,"acc_fulfillment":22334,"transfer_cost":0.0,"port_name":"Los Angeles","position":{"lat":34.052235,"lng":-118.243683},"status":"surplus"},{"frame_index":545,"name":"ports_5","capacity":10000,"empty":344,"full":353,"on_shipper":28,"on_consignee":0,"shortage":0,"acc_shortage":123,"booking":20,"acc_booking":22382,"fulfillment":20,"acc_fulfillment":22259,"transfer_cost":0.0,"port_name":"Manzanillo","position":{"lat":19.11695,"lng":-104.34214},"status":"surplus"},{"frame_index":545,"name":"ports_6","capacity":10000,"empty":0,"full":420,"on_shipper":0,"on_consignee":0,"shortage":7,"acc_shortage":1200,"booking":7,"acc_booking":6874,"fulfillment":0,"acc_fulfillment":5674,"transfer_cost":0.0,"port_name":"Melbourne","position":{"lat":-37.840935,"lng":144.946457},"status":"balance"},{"frame_index":545,"name":"ports_7","capacity":10000,"empty":1650,"full":22,"on_shipper":10,"on_consignee":0,"shortage":0,"acc_shortage":0,"booking":7,"acc_booking":6877,"fulfillment":7,"acc_fulfillment":6877,"transfer_cost":0.0,"port_name":"Montreal","position":{"lat":45.516136,"lng":-73.65683},"status":"surplus"},{"frame_index":545,"name":"ports_8","capacity":10000,"empty":2998,"full":92,"on_shipper":22,"on_consignee":0,"shortage":0,"acc_shortage":0,"booking":13,"acc_booking":13447,"fulfillment":13,"acc_fulfillment":13447,"transfer_cost":0.0,"port_name":"New York","position":{"lat":40.73061,"lng":-73.935242},"status":"surplus"},{"frame_index":545,"name":"ports_9","capacity":10000,"empty":16,"full":0,"on_shipper":25,"on_consignee":2457,"shortage":0,"acc_shortage":45,"booking":13,"acc_booking":13474,"fulfillment":13,"acc_fulfillment":13429,"transfer_cost":66.0,"port_name":"Oakland","position":{"lat":37.804363,"lng":-122.271111},"status":"balance"},{"frame_index":545,"name":"ports_10","capacity":10000,"empty":1033,"full":19,"on_shipper":13,"on_consignee":0,"shortage":0,"acc_shortage":314,"booking":7,"acc_booking":6891,"fulfillment":7,"acc_fulfillment":6577,"transfer_cost":0.0,"port_name":"Prince Rupert","position":{"lat":54.312519,"lng":-130.305405},"status":"surplus"},{"frame_index":545,"name":"ports_11","capacity":10000,"empty":865,"full":1937,"on_shipper":34,"on_consignee":0,"shortage":0,"acc_shortage":204,"booking":25,"acc_booking":26653,"fulfillment":25,"acc_fulfillment":26449,"transfer_cost":0.0,"port_name":"Pusan","position":{"lat":35.166668,"lng":129.066666},"status":"surplus"},{"frame_index":545,"name":"ports_12","capacity":10000,"empty":3028,"full":1212,"on_shipper":55,"on_consignee":0,"shortage":0,"acc_shortage":0,"booking":32,"acc_booking":35655,"fulfillment":32,"acc_fulfillment":35655,"transfer_cost":0.0,"port_name":"Qingdao","position":{"lat":36.066898,"lng":120.382698},"status":"surplus"},{"frame_index":545,"name":"ports_13","capacity":10000,"empty":209,"full":175,"on_shipper":7,"on_consignee":0,"shortage":0,"acc_shortage":286,"booking":5,"acc_booking":4663,"fulfillment":5,"acc_fulfillment":4377,"transfer_cost":0.0,"port_name":"San Antonio","position":{"lat":29.424349,"lng":-98.491142},"status":"surplus"},{"frame_index":545,"name":"ports_14","capacity":10000,"empty":223,"full":381,"on_shipper":9,"on_consignee":0,"shortage":0,"acc_shortage":762,"booking":5,"acc_booking":4711,"fulfillment":5,"acc_fulfillment":3949,"transfer_cost":0.0,"port_name":"Santos","position":{"lat":-23.96083,"lng":-46.33361},"status":"surplus"},{"frame_index":545,"name":"ports_15","capacity":10000,"empty":2319,"full":2169,"on_shipper":51,"on_consignee":0,"shortage":0,"acc_shortage":0,"booking":30,"acc_booking":31109,"fulfillment":30,"acc_fulfillment":31109,"transfer_cost":0.0,"port_name":"Seattle","position":{"lat":47.608013,"lng":-122.335167},"status":"surplus"},{"frame_index":545,"name":"ports_16","capacity":10000,"empty":405,"full":2273,"on_shipper":70,"on_consignee":0,"shortage":0,"acc_shortage":470,"booking":36,"acc_booking":44361,"fulfillment":36,"acc_fulfillment":43891,"transfer_cost":0.0,"port_name":"Shanghai","position":{"lat":31.224361,"lng":121.46917},"status":"surplus"},{"frame_index":545,"name":"ports_17","capacity":10000,"empty":1067,"full":622,"on_shipper":24,"on_consignee":0,"shortage":0,"acc_shortage":40,"booking":18,"acc_booking":17924,"fulfillment":18,"acc_fulfillment":17884,"transfer_cost":0.0,"port_name":"Singapore","position":{"lat":1.29027,"lng":103.851959},"status":"surplus"},{"frame_index":545,"name":"ports_18","capacity":10000,"empty":511,"full":80,"on_shipper":9,"on_consignee":0,"shortage":0,"acc_shortage":957,"booking":6,"acc_booking":6848,"fulfillment":6,"acc_fulfillment":5891,"transfer_cost":0.0,"port_name":"Sydney","position":{"lat":-33.865143,"lng":151.2099},"status":"surplus"},{"frame_index":545,"name":"ports_19","capacity":10000,"empty":767,"full":204,"on_shipper":14,"on_consignee":0,"shortage":0,"acc_shortage":0,"booking":9,"acc_booking":9141,"fulfillment":9,"acc_fulfillment":9141,"transfer_cost":0.0,"port_name":"Vancouver","position":{"lat":49.246292,"lng":-123.116226},"status":"surplus"},{"frame_index":545,"name":"ports_20","capacity":10000,"empty":7,"full":1858,"on_shipper":50,"on_consignee":21,"shortage":0,"acc_shortage":350,"booking":33,"acc_booking":30918,"fulfillment":33,"acc_fulfillment":30568,"transfer_cost":0.0,"port_name":"Yantian","position":{"lat":26.8533,"lng":119.8575},"status":"demand"},{"frame_index":545,"name":"ports_21","capacity":10000,"empty":9,"full":68,"on_shipper":24,"on_consignee":335,"shortage":0,"acc_shortage":3258,"booking":24,"acc_booking":29529,"fulfillment":24,"acc_fulfillment":26271,"transfer_cost":0.0,"port_name":"Yokohama","position":{"lat":35.443707,"lng":139.638031},"status":"demand"}]