[{"frame_index":824,"name":"ports_0","capacity":10000,"empty":3848,"full":4687,"on_shipper":340,"on_consignee":0,"shortage":0,"acc_shortage":522,"booking":203,"acc_booking":104381,"fulfillment":203,"acc_fulfillment":103859,"transfer_cost":0.0,"port_name":"Bremerhaven","position":{"lat":53.549999,"lng":8.583333},"status":"surplus"},{"frame_index":824,"name":"ports_1","capacity":10000,"empty":369,"full":26,"on_shipper":18,"on_consignee":0,"shortage":0,"acc_shortage":10,"booking":14,"acc_booking":6948,"fulfillment":14,"acc_fulfillment":6938,"transfer_cost":0.0,"port_name":"Durban","position":{"lat":-29.8579,"lng":31.0292},"status":"surplus"},{"frame_index":824,"name":"ports_2","capacity":10000,"empty":262,"full":304,"on_shipper":22,"on_consignee":0,"shortage":0,"acc_shortage":298,"booking":14,"acc_booking":6921,"fulfillment":14,"acc_fulfillment":6623,"transfer_cost":0.0,"port_name":"Itagual","position":{"lat":-22.85222,"lng":-43.77528},"status":"surplus"},{"frame_index":824,"name":"ports_3","capacity":10000,"empty":4944,"full":215,"on_shipper":115,"on_consignee":0,"shortage":0,"acc_shortage":0,"booking":83,"acc_booking":39540,"fulfillment":83,"acc_fulfillment":39540,"transfer_cost":0.0,"port_name":"LeHavre","position":{"lat":49.490002,"lng":0.1},"status":"surplus"},{"frame_index":824,"name":"ports_4","capacity":10000,"empty":324,"full":541,"on_shipper":101,"on_consignee":1240,"shortage":0,"acc_shortage":290,"booking":68,"acc_booking":33101,"fulfillment":68,"acc_fulfillment":32811,"transfer_cost":4.0,"port_name":"Los Angeles","position":{"lat":34.052235,"lng":-118.243683},"status":"balance"},{"frame_index":824,"name":"ports_5","capacity":10000,"empty":2589,"full":529,"on_shipper":131,"on_consignee":0,"shortage":0,"acc_shortage":123,"booking":76,"acc_booking":33247,"fulfillment":76,"acc_fulfillment":33124,"transfer_cost":0.0,"port_name":"Manzanillo","position":{"lat":19.11695,"lng":-104.34214},"status":"surplus"},{"frame_index":824,"name":"ports_6","capacity":10000,"empty":0,"full":180,"on_shipper":0,"on_consignee":290,"shortage":21,"acc_shortage":1654,"booking":21,"acc_booking":10193,"fulfillment":0,"acc_fulfillment":8539,"transfer_cost":0.0,"port_name":"Melbourne","position":{"lat":-37.840935,"lng":144.946457},"status":"demand"},{"frame_index":824,"name":"ports_7","capacity":10000,"empty":634,"full":393,"on_shipper":31,"on_consignee":0,"shortage":0,"acc_shortage":0,"booking":21,"acc_booking":10207,"fulfillment":21,"acc_fulfillment":10207,"transfer_cost":0.0,"port_name":"Montreal","position":{"lat":45.516136,"lng":-73.65683},"status":"surplus"},{"frame_index":824,"name":"ports_8","capacity":10000,"empty":3484,"full":19,"on_shipper":76,"on_consignee":219,"shortage":0,"acc_shortage":136,"booking":43,"acc_booking":19928,"fulfillment":43,"acc_fulfillment":19792,"transfer_cost":0.0,"port_name":"New York","position":{"lat":40.73061,"lng":-73.935242},"status":"surplus"},{"frame_index":824,"name":"ports_9","capacity":10000,"empty":1053,"full":577,"on_shipper":44,"on_consignee":0,"shortage":0,"acc_shortage":45,"booking":44,"acc_booking":19968,"fulfillment":44,"acc_fulfillment":19923,"transfer_cost":0.0,"port_name":"Oakland","position":{"lat":37.804363,"lng":-122.271111},"status":"surplus"},{"frame_index":824,"name":"ports_10","capacity":10000,"empty":1150,"full":322,"on_shipper":28,"on_consignee":0,"shortage":0,"acc_shortage":314,"booking":20,"acc_booking":10225,"fulfillment":20,"acc_fulfillment":9911,"transfer_cost":0.0,"port_name":"Prince Rupert","position":{"lat":54.312519,"lng":-130.305405},"status":"surplus"},{"frame_index":824,"name":"ports_11","capacity":10000,"empty":2729,"full":1169,"on_shipper":118,"on_consignee":0,"shortage":0,"acc_shortage":204,"booking":84,"acc_booking":39506,"fulfillment":84,"acc_fulfillment":39302,"transfer_cost":0.0,"port_name":"Pusan","position":{"lat":35.166668,"lng":129.066666},"status":"surplus"},{"frame_index":824,"name":"ports_12","capacity":10000,"empty":4497,"full":1308,"on_shipper":146,"on_consignee":0,"shortage":0,"acc_shortage":0,"booking":110,"acc_booking":52753,"fulfillment":110,"acc_fulfillment":52753,"transfer_cost":0.0,"port_name":"Qingdao","position":{"lat":36.066898,"lng":120.382698},"status":"surplus"},{"frame_index":824,"name":"ports_13","capacity":10000,"empty":695,"full":23,"on_shipper":22,"on_consignee":0,"shortage":0,"acc_shortage":449,"booking":15,"acc_booking":6926,"fulfillment":15,"acc_fulfillment":6477,"transfer_cost":0.0,"port_name":"San Antonio","position":{"lat":29.424349,"lng":-98.491142},"status":"surplus"},{"frame_index":824,"name":"ports_14","capacity":10000,"empty":13,"full":266,"on_shipper":16,"on_consignee":0,"shortage":0,"acc_shortage":762,"booking":13,"acc_booking":6963,"fulfillment":13,"acc_fulfillment":6201,"transfer_cost":0.0,"port_name":"Santos","position":{"lat":-23.96083,"lng":-46.33361},"status":"demand"},{"frame_index":824,"name":"ports_15","capacity":10000,"empty":1958,"full":1072,"on_shipper":140,"on_consignee":0,"shortage":0,"acc_shortage":0,"booking":92,"acc_booking":46122,"fulfillment":92,"acc_fulfillment":46122,"transfer_cost":0.0,"port_name":"Seattle","position":{"lat":47.608013,"lng":-122.335167},"status":"surplus"},{"frame_index":824,"name":"ports_16","capacity":10000,"empty":2471,"full":1126,"on_shipper":206,"on_consignee":666,"shortage":0,"acc_shortage":760,"booking":124,"acc_booking":65606,"fulfillment":124,"acc_fulfillment":64846,"transfer_cost":0.0,"port_name":"Shanghai","position":{"lat":31.224361,"lng":121.46917},"status":"surplus"},{"frame_index":824,"name":"ports_17","capacity":10000,"empty":730,"full":481,"on_shipper":82,"on_consignee":0,"shortage":0,"acc_shortage":283,"booking":54,"acc_booking":26562,"fulfillment":54,"acc_fulfillment":26279,"transfer_cost":0.0,"port_name":"Singapore","position":{"lat":1.29027,"lng":103.851959},"status":"surplus"},{"frame_index":824,"name":"ports_18","capacity":10000,"empty":1069,"full":149,"on_shipper":32,"on_consignee":0,"shortage":0,"acc_shortage":1374,"booking":21,"acc_booking":10213,"fulfillment":21,"acc_fulfillment":8839,"transfer_cost":0.0,"port_name":"Sydney","position":{"lat":-33.865143,"lng":151.2099},"status":"surplus"},{"frame_index":824,"name":"ports_19","capacity":10000,"empty":1328,"full":106,"on_shipper":28,"on_consignee":222,"shortage":0,"acc_shortage":0,"booking":28,"acc_booking":13525,"fulfillment":28,"acc_fulfillment":13525,"transfer_cost":0.0,"port_name":"Vancouver","position":{"lat":49.246292,"lng":-123.116226},"status":"surplus"},{"frame_index":824,"name":"ports_20","capacity":10000,"empty":1586,"full":590,"on_shipper":134,"on_consignee":0,"shortage":0,"acc_shortage":942,"booking":96,"acc_booking":45827,"fulfillment":96,"acc_fulfillment":44885,"transfer_cost":0.0,"port_name":"Yantian","position":{"lat":26.8533,"lng":119.8575},"status":"surplus"},{"frame_index":824,"name":"ports_21","capacity":10000,"empty":614,"full":650,"on_shipper":150,"on_consignee":0,"shortage":0,"acc_shortage":6236,"booking":97,"acc_booking":43589,"fulfillment":97,"acc_fulfillment":37353,"transfer_cost":0.0,"port_name":"Yokohama","position":{"lat":35.443707,"lng":139.638031},"status":"surplus"}]