[{"frame_index":564,"name":"ports_0","capacity":10000,"empty":6444,"full":433,"on_shipper":88,"on_consignee":0,"shortage":0,"acc_shortage":522,"booking":59,"acc_booking":71560,"fulfillment":59,"acc_fulfillment":71038,"transfer_cost":0.0,"port_name":"Bremerhaven","position":{"lat":53.549999,"lng":8.583333},"status":"surplus"},{"frame_index":564,"name":"ports_1","capacity":10000,"empty":387,"full":207,"on_shipper":4,"on_consignee":0,"shortage":0,"acc_shortage":0,"booking":4,"acc_booking":4773,"fulfillment":4,"acc_fulfillment":4773,"transfer_cost":0.0,"port_name":"Durban","position":{"lat":-29.8579,"lng":31.0292},"status":"surplus"},{"frame_index":564,"name":"ports_2","capacity":10000,"empty":314,"full":65,"on_shipper":6,"on_consignee":0,"shortage":0,"acc_shortage":233,"booking":4,"acc_booking":4747,"fulfillment":4,"acc_fulfillment":4514,"transfer_cost":0.0,"port_name":"Itagual","position":{"lat":-22.85222,"lng":-43.77528},"status":"surplus"},{"frame_index":564,"name":"ports_3","capacity":10000,"empty":725,"full":1547,"on_shipper":41,"on_consignee":0,"shortage":0,"acc_shortage":0,"booking":23,"acc_booking":27130,"fulfillment":23,"acc_fulfillment":27130,"transfer_cost":0.0,"port_name":"LeHavre","position":{"lat":49.490002,"lng":0.1},"status":"surplus"},{"frame_index":564,"name":"ports_4","capacity":10000,"empty":1593,"full":228,"on_shipper":34,"on_consignee":0,"shortage":0,"acc_shortage":0,"booking":19,"acc_booking":22690,"fulfillment":19,"acc_fulfillment":22690,"transfer_cost":0.0,"port_name":"Los Angeles","position":{"lat":34.052235,"lng":-118.243683},"status":"surplus"},{"frame_index":564,"name":"ports_5","capacity":10000,"empty":2073,"full":335,"on_shipper":25,"on_consignee":0,"shortage":0,"acc_shortage":123,"booking":17,"acc_booking":22730,"fulfillment":17,"acc_fulfillment":22607,"transfer_cost":0.0,"port_name":"Manzanillo","position":{"lat":19.11695,"lng":-104.34214},"status":"surplus"},{"frame_index":564,"name":"ports_6","capacity":10000,"empty":527,"full":30,"on_shipper":11,"on_consignee":0,"shortage":0,"acc_shortage":1259,"booking":6,"acc_booking":6987,"fulfillment":6,"acc_fulfillment":5728,"transfer_cost":0.0,"port_name":"Melbourne","position":{"lat":-37.840935,"lng":144.946457},"status":"surplus"},{"frame_index":564,"name":"ports_7","capacity":10000,"empty":1537,"full":133,"on_shipper":12,"on_consignee":0,"shortage":0,"acc_shortage":0,"booking":6,"acc_booking":6990,"fulfillment":6,"acc_fulfillment":6990,"transfer_cost":0.0,"port_name":"Montreal","position":{"lat":45.516136,"lng":-73.65683},"status":"surplus"},{"frame_index":564,"name":"ports_8","capacity":10000,"empty":2005,"full":131,"on_shipper":12,"on_consignee":0,"shortage":0,"acc_shortage":0,"booking":12,"acc_booking":13662,"fulfillment":12,"acc_fulfillment":13662,"transfer_cost":0.0,"port_name":"New York","position":{"lat":40.73061,"lng":-73.935242},"status":"surplus"},{"frame_index":564,"name":"ports_9","capacity":10000,"empty":698,"full":54,"on_shipper":13,"on_consignee":0,"shortage":0,"acc_shortage":45,"booking":13,"acc_booking":13689,"fulfillment":13,"acc_fulfillment":13644,"transfer_cost":0.0,"port_name":"Oakland","position":{"lat":37.804363,"lng":-122.271111},"status":"surplus"},{"frame_index":564,"name":"ports_10","capacity":10000,"empty":918,"full":137,"on_shipper":10,"on_consignee":0,"shortage":0,"acc_shortage":314,"booking":6,"acc_booking":7006,"fulfillment":6,"acc_fulfillment":6692,"transfer_cost":0.0,"port_name":"Prince Rupert","position":{"lat":54.312519,"lng":-130.305405},"status":"surplus"},{"frame_index":564,"name":"ports_11","capacity":10000,"empty":155,"full":186,"on_shipper":35,"on_consignee":191,"shortage":0,"acc_shortage":204,"booking":23,"acc_booking":27076,"fulfillment":23,"acc_fulfillment":26872,"transfer_cost":62.0,"port_name":"Pusan","position":{"lat":35.166668,"lng":129.066666},"status":"balance"},{"frame_index":564,"name":"ports_12","capacity":10000,"empty":3174,"full":653,"on_shipper":39,"on_consignee":0,"shortage":0,"acc_shortage":0,"booking":30,"acc_booking":36218,"fulfillment":30,"acc_fulfillment":36218,"transfer_cost":0.0,"port_name":"Qingdao","position":{"lat":36.066898,"lng":120.382698},"status":"surplus"},{"frame_index":564,"name":"ports_13","capacity":10000,"empty":132,"full":252,"on_shipper":7,"on_consignee":0,"shortage":0,"acc_shortage":286,"booking":4,"acc_booking":4740,"fulfillment":4,"acc_fulfillment":4454,"transfer_cost":0.0,"port_name":"San Antonio","position":{"lat":29.424349,"lng":-98.491142},"status":"surplus"},{"frame_index":564,"name":"ports_14","capacity":10000,"empty":458,"full":37,"on_shipper":7,"on_consignee":0,"shortage":0,"acc_shortage":762,"booking":4,"acc_booking":4789,"fulfillment":4,"acc_fulfillment":4027,"transfer_cost":0.0,"port_name":"Santos","position":{"lat":-23.96083,"lng":-46.33361},"status":"surplus"},{"frame_index":564,"name":"ports_15","capacity":10000,"empty":2386,"full":2380,"on_shipper":44,"on_consignee":0,"shortage":0,"acc_shortage":0,"booking":26,"acc_booking":31600,"fulfillment":26,"acc_fulfillment":31600,"transfer_cost":0.0,"port_name":"Seattle","position":{"lat":47.608013,"lng":-122.335167},"status":"surplus"},{"frame_index":564,"name":"ports_16","capacity":10000,"empty":227,"full":2380,"on_shipper":52,"on_consignee":59,"shortage":0,"acc_shortage":470,"booking":38,"acc_booking":45092,"fulfillment":38,"acc_fulfillment":44622,"transfer_cost":530.0,"port_name":"Shanghai","position":{"lat":31.224361,"lng":121.46917},"status":"balance"},{"frame_index":564,"name":"ports_17","capacity":10000,"empty":968,"full":510,"on_shipper":25,"on_consignee":0,"shortage":0,"acc_shortage":40,"booking":15,"acc_booking":18209,"fulfillment":15,"acc_fulfillment":18169,"transfer_cost":0.0,"port_name":"Singapore","position":{"lat":1.29027,"lng":103.851959},"status":"surplus"},{"frame_index":564,"name":"ports_18","capacity":10000,"empty":705,"full":103,"on_shipper":11,"on_consignee":0,"shortage":0,"acc_shortage":957,"booking":5,"acc_booking":6960,"fulfillment":5,"acc_fulfillment":6003,"transfer_cost":0.0,"port_name":"Sydney","position":{"lat":-33.865143,"lng":151.2099},"status":"surplus"},{"frame_index":564,"name":"ports_19","capacity":10000,"empty":931,"full":242,"on_shipper":14,"on_consignee":0,"shortage":0,"acc_shortage":0,"booking":8,"acc_booking":9292,"fulfillment":8,"acc_fulfillment":9292,"transfer_cost":0.0,"port_name":"Vancouver","position":{"lat":49.246292,"lng":-123.116226},"status":"surplus"},{"frame_index":564,"name":"ports_20","capacity":10000,"empty":894,"full":1629,"on_shipper":38,"on_consignee":116,"shortage":0,"acc_shortage":395,"booking":25,"acc_booking":31406,"fulfillment":25,"acc_fulfillment":31011,"transfer_cost":0.0,"port_name":"Yantian","position":{"lat":26.8533,"lng":119.8575},"status":"surplus"},{"frame_index":564,"name":"ports_21","capacity":10000,"empty":1162,"full":122,"on_shipper":30,"on_consignee":0,"shortage":0,"acc_shortage":3258,"booking":19,"acc_booking":29889,"fulfillment":19,"acc_fulfillment":26631,"transfer_cost":0.0,"port_name":"Yokohama","position":{"lat":35.443707,"lng":139.638031},"status":"surplus"}]