[{"frame_index":202,"name":"ports_0","capacity":10000,"empty":2413,"full":2400,"on_shipper":130,"on_consignee":492,"shortage":0,"acc_shortage":0,"booking":66,"acc_booking":27146,"fulfillment":66,"acc_fulfillment":27146,"transfer_cost":1.0,"port_name":"Bremerhaven","position":{"lat":53.549999,"lng":8.583333},"status":"surplus"},{"frame_index":202,"name":"ports_1","capacity":10000,"empty":729,"full":147,"on_shipper":9,"on_consignee":0,"shortage":0,"acc_shortage":0,"booking":5,"acc_booking":1813,"fulfillment":5,"acc_fulfillment":1813,"transfer_cost":0.0,"port_name":"Durban","position":{"lat":-29.8579,"lng":31.0292},"status":"surplus"},{"frame_index":202,"name":"ports_2","capacity":10000,"empty":668,"full":110,"on_shipper":6,"on_consignee":0,"shortage":0,"acc_shortage":233,"booking":4,"acc_booking":1803,"fulfillment":4,"acc_fulfillment":1570,"transfer_cost":0.0,"port_name":"Itagual","position":{"lat":-22.85222,"lng":-43.77528},"status":"surplus"},{"frame_index":202,"name":"ports_3","capacity":10000,"empty":2707,"full":1757,"on_shipper":32,"on_consignee":0,"shortage":0,"acc_shortage":0,"booking":24,"acc_booking":10309,"fulfillment":24,"acc_fulfillment":10309,"transfer_cost":0.0,"port_name":"LeHavre","position":{"lat":49.490002,"lng":0.1},"status":"surplus"},{"frame_index":202,"name":"ports_4","capacity":10000,"empty":3155,"full":236,"on_shipper":37,"on_consignee":0,"shortage":0,"acc_shortage":0,"booking":21,"acc_booking":8611,"fulfillment":21,"acc_fulfillment":8611,"transfer_cost":0.0,"port_name":"Los Angeles","position":{"lat":34.052235,"lng":-118.243683},"status":"surplus"},{"frame_index":202,"name":"ports_5","capacity":10000,"empty":168,"full":74,"on_shipper":52,"on_consignee":0,"shortage":0,"acc_shortage":0,"booking":19,"acc_booking":8645,"fulfillment":19,"acc_fulfillment":8645,"transfer_cost":0.0,"port_name":"Manzanillo","position":{"lat":19.11695,"lng":-104.34214},"status":"surplus"},{"frame_index":202,"name":"ports_6","capacity":10000,"empty":59,"full":296,"on_shipper":14,"on_consignee":173,"shortage":0,"acc_shortage":0,"booking":6,"acc_booking":2646,"fulfillment":6,"acc_fulfillment":2646,"transfer_cost":0.0,"port_name":"Melbourne","position":{"lat":-37.840935,"lng":144.946457},"status":"balance"},{"frame_index":202,"name":"ports_7","capacity":10000,"empty":2004,"full":0,"on_shipper":12,"on_consignee":419,"shortage":0,"acc_shortage":0,"booking":6,"acc_booking":2646,"fulfillment":6,"acc_fulfillment":2646,"transfer_cost":219.0,"port_name":"Montreal","position":{"lat":45.516136,"lng":-73.65683},"status":"surplus"},{"frame_index":202,"name":"ports_8","capacity":10000,"empty":3128,"full":1298,"on_shipper":23,"on_consignee":0,"shortage":0,"acc_shortage":0,"booking":12,"acc_booking":5181,"fulfillment":12,"acc_fulfillment":5181,"transfer_cost":0.0,"port_name":"New York","position":{"lat":40.73061,"lng":-73.935242},"status":"surplus"},{"frame_index":202,"name":"ports_9","capacity":10000,"empty":1033,"full":140,"on_shipper":33,"on_consignee":0,"shortage":0,"acc_shortage":0,"booking":14,"acc_booking":5167,"fulfillment":14,"acc_fulfillment":5167,"transfer_cost":0.0,"port_name":"Oakland","position":{"lat":37.804363,"lng":-122.271111},"status":"surplus"},{"frame_index":202,"name":"ports_10","capacity":10000,"empty":553,"full":530,"on_shipper":10,"on_consignee":0,"shortage":0,"acc_shortage":0,"booking":7,"acc_booking":2631,"fulfillment":7,"acc_fulfillment":2631,"transfer_cost":0.0,"port_name":"Prince Rupert","position":{"lat":54.312519,"lng":-130.305405},"status":"surplus"},{"frame_index":202,"name":"ports_11","capacity":10000,"empty":1157,"full":1427,"on_shipper":48,"on_consignee":0,"shortage":0,"acc_shortage":0,"booking":25,"acc_booking":10283,"fulfillment":25,"acc_fulfillment":10283,"transfer_cost":0.0,"port_name":"Pusan","position":{"lat":35.166668,"lng":129.066666},"status":"surplus"},{"frame_index":202,"name":"ports_12","capacity":10000,"empty":732,"full":3045,"on_shipper":63,"on_consignee":0,"shortage":0,"acc_shortage":0,"booking":32,"acc_booking":13712,"fulfillment":32,"acc_fulfillment":13712,"transfer_cost":0.0,"port_name":"Qingdao","position":{"lat":36.066898,"lng":120.382698},"status":"surplus"},{"frame_index":202,"name":"ports_13","capacity":10000,"empty":394,"full":102,"on_shipper":8,"on_consignee":0,"shortage":0,"acc_shortage":55,"booking":4,"acc_booking":1799,"fulfillment":4,"acc_fulfillment":1744,"transfer_cost":0.0,"port_name":"San Antonio","position":{"lat":29.424349,"lng":-98.491142},"status":"surplus"},{"frame_index":202,"name":"ports_14","capacity":10000,"empty":0,"full":224,"on_shipper":0,"on_consignee":0,"shortage":5,"acc_shortage":642,"booking":5,"acc_booking":1818,"fulfillment":0,"acc_fulfillment":1176,"transfer_cost":0.0,"port_name":"Santos","position":{"lat":-23.96083,"lng":-46.33361},"status":"balance"},{"frame_index":202,"name":"ports_15","capacity":10000,"empty":2497,"full":322,"on_shipper":50,"on_consignee":0,"shortage":0,"acc_shortage":0,"booking":28,"acc_booking":11997,"fulfillment":28,"acc_fulfillment":11997,"transfer_cost":0.0,"port_name":"Seattle","position":{"lat":47.608013,"lng":-122.335167},"status":"surplus"},{"frame_index":202,"name":"ports_16","capacity":10000,"empty":978,"full":1581,"on_shipper":86,"on_consignee":90,"shortage":0,"acc_shortage":0,"booking":42,"acc_booking":17054,"fulfillment":42,"acc_fulfillment":17054,"transfer_cost":0.0,"port_name":"Shanghai","position":{"lat":31.224361,"lng":121.46917},"status":"surplus"},{"frame_index":202,"name":"ports_17","capacity":10000,"empty":223,"full":499,"on_shipper":40,"on_consignee":140,"shortage":0,"acc_shortage":40,"booking":16,"acc_booking":6913,"fulfillment":16,"acc_fulfillment":6873,"transfer_cost":0.0,"port_name":"Singapore","position":{"lat":1.29027,"lng":103.851959},"status":"surplus"},{"frame_index":202,"name":"ports_18","capacity":10000,"empty":5,"full":116,"on_shipper":14,"on_consignee":145,"shortage":0,"acc_shortage":0,"booking":7,"acc_booking":2618,"fulfillment":7,"acc_fulfillment":2618,"transfer_cost":0.0,"port_name":"Sydney","position":{"lat":-33.865143,"lng":151.2099},"status":"balance"},{"frame_index":202,"name":"ports_19","capacity":10000,"empty":847,"full":13,"on_shipper":19,"on_consignee":155,"shortage":0,"acc_shortage":0,"booking":9,"acc_booking":3509,"fulfillment":9,"acc_fulfillment":3509,"transfer_cost":0.0,"port_name":"Vancouver","position":{"lat":49.246292,"lng":-123.116226},"status":"surplus"},{"frame_index":202,"name":"ports_20","capacity":10000,"empty":1668,"full":528,"on_shipper":50,"on_consignee":0,"shortage":0,"acc_shortage":0,"booking":28,"acc_booking":11810,"fulfillment":28,"acc_fulfillment":11810,"transfer_cost":0.0,"port_name":"Yantian","position":{"lat":26.8533,"lng":119.8575},"status":"surplus"},{"frame_index":202,"name":"ports_21","capacity":10000,"empty":0,"full":3515,"on_shipper":0,"on_consignee":0,"shortage":25,"acc_shortage":414,"booking":25,"acc_booking":11479,"fulfillment":0,"acc_fulfillment":11065,"transfer_cost":0.0,"port_name":"Yokohama","position":{"lat":35.443707,"lng":139.638031},"status":"demand"}]