[{"frame_index":637,"name":"ports_0","capacity":10000,"empty":2176,"full":4432,"on_shipper":182,"on_consignee":320,"shortage":0,"acc_shortage":522,"booking":99,"acc_booking":82767,"fulfillment":99,"acc_fulfillment":82245,"transfer_cost":0.0,"port_name":"Bremerhaven","position":{"lat":53.549999,"lng":8.583333},"status":"surplus"},{"frame_index":637,"name":"ports_1","capacity":10000,"empty":346,"full":27,"on_shipper":9,"on_consignee":0,"shortage":0,"acc_shortage":0,"booking":5,"acc_booking":5498,"fulfillment":5,"acc_fulfillment":5498,"transfer_cost":0.0,"port_name":"Durban","position":{"lat":-29.8579,"lng":31.0292},"status":"surplus"},{"frame_index":637,"name":"ports_2","capacity":10000,"empty":52,"full":176,"on_shipper":12,"on_consignee":0,"shortage":0,"acc_shortage":233,"booking":6,"acc_booking":5476,"fulfillment":6,"acc_fulfillment":5243,"transfer_cost":0.0,"port_name":"Itagual","position":{"lat":-22.85222,"lng":-43.77528},"status":"balance"},{"frame_index":637,"name":"ports_3","capacity":10000,"empty":612,"full":912,"on_shipper":38,"on_consignee":483,"shortage":0,"acc_shortage":0,"booking":31,"acc_booking":31318,"fulfillment":31,"acc_fulfillment":31318,"transfer_cost":4.0,"port_name":"LeHavre","position":{"lat":49.490002,"lng":0.1},"status":"surplus"},{"frame_index":637,"name":"ports_4","capacity":10000,"empty":301,"full":876,"on_shipper":26,"on_consignee":129,"shortage":0,"acc_shortage":150,"booking":26,"acc_booking":26205,"fulfillment":26,"acc_fulfillment":26055,"transfer_cost":0.0,"port_name":"Los Angeles","position":{"lat":34.052235,"lng":-118.243683},"status":"surplus"},{"frame_index":637,"name":"ports_5","capacity":10000,"empty":1159,"full":1490,"on_shipper":46,"on_consignee":0,"shortage":0,"acc_shortage":123,"booking":24,"acc_booking":26288,"fulfillment":24,"acc_fulfillment":26165,"transfer_cost":0.0,"port_name":"Manzanillo","position":{"lat":19.11695,"lng":-104.34214},"status":"surplus"},{"frame_index":637,"name":"ports_6","capacity":10000,"empty":391,"full":219,"on_shipper":18,"on_consignee":0,"shortage":0,"acc_shortage":1336,"booking":8,"acc_booking":8064,"fulfillment":8,"acc_fulfillment":6728,"transfer_cost":0.0,"port_name":"Melbourne","position":{"lat":-37.840935,"lng":144.946457},"status":"surplus"},{"frame_index":637,"name":"ports_7","capacity":10000,"empty":954,"full":539,"on_shipper":18,"on_consignee":0,"shortage":0,"acc_shortage":0,"booking":8,"acc_booking":8070,"fulfillment":8,"acc_fulfillment":8070,"transfer_cost":0.0,"port_name":"Montreal","position":{"lat":45.516136,"lng":-73.65683},"status":"surplus"},{"frame_index":637,"name":"ports_8","capacity":10000,"empty":1496,"full":1402,"on_shipper":24,"on_consignee":0,"shortage":0,"acc_shortage":0,"booking":15,"acc_booking":15780,"fulfillment":15,"acc_fulfillment":15780,"transfer_cost":0.0,"port_name":"New York","position":{"lat":40.73061,"lng":-73.935242},"status":"surplus"},{"frame_index":637,"name":"ports_9","capacity":10000,"empty":1298,"full":324,"on_shipper":31,"on_consignee":0,"shortage":0,"acc_shortage":45,"booking":18,"acc_booking":15844,"fulfillment":18,"acc_fulfillment":15799,"transfer_cost":0.0,"port_name":"Oakland","position":{"lat":37.804363,"lng":-122.271111},"status":"surplus"},{"frame_index":637,"name":"ports_10","capacity":10000,"empty":1251,"full":540,"on_shipper":14,"on_consignee":0,"shortage":0,"acc_shortage":314,"booking":8,"acc_booking":8090,"fulfillment":8,"acc_fulfillment":7776,"transfer_cost":0.0,"port_name":"Prince Rupert","position":{"lat":54.312519,"lng":-130.305405},"status":"surplus"},{"frame_index":637,"name":"ports_11","capacity":10000,"empty":3069,"full":758,"on_shipper":48,"on_consignee":0,"shortage":0,"acc_shortage":204,"booking":32,"acc_booking":31280,"fulfillment":32,"acc_fulfillment":31076,"transfer_cost":0.0,"port_name":"Pusan","position":{"lat":35.166668,"lng":129.066666},"status":"surplus"},{"frame_index":637,"name":"ports_12","capacity":10000,"empty":1512,"full":2364,"on_shipper":76,"on_consignee":0,"shortage":0,"acc_shortage":0,"booking":47,"acc_booking":41783,"fulfillment":47,"acc_fulfillment":41783,"transfer_cost":0.0,"port_name":"Qingdao","position":{"lat":36.066898,"lng":120.382698},"status":"surplus"},{"frame_index":637,"name":"ports_13","capacity":10000,"empty":360,"full":162,"on_shipper":11,"on_consignee":0,"shortage":0,"acc_shortage":325,"booking":6,"acc_booking":5477,"fulfillment":6,"acc_fulfillment":5152,"transfer_cost":0.0,"port_name":"San Antonio","position":{"lat":29.424349,"lng":-98.491142},"status":"surplus"},{"frame_index":637,"name":"ports_14","capacity":10000,"empty":653,"full":10,"on_shipper":12,"on_consignee":96,"shortage":0,"acc_shortage":762,"booking":6,"acc_booking":5520,"fulfillment":6,"acc_fulfillment":4758,"transfer_cost":0.0,"port_name":"Santos","position":{"lat":-23.96083,"lng":-46.33361},"status":"surplus"},{"frame_index":637,"name":"ports_15","capacity":10000,"empty":1064,"full":2340,"on_shipper":55,"on_consignee":297,"shortage":0,"acc_shortage":0,"booking":37,"acc_booking":36492,"fulfillment":37,"acc_fulfillment":36492,"transfer_cost":0.0,"port_name":"Seattle","position":{"lat":47.608013,"lng":-122.335167},"status":"surplus"},{"frame_index":637,"name":"ports_16","capacity":10000,"empty":236,"full":1595,"on_shipper":71,"on_consignee":0,"shortage":0,"acc_shortage":712,"booking":46,"acc_booking":51937,"fulfillment":46,"acc_fulfillment":51225,"transfer_cost":0.0,"port_name":"Shanghai","position":{"lat":31.224361,"lng":121.46917},"status":"balance"},{"frame_index":637,"name":"ports_17","capacity":10000,"empty":696,"full":408,"on_shipper":36,"on_consignee":21,"shortage":0,"acc_shortage":283,"booking":22,"acc_booking":21032,"fulfillment":22,"acc_fulfillment":20749,"transfer_cost":0.0,"port_name":"Singapore","position":{"lat":1.29027,"lng":103.851959},"status":"surplus"},{"frame_index":637,"name":"ports_18","capacity":10000,"empty":98,"full":487,"on_shipper":14,"on_consignee":0,"shortage":0,"acc_shortage":957,"booking":9,"acc_booking":8031,"fulfillment":9,"acc_fulfillment":7074,"transfer_cost":0.0,"port_name":"Sydney","position":{"lat":-33.865143,"lng":151.2099},"status":"surplus"},{"frame_index":637,"name":"ports_19","capacity":10000,"empty":683,"full":694,"on_shipper":23,"on_consignee":0,"shortage":0,"acc_shortage":0,"booking":11,"acc_booking":10712,"fulfillment":11,"acc_fulfillment":10712,"transfer_cost":0.0,"port_name":"Vancouver","position":{"lat":49.246292,"lng":-123.116226},"status":"surplus"},{"frame_index":637,"name":"ports_20","capacity":10000,"empty":671,"full":854,"on_shipper":55,"on_consignee":0,"shortage":0,"acc_shortage":395,"booking":42,"acc_booking":36222,"fulfillment":42,"acc_fulfillment":35827,"transfer_cost":0.0,"port_name":"Yantian","position":{"lat":26.8533,"lng":119.8575},"status":"surplus"},{"frame_index":637,"name":"ports_21","capacity":10000,"empty":207,"full":2337,"on_shipper":60,"on_consignee":0,"shortage":0,"acc_shortage":3563,"booking":33,"acc_booking":34696,"fulfillment":33,"acc_fulfillment":31133,"transfer_cost":0.0,"port_name":"Yokohama","position":{"lat":35.443707,"lng":139.638031},"status":"balance"}]