[{"frame_index":717,"name":"ports_0","capacity":10000,"empty":4610,"full":2533,"on_shipper":298,"on_consignee":0,"shortage":0,"acc_shortage":522,"booking":212,"acc_booking":91065,"fulfillment":212,"acc_fulfillment":90543,"transfer_cost":0.0,"port_name":"Bremerhaven","position":{"lat":53.549999,"lng":8.583333},"status":"surplus"},{"frame_index":717,"name":"ports_1","capacity":10000,"empty":316,"full":102,"on_shipper":23,"on_consignee":0,"shortage":0,"acc_shortage":0,"booking":16,"acc_booking":6058,"fulfillment":16,"acc_fulfillment":6058,"transfer_cost":0.0,"port_name":"Durban","position":{"lat":-29.8579,"lng":31.0292},"status":"surplus"},{"frame_index":717,"name":"ports_2","capacity":10000,"empty":513,"full":58,"on_shipper":23,"on_consignee":0,"shortage":0,"acc_shortage":298,"booking":15,"acc_booking":6037,"fulfillment":15,"acc_fulfillment":5739,"transfer_cost":0.0,"port_name":"Itagual","position":{"lat":-22.85222,"lng":-43.77528},"status":"surplus"},{"frame_index":717,"name":"ports_3","capacity":10000,"empty":2618,"full":1067,"on_shipper":188,"on_consignee":0,"shortage":0,"acc_shortage":0,"booking":93,"acc_booking":34490,"fulfillment":93,"acc_fulfillment":34490,"transfer_cost":0.0,"port_name":"LeHavre","position":{"lat":49.490002,"lng":0.1},"status":"surplus"},{"frame_index":717,"name":"ports_4","capacity":10000,"empty":481,"full":1079,"on_shipper":118,"on_consignee":0,"shortage":0,"acc_shortage":150,"booking":79,"acc_booking":28868,"fulfillment":79,"acc_fulfillment":28718,"transfer_cost":0.0,"port_name":"Los Angeles","position":{"lat":34.052235,"lng":-118.243683},"status":"surplus"},{"frame_index":717,"name":"ports_5","capacity":10000,"empty":1962,"full":1114,"on_shipper":96,"on_consignee":0,"shortage":0,"acc_shortage":123,"booking":87,"acc_booking":28935,"fulfillment":87,"acc_fulfillment":28812,"transfer_cost":0.0,"port_name":"Manzanillo","position":{"lat":19.11695,"lng":-104.34214},"status":"surplus"},{"frame_index":717,"name":"ports_6","capacity":10000,"empty":301,"full":308,"on_shipper":40,"on_consignee":0,"shortage":0,"acc_shortage":1336,"booking":24,"acc_booking":8888,"fulfillment":24,"acc_fulfillment":7552,"transfer_cost":0.0,"port_name":"Melbourne","position":{"lat":-37.840935,"lng":144.946457},"status":"surplus"},{"frame_index":717,"name":"ports_7","capacity":10000,"empty":1018,"full":154,"on_shipper":35,"on_consignee":0,"shortage":0,"acc_shortage":0,"booking":24,"acc_booking":8893,"fulfillment":24,"acc_fulfillment":8893,"transfer_cost":0.0,"port_name":"Montreal","position":{"lat":45.516136,"lng":-73.65683},"status":"surplus"},{"frame_index":717,"name":"ports_8","capacity":10000,"empty":1092,"full":24,"on_shipper":94,"on_consignee":2987,"shortage":0,"acc_shortage":0,"booking":44,"acc_booking":17372,"fulfillment":44,"acc_fulfillment":17372,"transfer_cost":0.0,"port_name":"New York","position":{"lat":40.73061,"lng":-73.935242},"status":"surplus"},{"frame_index":717,"name":"ports_9","capacity":10000,"empty":592,"full":50,"on_shipper":61,"on_consignee":694,"shortage":0,"acc_shortage":45,"booking":42,"acc_booking":17423,"fulfillment":42,"acc_fulfillment":17378,"transfer_cost":0.0,"port_name":"Oakland","position":{"lat":37.804363,"lng":-122.271111},"status":"surplus"},{"frame_index":717,"name":"ports_10","capacity":10000,"empty":1505,"full":300,"on_shipper":40,"on_consignee":0,"shortage":0,"acc_shortage":314,"booking":27,"acc_booking":8906,"fulfillment":27,"acc_fulfillment":8592,"transfer_cost":0.0,"port_name":"Prince Rupert","position":{"lat":54.312519,"lng":-130.305405},"status":"surplus"},{"frame_index":717,"name":"ports_11","capacity":10000,"empty":2391,"full":2369,"on_shipper":136,"on_consignee":0,"shortage":0,"acc_shortage":204,"booking":91,"acc_booking":34445,"fulfillment":91,"acc_fulfillment":34241,"transfer_cost":0.0,"port_name":"Pusan","position":{"lat":35.166668,"lng":129.066666},"status":"surplus"},{"frame_index":717,"name":"ports_12","capacity":10000,"empty":3118,"full":923,"on_shipper":156,"on_consignee":0,"shortage":0,"acc_shortage":0,"booking":117,"acc_booking":46003,"fulfillment":117,"acc_fulfillment":46003,"transfer_cost":0.0,"port_name":"Qingdao","position":{"lat":36.066898,"lng":120.382698},"status":"surplus"},{"frame_index":717,"name":"ports_13","capacity":10000,"empty":479,"full":114,"on_shipper":24,"on_consignee":0,"shortage":0,"acc_shortage":325,"booking":16,"acc_booking":6045,"fulfillment":16,"acc_fulfillment":5720,"transfer_cost":0.0,"port_name":"San Antonio","position":{"lat":29.424349,"lng":-98.491142},"status":"surplus"},{"frame_index":717,"name":"ports_14","capacity":10000,"empty":727,"full":153,"on_shipper":28,"on_consignee":0,"shortage":0,"acc_shortage":762,"booking":14,"acc_booking":6078,"fulfillment":14,"acc_fulfillment":5316,"transfer_cost":0.0,"port_name":"Santos","position":{"lat":-23.96083,"lng":-46.33361},"status":"surplus"},{"frame_index":717,"name":"ports_15","capacity":10000,"empty":2352,"full":1317,"on_shipper":150,"on_consignee":464,"shortage":0,"acc_shortage":0,"booking":110,"acc_booking":40186,"fulfillment":110,"acc_fulfillment":40186,"transfer_cost":0.0,"port_name":"Seattle","position":{"lat":47.608013,"lng":-122.335167},"status":"surplus"},{"frame_index":717,"name":"ports_16","capacity":10000,"empty":1486,"full":2631,"on_shipper":235,"on_consignee":0,"shortage":0,"acc_shortage":712,"booking":137,"acc_booking":57239,"fulfillment":137,"acc_fulfillment":56527,"transfer_cost":0.0,"port_name":"Shanghai","position":{"lat":31.224361,"lng":121.46917},"status":"surplus"},{"frame_index":717,"name":"ports_17","capacity":10000,"empty":2974,"full":508,"on_shipper":89,"on_consignee":0,"shortage":0,"acc_shortage":283,"booking":64,"acc_booking":23172,"fulfillment":64,"acc_fulfillment":22889,"transfer_cost":0.0,"port_name":"Singapore","position":{"lat":1.29027,"lng":103.851959},"status":"surplus"},{"frame_index":717,"name":"ports_18","capacity":10000,"empty":162,"full":279,"on_shipper":41,"on_consignee":0,"shortage":0,"acc_shortage":1082,"booking":23,"acc_booking":8872,"fulfillment":23,"acc_fulfillment":7790,"transfer_cost":0.0,"port_name":"Sydney","position":{"lat":-33.865143,"lng":151.2099},"status":"balance"},{"frame_index":717,"name":"ports_19","capacity":10000,"empty":1013,"full":435,"on_shipper":50,"on_consignee":0,"shortage":0,"acc_shortage":0,"booking":29,"acc_booking":11792,"fulfillment":29,"acc_fulfillment":11792,"transfer_cost":0.0,"port_name":"Vancouver","position":{"lat":49.246292,"lng":-123.116226},"status":"surplus"},{"frame_index":717,"name":"ports_20","capacity":10000,"empty":18,"full":1386,"on_shipper":170,"on_consignee":0,"shortage":0,"acc_shortage":435,"booking":115,"acc_booking":39960,"fulfillment":115,"acc_fulfillment":39525,"transfer_cost":0.0,"port_name":"Yantian","position":{"lat":26.8533,"lng":119.8575},"status":"demand"},{"frame_index":717,"name":"ports_21","capacity":10000,"empty":502,"full":820,"on_shipper":194,"on_consignee":0,"shortage":0,"acc_shortage":4175,"booking":110,"acc_booking":38023,"fulfillment":110,"acc_fulfillment":33848,"transfer_cost":0.0,"port_name":"Yokohama","position":{"lat":35.443707,"lng":139.638031},"status":"balance"}]