[{"frame_index":837,"name":"ports_0","capacity":10000,"empty":7504,"full":2603,"on_shipper":228,"on_consignee":0,"shortage":0,"acc_shortage":522,"booking":184,"acc_booking":106816,"fulfillment":184,"acc_fulfillment":106294,"transfer_cost":0.0,"port_name":"Bremerhaven","position":{"lat":53.549999,"lng":8.583333},"status":"surplus"},{"frame_index":837,"name":"ports_1","capacity":10000,"empty":214,"full":180,"on_shipper":19,"on_consignee":0,"shortage":0,"acc_shortage":10,"booking":14,"acc_booking":7103,"fulfillment":14,"acc_fulfillment":7093,"transfer_cost":0.0,"port_name":"Durban","position":{"lat":-29.8579,"lng":31.0292},"status":"surplus"},{"frame_index":837,"name":"ports_2","capacity":10000,"empty":549,"full":19,"on_shipper":18,"on_consignee":0,"shortage":0,"acc_shortage":298,"booking":14,"acc_booking":7073,"fulfillment":14,"acc_fulfillment":6775,"transfer_cost":0.0,"port_name":"Itagual","position":{"lat":-22.85222,"lng":-43.77528},"status":"surplus"},{"frame_index":837,"name":"ports_3","capacity":10000,"empty":4179,"full":411,"on_shipper":102,"on_consignee":585,"shortage":0,"acc_shortage":0,"booking":82,"acc_booking":40446,"fulfillment":82,"acc_fulfillment":40446,"transfer_cost":0.0,"port_name":"LeHavre","position":{"lat":49.490002,"lng":0.1},"status":"surplus"},{"frame_index":837,"name":"ports_4","capacity":10000,"empty":3167,"full":397,"on_shipper":85,"on_consignee":0,"shortage":0,"acc_shortage":290,"booking":68,"acc_booking":33860,"fulfillment":68,"acc_fulfillment":33570,"transfer_cost":0.0,"port_name":"Los Angeles","position":{"lat":34.052235,"lng":-118.243683},"status":"surplus"},{"frame_index":837,"name":"ports_5","capacity":10000,"empty":2524,"full":0,"on_shipper":99,"on_consignee":231,"shortage":0,"acc_shortage":123,"booking":62,"acc_booking":34005,"fulfillment":62,"acc_fulfillment":33882,"transfer_cost":118.0,"port_name":"Manzanillo","position":{"lat":19.11695,"lng":-104.34214},"status":"surplus"},{"frame_index":837,"name":"ports_6","capacity":10000,"empty":231,"full":276,"on_shipper":32,"on_consignee":0,"shortage":0,"acc_shortage":1654,"booking":20,"acc_booking":10425,"fulfillment":20,"acc_fulfillment":8771,"transfer_cost":0.0,"port_name":"Melbourne","position":{"lat":-37.840935,"lng":144.946457},"status":"surplus"},{"frame_index":837,"name":"ports_7","capacity":10000,"empty":869,"full":145,"on_shipper":33,"on_consignee":0,"shortage":0,"acc_shortage":0,"booking":21,"acc_booking":10439,"fulfillment":21,"acc_fulfillment":10439,"transfer_cost":0.0,"port_name":"Montreal","position":{"lat":45.516136,"lng":-73.65683},"status":"surplus"},{"frame_index":837,"name":"ports_8","capacity":10000,"empty":3251,"full":484,"on_shipper":63,"on_consignee":0,"shortage":0,"acc_shortage":136,"booking":38,"acc_booking":20380,"fulfillment":38,"acc_fulfillment":20244,"transfer_cost":0.0,"port_name":"New York","position":{"lat":40.73061,"lng":-73.935242},"status":"surplus"},{"frame_index":837,"name":"ports_9","capacity":10000,"empty":598,"full":1022,"on_shipper":54,"on_consignee":0,"shortage":0,"acc_shortage":45,"booking":39,"acc_booking":20423,"fulfillment":39,"acc_fulfillment":20378,"transfer_cost":0.0,"port_name":"Oakland","position":{"lat":37.804363,"lng":-122.271111},"status":"surplus"},{"frame_index":837,"name":"ports_10","capacity":10000,"empty":918,"full":560,"on_shipper":22,"on_consignee":0,"shortage":0,"acc_shortage":314,"booking":22,"acc_booking":10457,"fulfillment":22,"acc_fulfillment":10143,"transfer_cost":0.0,"port_name":"Prince Rupert","position":{"lat":54.312519,"lng":-130.305405},"status":"surplus"},{"frame_index":837,"name":"ports_11","capacity":10000,"empty":2338,"full":835,"on_shipper":114,"on_consignee":79,"shortage":0,"acc_shortage":204,"booking":79,"acc_booking":40412,"fulfillment":79,"acc_fulfillment":40208,"transfer_cost":0.0,"port_name":"Pusan","position":{"lat":35.166668,"lng":129.066666},"status":"surplus"},{"frame_index":837,"name":"ports_12","capacity":10000,"empty":3376,"full":2416,"on_shipper":159,"on_consignee":0,"shortage":0,"acc_shortage":0,"booking":107,"acc_booking":53973,"fulfillment":107,"acc_fulfillment":53973,"transfer_cost":0.0,"port_name":"Qingdao","position":{"lat":36.066898,"lng":120.382698},"status":"surplus"},{"frame_index":837,"name":"ports_13","capacity":10000,"empty":538,"full":183,"on_shipper":19,"on_consignee":0,"shortage":0,"acc_shortage":449,"booking":12,"acc_booking":7083,"fulfillment":12,"acc_fulfillment":6634,"transfer_cost":0.0,"port_name":"San Antonio","position":{"lat":29.424349,"lng":-98.491142},"status":"surplus"},{"frame_index":837,"name":"ports_14","capacity":10000,"empty":533,"full":64,"on_shipper":20,"on_consignee":0,"shortage":0,"acc_shortage":819,"booking":12,"acc_booking":7117,"fulfillment":12,"acc_fulfillment":6298,"transfer_cost":0.0,"port_name":"Santos","position":{"lat":-23.96083,"lng":-46.33361},"status":"surplus"},{"frame_index":837,"name":"ports_15","capacity":10000,"empty":901,"full":2132,"on_shipper":137,"on_consignee":0,"shortage":0,"acc_shortage":0,"booking":95,"acc_booking":47179,"fulfillment":95,"acc_fulfillment":47179,"transfer_cost":0.0,"port_name":"Seattle","position":{"lat":47.608013,"lng":-122.335167},"status":"surplus"},{"frame_index":837,"name":"ports_16","capacity":10000,"empty":1828,"full":2271,"on_shipper":172,"on_consignee":5,"shortage":0,"acc_shortage":760,"booking":120,"acc_booking":67052,"fulfillment":120,"acc_fulfillment":66292,"transfer_cost":0.0,"port_name":"Shanghai","position":{"lat":31.224361,"lng":121.46917},"status":"surplus"},{"frame_index":837,"name":"ports_17","capacity":10000,"empty":538,"full":634,"on_shipper":64,"on_consignee":0,"shortage":0,"acc_shortage":283,"booking":56,"acc_booking":27168,"fulfillment":56,"acc_fulfillment":26885,"transfer_cost":0.0,"port_name":"Singapore","position":{"lat":1.29027,"lng":103.851959},"status":"surplus"},{"frame_index":837,"name":"ports_18","capacity":10000,"empty":840,"full":388,"on_shipper":22,"on_consignee":0,"shortage":0,"acc_shortage":1374,"booking":22,"acc_booking":10442,"fulfillment":22,"acc_fulfillment":9068,"transfer_cost":0.0,"port_name":"Sydney","position":{"lat":-33.865143,"lng":151.2099},"status":"surplus"},{"frame_index":837,"name":"ports_19","capacity":10000,"empty":1422,"full":53,"on_shipper":35,"on_consignee":0,"shortage":0,"acc_shortage":0,"booking":28,"acc_booking":13832,"fulfillment":28,"acc_fulfillment":13832,"transfer_cost":0.0,"port_name":"Vancouver","position":{"lat":49.246292,"lng":-123.116226},"status":"surplus"},{"frame_index":837,"name":"ports_20","capacity":10000,"empty":1465,"full":1024,"on_shipper":117,"on_consignee":175,"shortage":0,"acc_shortage":942,"booking":91,"acc_booking":46912,"fulfillment":91,"acc_fulfillment":45970,"transfer_cost":815.0,"port_name":"Yantian","position":{"lat":26.8533,"lng":119.8575},"status":"surplus"},{"frame_index":837,"name":"ports_21","capacity":10000,"empty":932,"full":842,"on_shipper":123,"on_consignee":0,"shortage":0,"acc_shortage":6236,"booking":98,"acc_booking":44657,"fulfillment":98,"acc_fulfillment":38421,"transfer_cost":0.0,"port_name":"Yokohama","position":{"lat":35.443707,"lng":139.638031},"status":"surplus"}]