[{"frame_index":901,"name":"ports_0","capacity":10000,"empty":3097,"full":415,"on_shipper":61,"on_consignee":1117,"shortage":0,"acc_shortage":522,"booking":59,"acc_booking":115413,"fulfillment":59,"acc_fulfillment":114891,"transfer_cost":2375.0,"port_name":"Bremerhaven","position":{"lat":53.549999,"lng":8.583333},"status":"surplus"},{"frame_index":901,"name":"ports_1","capacity":10000,"empty":403,"full":0,"on_shipper":6,"on_consignee":93,"shortage":0,"acc_shortage":113,"booking":5,"acc_booking":7674,"fulfillment":5,"acc_fulfillment":7561,"transfer_cost":6.0,"port_name":"Durban","position":{"lat":-29.8579,"lng":31.0292},"status":"surplus"},{"frame_index":901,"name":"ports_2","capacity":10000,"empty":484,"full":4,"on_shipper":6,"on_consignee":276,"shortage":0,"acc_shortage":298,"booking":5,"acc_booking":7636,"fulfillment":5,"acc_fulfillment":7338,"transfer_cost":0.0,"port_name":"Itagual","position":{"lat":-22.85222,"lng":-43.77528},"status":"surplus"},{"frame_index":901,"name":"ports_3","capacity":10000,"empty":3003,"full":1540,"on_shipper":35,"on_consignee":0,"shortage":0,"acc_shortage":0,"booking":28,"acc_booking":43677,"fulfillment":28,"acc_fulfillment":43677,"transfer_cost":0.0,"port_name":"LeHavre","position":{"lat":49.490002,"lng":0.1},"status":"surplus"},{"frame_index":901,"name":"ports_4","capacity":10000,"empty":305,"full":521,"on_shipper":27,"on_consignee":0,"shortage":0,"acc_shortage":290,"booking":23,"acc_booking":36582,"fulfillment":23,"acc_fulfillment":36292,"transfer_cost":0.0,"port_name":"Los Angeles","position":{"lat":34.052235,"lng":-118.243683},"status":"surplus"},{"frame_index":901,"name":"ports_5","capacity":10000,"empty":871,"full":6,"on_shipper":29,"on_consignee":0,"shortage":0,"acc_shortage":163,"booking":25,"acc_booking":36695,"fulfillment":25,"acc_fulfillment":36532,"transfer_cost":0.0,"port_name":"Manzanillo","position":{"lat":19.11695,"lng":-104.34214},"status":"surplus"},{"frame_index":901,"name":"ports_6","capacity":10000,"empty":529,"full":178,"on_shipper":8,"on_consignee":0,"shortage":0,"acc_shortage":1855,"booking":7,"acc_booking":11258,"fulfillment":7,"acc_fulfillment":9403,"transfer_cost":0.0,"port_name":"Melbourne","position":{"lat":-37.840935,"lng":144.946457},"status":"surplus"},{"frame_index":901,"name":"ports_7","capacity":10000,"empty":1004,"full":62,"on_shipper":9,"on_consignee":0,"shortage":0,"acc_shortage":0,"booking":7,"acc_booking":11269,"fulfillment":7,"acc_fulfillment":11269,"transfer_cost":0.0,"port_name":"Montreal","position":{"lat":45.516136,"lng":-73.65683},"status":"surplus"},{"frame_index":901,"name":"ports_8","capacity":10000,"empty":4401,"full":192,"on_shipper":17,"on_consignee":0,"shortage":0,"acc_shortage":136,"booking":13,"acc_booking":22015,"fulfillment":13,"acc_fulfillment":21879,"transfer_cost":0.0,"port_name":"New York","position":{"lat":40.73061,"lng":-73.935242},"status":"surplus"},{"frame_index":901,"name":"ports_9","capacity":10000,"empty":870,"full":20,"on_shipper":19,"on_consignee":0,"shortage":0,"acc_shortage":45,"booking":16,"acc_booking":22040,"fulfillment":16,"acc_fulfillment":21995,"transfer_cost":0.0,"port_name":"Oakland","position":{"lat":37.804363,"lng":-122.271111},"status":"surplus"},{"frame_index":901,"name":"ports_10","capacity":10000,"empty":1101,"full":83,"on_shipper":9,"on_consignee":0,"shortage":0,"acc_shortage":314,"booking":7,"acc_booking":11300,"fulfillment":7,"acc_fulfillment":10986,"transfer_cost":0.0,"port_name":"Prince Rupert","position":{"lat":54.312519,"lng":-130.305405},"status":"surplus"},{"frame_index":901,"name":"ports_11","capacity":10000,"empty":182,"full":2528,"on_shipper":33,"on_consignee":0,"shortage":0,"acc_shortage":204,"booking":26,"acc_booking":43629,"fulfillment":26,"acc_fulfillment":43425,"transfer_cost":0.0,"port_name":"Pusan","position":{"lat":35.166668,"lng":129.066666},"status":"surplus"},{"frame_index":901,"name":"ports_12","capacity":10000,"empty":2140,"full":253,"on_shipper":39,"on_consignee":0,"shortage":0,"acc_shortage":0,"booking":35,"acc_booking":58338,"fulfillment":35,"acc_fulfillment":58338,"transfer_cost":0.0,"port_name":"Qingdao","position":{"lat":36.066898,"lng":120.382698},"status":"surplus"},{"frame_index":901,"name":"ports_13","capacity":10000,"empty":249,"full":113,"on_shipper":6,"on_consignee":0,"shortage":0,"acc_shortage":449,"booking":5,"acc_booking":7643,"fulfillment":5,"acc_fulfillment":7194,"transfer_cost":0.0,"port_name":"San Antonio","position":{"lat":29.424349,"lng":-98.491142},"status":"surplus"},{"frame_index":901,"name":"ports_14","capacity":10000,"empty":315,"full":14,"on_shipper":7,"on_consignee":0,"shortage":0,"acc_shortage":819,"booking":5,"acc_booking":7696,"fulfillment":5,"acc_fulfillment":6877,"transfer_cost":0.0,"port_name":"Santos","position":{"lat":-23.96083,"lng":-46.33361},"status":"surplus"},{"frame_index":901,"name":"ports_15","capacity":10000,"empty":1220,"full":562,"on_shipper":34,"on_consignee":707,"shortage":0,"acc_shortage":0,"booking":32,"acc_booking":50958,"fulfillment":32,"acc_fulfillment":50958,"transfer_cost":0.0,"port_name":"Seattle","position":{"lat":47.608013,"lng":-122.335167},"status":"surplus"},{"frame_index":901,"name":"ports_16","capacity":10000,"empty":1347,"full":2998,"on_shipper":48,"on_consignee":0,"shortage":0,"acc_shortage":817,"booking":43,"acc_booking":72560,"fulfillment":43,"acc_fulfillment":71743,"transfer_cost":0.0,"port_name":"Shanghai","position":{"lat":31.224361,"lng":121.46917},"status":"surplus"},{"frame_index":901,"name":"ports_17","capacity":10000,"empty":1748,"full":222,"on_shipper":19,"on_consignee":319,"shortage":0,"acc_shortage":283,"booking":18,"acc_booking":29335,"fulfillment":18,"acc_fulfillment":29052,"transfer_cost":225.0,"port_name":"Singapore","position":{"lat":1.29027,"lng":103.851959},"status":"surplus"},{"frame_index":901,"name":"ports_18","capacity":10000,"empty":1096,"full":104,"on_shipper":6,"on_consignee":0,"shortage":0,"acc_shortage":1374,"booking":6,"acc_booking":11274,"fulfillment":6,"acc_fulfillment":9900,"transfer_cost":0.0,"port_name":"Sydney","position":{"lat":-33.865143,"lng":151.2099},"status":"surplus"},{"frame_index":901,"name":"ports_19","capacity":10000,"empty":1053,"full":231,"on_shipper":9,"on_consignee":112,"shortage":0,"acc_shortage":0,"booking":9,"acc_booking":14923,"fulfillment":9,"acc_fulfillment":14923,"transfer_cost":0.0,"port_name":"Vancouver","position":{"lat":49.246292,"lng":-123.116226},"status":"surplus"},{"frame_index":901,"name":"ports_20","capacity":10000,"empty":329,"full":1973,"on_shipper":31,"on_consignee":0,"shortage":0,"acc_shortage":1292,"booking":29,"acc_booking":50675,"fulfillment":29,"acc_fulfillment":49383,"transfer_cost":0.0,"port_name":"Yantian","position":{"lat":26.8533,"lng":119.8575},"status":"surplus"},{"frame_index":901,"name":"ports_21","capacity":10000,"empty":1261,"full":139,"on_shipper":25,"on_consignee":40,"shortage":0,"acc_shortage":7235,"booking":25,"acc_booking":48273,"fulfillment":25,"acc_fulfillment":41038,"transfer_cost":643.0,"port_name":"Yokohama","position":{"lat":35.443707,"lng":139.638031},"status":"surplus"}]