[{"frame_index":167,"name":"ports_0","capacity":10000,"empty":2967,"full":5144,"on_shipper":244,"on_consignee":0,"shortage":0,"acc_shortage":0,"booking":214,"acc_booking":20868,"fulfillment":214,"acc_fulfillment":20868,"transfer_cost":0.0,"port_name":"Bremerhaven","position":{"lat":53.549999,"lng":8.583333},"status":"surplus"},{"frame_index":167,"name":"ports_1","capacity":10000,"empty":680,"full":216,"on_shipper":21,"on_consignee":0,"shortage":0,"acc_shortage":0,"booking":18,"acc_booking":1409,"fulfillment":18,"acc_fulfillment":1409,"transfer_cost":0.0,"port_name":"Durban","position":{"lat":-29.8579,"lng":31.0292},"status":"surplus"},{"frame_index":167,"name":"ports_2","capacity":10000,"empty":503,"full":191,"on_shipper":26,"on_consignee":0,"shortage":0,"acc_shortage":233,"booking":18,"acc_booking":1396,"fulfillment":18,"acc_fulfillment":1163,"transfer_cost":0.0,"port_name":"Itagual","position":{"lat":-22.85222,"lng":-43.77528},"status":"surplus"},{"frame_index":167,"name":"ports_3","capacity":10000,"empty":2534,"full":278,"on_shipper":122,"on_consignee":1231,"shortage":0,"acc_shortage":0,"booking":94,"acc_booking":7988,"fulfillment":94,"acc_fulfillment":7988,"transfer_cost":0.0,"port_name":"LeHavre","position":{"lat":49.490002,"lng":0.1},"status":"surplus"},{"frame_index":167,"name":"ports_4","capacity":10000,"empty":2380,"full":989,"on_shipper":139,"on_consignee":0,"shortage":0,"acc_shortage":0,"booking":81,"acc_booking":6673,"fulfillment":81,"acc_fulfillment":6673,"transfer_cost":0.0,"port_name":"Los Angeles","position":{"lat":34.052235,"lng":-118.243683},"status":"surplus"},{"frame_index":167,"name":"ports_5","capacity":10000,"empty":1778,"full":175,"on_shipper":135,"on_consignee":0,"shortage":0,"acc_shortage":0,"booking":74,"acc_booking":6648,"fulfillment":74,"acc_fulfillment":6648,"transfer_cost":0.0,"port_name":"Manzanillo","position":{"lat":19.11695,"lng":-104.34214},"status":"surplus"},{"frame_index":167,"name":"ports_6","capacity":10000,"empty":383,"full":295,"on_shipper":32,"on_consignee":0,"shortage":0,"acc_shortage":0,"booking":24,"acc_booking":2056,"fulfillment":24,"acc_fulfillment":2056,"transfer_cost":0.0,"port_name":"Melbourne","position":{"lat":-37.840935,"lng":144.946457},"status":"surplus"},{"frame_index":167,"name":"ports_7","capacity":10000,"empty":2270,"full":407,"on_shipper":38,"on_consignee":0,"shortage":0,"acc_shortage":0,"booking":25,"acc_booking":2053,"fulfillment":25,"acc_fulfillment":2053,"transfer_cost":0.0,"port_name":"Montreal","position":{"lat":45.516136,"lng":-73.65683},"status":"surplus"},{"frame_index":167,"name":"ports_8","capacity":10000,"empty":4297,"full":73,"on_shipper":79,"on_consignee":0,"shortage":0,"acc_shortage":0,"booking":49,"acc_booking":4012,"fulfillment":49,"acc_fulfillment":4012,"transfer_cost":0.0,"port_name":"New York","position":{"lat":40.73061,"lng":-73.935242},"status":"surplus"},{"frame_index":167,"name":"ports_9","capacity":10000,"empty":1242,"full":1090,"on_shipper":84,"on_consignee":0,"shortage":0,"acc_shortage":0,"booking":54,"acc_booking":3996,"fulfillment":54,"acc_fulfillment":3996,"transfer_cost":0.0,"port_name":"Oakland","position":{"lat":37.804363,"lng":-122.271111},"status":"surplus"},{"frame_index":167,"name":"ports_10","capacity":10000,"empty":780,"full":320,"on_shipper":38,"on_consignee":0,"shortage":0,"acc_shortage":0,"booking":22,"acc_booking":2056,"fulfillment":22,"acc_fulfillment":2056,"transfer_cost":0.0,"port_name":"Prince Rupert","position":{"lat":54.312519,"lng":-130.305405},"status":"surplus"},{"frame_index":167,"name":"ports_11","capacity":10000,"empty":1226,"full":1300,"on_shipper":126,"on_consignee":0,"shortage":0,"acc_shortage":0,"booking":94,"acc_booking":7957,"fulfillment":94,"acc_fulfillment":7957,"transfer_cost":0.0,"port_name":"Pusan","position":{"lat":35.166668,"lng":129.066666},"status":"surplus"},{"frame_index":167,"name":"ports_12","capacity":10000,"empty":2616,"full":1056,"on_shipper":194,"on_consignee":661,"shortage":0,"acc_shortage":0,"booking":140,"acc_booking":10623,"fulfillment":140,"acc_fulfillment":10623,"transfer_cost":6.0,"port_name":"Qingdao","position":{"lat":36.066898,"lng":120.382698},"status":"surplus"},{"frame_index":167,"name":"ports_13","capacity":10000,"empty":4,"full":455,"on_shipper":26,"on_consignee":0,"shortage":0,"acc_shortage":0,"booking":15,"acc_booking":1400,"fulfillment":15,"acc_fulfillment":1400,"transfer_cost":0.0,"port_name":"San Antonio","position":{"lat":29.424349,"lng":-98.491142},"status":"demand"},{"frame_index":167,"name":"ports_14","capacity":10000,"empty":0,"full":224,"on_shipper":0,"on_consignee":0,"shortage":14,"acc_shortage":238,"booking":14,"acc_booking":1414,"fulfillment":0,"acc_fulfillment":1176,"transfer_cost":0.0,"port_name":"Santos","position":{"lat":-23.96083,"lng":-46.33361},"status":"demand"},{"frame_index":167,"name":"ports_15","capacity":10000,"empty":2114,"full":1193,"on_shipper":175,"on_consignee":637,"shortage":0,"acc_shortage":0,"booking":117,"acc_booking":9292,"fulfillment":117,"acc_fulfillment":9292,"transfer_cost":0.0,"port_name":"Seattle","position":{"lat":47.608013,"lng":-122.335167},"status":"surplus"},{"frame_index":167,"name":"ports_16","capacity":10000,"empty":2397,"full":1229,"on_shipper":241,"on_consignee":0,"shortage":0,"acc_shortage":0,"booking":137,"acc_booking":13334,"fulfillment":137,"acc_fulfillment":13334,"transfer_cost":0.0,"port_name":"Shanghai","position":{"lat":31.224361,"lng":121.46917},"status":"surplus"},{"frame_index":167,"name":"ports_17","capacity":10000,"empty":803,"full":770,"on_shipper":93,"on_consignee":0,"shortage":0,"acc_shortage":0,"booking":64,"acc_booking":5357,"fulfillment":64,"acc_fulfillment":5357,"transfer_cost":0.0,"port_name":"Singapore","position":{"lat":1.29027,"lng":103.851959},"status":"surplus"},{"frame_index":167,"name":"ports_18","capacity":10000,"empty":401,"full":403,"on_shipper":40,"on_consignee":0,"shortage":0,"acc_shortage":0,"booking":23,"acc_booking":2033,"fulfillment":23,"acc_fulfillment":2033,"transfer_cost":0.0,"port_name":"Sydney","position":{"lat":-33.865143,"lng":151.2099},"status":"surplus"},{"frame_index":167,"name":"ports_19","capacity":10000,"empty":857,"full":181,"on_shipper":55,"on_consignee":47,"shortage":0,"acc_shortage":0,"booking":35,"acc_booking":2721,"fulfillment":35,"acc_fulfillment":2721,"transfer_cost":0.0,"port_name":"Vancouver","position":{"lat":49.246292,"lng":-123.116226},"status":"surplus"},{"frame_index":167,"name":"ports_20","capacity":10000,"empty":1235,"full":915,"on_shipper":188,"on_consignee":60,"shortage":0,"acc_shortage":0,"booking":113,"acc_booking":9120,"fulfillment":113,"acc_fulfillment":9120,"transfer_cost":146.0,"port_name":"Yantian","position":{"lat":26.8533,"lng":119.8575},"status":"surplus"},{"frame_index":167,"name":"ports_21","capacity":10000,"empty":1932,"full":1530,"on_shipper":214,"on_consignee":0,"shortage":0,"acc_shortage":0,"booking":119,"acc_booking":8764,"fulfillment":119,"acc_fulfillment":8764,"transfer_cost":0.0,"port_name":"Yokohama","position":{"lat":35.443707,"lng":139.638031},"status":"surplus"}]