[{"frame_index":368,"name":"ports_0","capacity":10000,"empty":4795,"full":1174,"on_shipper":234,"on_consignee":0,"shortage":0,"acc_shortage":522,"booking":144,"acc_booking":45500,"fulfillment":144,"acc_fulfillment":44978,"transfer_cost":0.0,"port_name":"Bremerhaven","position":{"lat":53.549999,"lng":8.583333},"status":"surplus"},{"frame_index":368,"name":"ports_1","capacity":10000,"empty":312,"full":206,"on_shipper":10,"on_consignee":0,"shortage":0,"acc_shortage":0,"booking":8,"acc_booking":3035,"fulfillment":8,"acc_fulfillment":3035,"transfer_cost":0.0,"port_name":"Durban","position":{"lat":-29.8579,"lng":31.0292},"status":"surplus"},{"frame_index":368,"name":"ports_2","capacity":10000,"empty":667,"full":0,"on_shipper":14,"on_consignee":58,"shortage":0,"acc_shortage":233,"booking":10,"acc_booking":3021,"fulfillment":10,"acc_fulfillment":2788,"transfer_cost":14.0,"port_name":"Itagual","position":{"lat":-22.85222,"lng":-43.77528},"status":"surplus"},{"frame_index":368,"name":"ports_3","capacity":10000,"empty":1886,"full":561,"on_shipper":74,"on_consignee":0,"shortage":0,"acc_shortage":0,"booking":54,"acc_booking":17272,"fulfillment":54,"acc_fulfillment":17272,"transfer_cost":0.0,"port_name":"LeHavre","position":{"lat":49.490002,"lng":0.1},"status":"surplus"},{"frame_index":368,"name":"ports_4","capacity":10000,"empty":2872,"full":325,"on_shipper":63,"on_consignee":0,"shortage":0,"acc_shortage":0,"booking":45,"acc_booking":14422,"fulfillment":45,"acc_fulfillment":14422,"transfer_cost":0.0,"port_name":"Los Angeles","position":{"lat":34.052235,"lng":-118.243683},"status":"surplus"},{"frame_index":368,"name":"ports_5","capacity":10000,"empty":2439,"full":44,"on_shipper":97,"on_consignee":0,"shortage":0,"acc_shortage":123,"booking":48,"acc_booking":14460,"fulfillment":48,"acc_fulfillment":14337,"transfer_cost":0.0,"port_name":"Manzanillo","position":{"lat":19.11695,"lng":-104.34214},"status":"surplus"},{"frame_index":368,"name":"ports_6","capacity":10000,"empty":227,"full":200,"on_shipper":20,"on_consignee":0,"shortage":0,"acc_shortage":340,"booking":13,"acc_booking":4441,"fulfillment":13,"acc_fulfillment":4101,"transfer_cost":0.0,"port_name":"Melbourne","position":{"lat":-37.840935,"lng":144.946457},"status":"surplus"},{"frame_index":368,"name":"ports_7","capacity":10000,"empty":2635,"full":89,"on_shipper":14,"on_consignee":0,"shortage":0,"acc_shortage":0,"booking":14,"acc_booking":4450,"fulfillment":14,"acc_fulfillment":4450,"transfer_cost":0.0,"port_name":"Montreal","position":{"lat":45.516136,"lng":-73.65683},"status":"surplus"},{"frame_index":368,"name":"ports_8","capacity":10000,"empty":1779,"full":231,"on_shipper":66,"on_consignee":0,"shortage":0,"acc_shortage":0,"booking":27,"acc_booking":8681,"fulfillment":27,"acc_fulfillment":8681,"transfer_cost":0.0,"port_name":"New York","position":{"lat":40.73061,"lng":-73.935242},"status":"surplus"},{"frame_index":368,"name":"ports_9","capacity":10000,"empty":305,"full":1404,"on_shipper":36,"on_consignee":0,"shortage":0,"acc_shortage":0,"booking":28,"acc_booking":8641,"fulfillment":28,"acc_fulfillment":8641,"transfer_cost":0.0,"port_name":"Oakland","position":{"lat":37.804363,"lng":-122.271111},"status":"surplus"},{"frame_index":368,"name":"ports_10","capacity":10000,"empty":1265,"full":230,"on_shipper":20,"on_consignee":0,"shortage":0,"acc_shortage":0,"booking":13,"acc_booking":4438,"fulfillment":13,"acc_fulfillment":4438,"transfer_cost":0.0,"port_name":"Prince Rupert","position":{"lat":54.312519,"lng":-130.305405},"status":"surplus"},{"frame_index":368,"name":"ports_11","capacity":10000,"empty":1798,"full":434,"on_shipper":90,"on_consignee":0,"shortage":0,"acc_shortage":0,"booking":51,"acc_booking":17203,"fulfillment":51,"acc_fulfillment":17203,"transfer_cost":0.0,"port_name":"Pusan","position":{"lat":35.166668,"lng":129.066666},"status":"surplus"},{"frame_index":368,"name":"ports_12","capacity":10000,"empty":1208,"full":1355,"on_shipper":113,"on_consignee":0,"shortage":0,"acc_shortage":0,"booking":67,"acc_booking":22997,"fulfillment":67,"acc_fulfillment":22997,"transfer_cost":0.0,"port_name":"Qingdao","position":{"lat":36.066898,"lng":120.382698},"status":"surplus"},{"frame_index":368,"name":"ports_13","capacity":10000,"empty":308,"full":47,"on_shipper":20,"on_consignee":0,"shortage":0,"acc_shortage":123,"booking":10,"acc_booking":3013,"fulfillment":10,"acc_fulfillment":2890,"transfer_cost":0.0,"port_name":"San Antonio","position":{"lat":29.424349,"lng":-98.491142},"status":"surplus"},{"frame_index":368,"name":"ports_14","capacity":10000,"empty":696,"full":195,"on_shipper":12,"on_consignee":0,"shortage":0,"acc_shortage":697,"booking":10,"acc_booking":3068,"fulfillment":10,"acc_fulfillment":2371,"transfer_cost":0.0,"port_name":"Santos","position":{"lat":-23.96083,"lng":-46.33361},"status":"surplus"},{"frame_index":368,"name":"ports_15","capacity":10000,"empty":5324,"full":700,"on_shipper":97,"on_consignee":0,"shortage":0,"acc_shortage":0,"booking":64,"acc_booking":20086,"fulfillment":64,"acc_fulfillment":20086,"transfer_cost":0.0,"port_name":"Seattle","position":{"lat":47.608013,"lng":-122.335167},"status":"surplus"},{"frame_index":368,"name":"ports_16","capacity":10000,"empty":2935,"full":1120,"on_shipper":229,"on_consignee":269,"shortage":0,"acc_shortage":0,"booking":99,"acc_booking":28699,"fulfillment":99,"acc_fulfillment":28699,"transfer_cost":78.0,"port_name":"Shanghai","position":{"lat":31.224361,"lng":121.46917},"status":"surplus"},{"frame_index":368,"name":"ports_17","capacity":10000,"empty":2401,"full":418,"on_shipper":67,"on_consignee":0,"shortage":0,"acc_shortage":40,"booking":36,"acc_booking":11572,"fulfillment":36,"acc_fulfillment":11532,"transfer_cost":0.0,"port_name":"Singapore","position":{"lat":1.29027,"lng":103.851959},"status":"surplus"},{"frame_index":368,"name":"ports_18","capacity":10000,"empty":0,"full":370,"on_shipper":10,"on_consignee":0,"shortage":12,"acc_shortage":392,"booking":12,"acc_booking":4417,"fulfillment":0,"acc_fulfillment":4025,"transfer_cost":0.0,"port_name":"Sydney","position":{"lat":-33.865143,"lng":151.2099},"status":"demand"},{"frame_index":368,"name":"ports_19","capacity":10000,"empty":901,"full":0,"on_shipper":29,"on_consignee":154,"shortage":0,"acc_shortage":0,"booking":16,"acc_booking":5901,"fulfillment":16,"acc_fulfillment":5901,"transfer_cost":0.0,"port_name":"Vancouver","position":{"lat":49.246292,"lng":-123.116226},"status":"surplus"},{"frame_index":368,"name":"ports_20","capacity":10000,"empty":2263,"full":1004,"on_shipper":123,"on_consignee":0,"shortage":0,"acc_shortage":0,"booking":60,"acc_booking":19896,"fulfillment":60,"acc_fulfillment":19896,"transfer_cost":0.0,"port_name":"Yantian","position":{"lat":26.8533,"lng":119.8575},"status":"surplus"},{"frame_index":368,"name":"ports_21","capacity":10000,"empty":779,"full":926,"on_shipper":111,"on_consignee":0,"shortage":0,"acc_shortage":1887,"booking":56,"acc_booking":18861,"fulfillment":56,"acc_fulfillment":16974,"transfer_cost":0.0,"port_name":"Yokohama","position":{"lat":35.443707,"lng":139.638031},"status":"surplus"}]