[{"frame_index":397,"name":"ports_0","capacity":10000,"empty":4679,"full":2075,"on_shipper":300,"on_consignee":0,"shortage":0,"acc_shortage":522,"booking":189,"acc_booking":50866,"fulfillment":189,"acc_fulfillment":50344,"transfer_cost":0.0,"port_name":"Bremerhaven","position":{"lat":53.549999,"lng":8.583333},"status":"surplus"},{"frame_index":397,"name":"ports_1","capacity":10000,"empty":373,"full":95,"on_shipper":26,"on_consignee":0,"shortage":0,"acc_shortage":0,"booking":11,"acc_booking":3403,"fulfillment":11,"acc_fulfillment":3403,"transfer_cost":0.0,"port_name":"Durban","position":{"lat":-29.8579,"lng":31.0292},"status":"surplus"},{"frame_index":397,"name":"ports_2","capacity":10000,"empty":760,"full":195,"on_shipper":21,"on_consignee":0,"shortage":0,"acc_shortage":233,"booking":11,"acc_booking":3380,"fulfillment":11,"acc_fulfillment":3147,"transfer_cost":0.0,"port_name":"Itagual","position":{"lat":-22.85222,"lng":-43.77528},"status":"surplus"},{"frame_index":397,"name":"ports_3","capacity":10000,"empty":1578,"full":1717,"on_shipper":113,"on_consignee":0,"shortage":0,"acc_shortage":0,"booking":63,"acc_booking":19335,"fulfillment":63,"acc_fulfillment":19335,"transfer_cost":0.0,"port_name":"LeHavre","position":{"lat":49.490002,"lng":0.1},"status":"surplus"},{"frame_index":397,"name":"ports_4","capacity":10000,"empty":1963,"full":1418,"on_shipper":102,"on_consignee":0,"shortage":0,"acc_shortage":0,"booking":53,"acc_booking":16157,"fulfillment":53,"acc_fulfillment":16157,"transfer_cost":0.0,"port_name":"Los Angeles","position":{"lat":34.052235,"lng":-118.243683},"status":"surplus"},{"frame_index":397,"name":"ports_5","capacity":10000,"empty":938,"full":425,"on_shipper":89,"on_consignee":0,"shortage":0,"acc_shortage":123,"booking":46,"acc_booking":16216,"fulfillment":46,"acc_fulfillment":16093,"transfer_cost":0.0,"port_name":"Manzanillo","position":{"lat":19.11695,"lng":-104.34214},"status":"surplus"},{"frame_index":397,"name":"ports_6","capacity":10000,"empty":0,"full":447,"on_shipper":0,"on_consignee":0,"shortage":17,"acc_shortage":645,"booking":17,"acc_booking":4973,"fulfillment":0,"acc_fulfillment":4328,"transfer_cost":0.0,"port_name":"Melbourne","position":{"lat":-37.840935,"lng":144.946457},"status":"demand"},{"frame_index":397,"name":"ports_7","capacity":10000,"empty":2109,"full":591,"on_shipper":38,"on_consignee":0,"shortage":0,"acc_shortage":0,"booking":16,"acc_booking":4976,"fulfillment":16,"acc_fulfillment":4976,"transfer_cost":0.0,"port_name":"Montreal","position":{"lat":45.516136,"lng":-73.65683},"status":"surplus"},{"frame_index":397,"name":"ports_8","capacity":10000,"empty":1813,"full":174,"on_shipper":54,"on_consignee":0,"shortage":0,"acc_shortage":0,"booking":32,"acc_booking":9712,"fulfillment":32,"acc_fulfillment":9712,"transfer_cost":0.0,"port_name":"New York","position":{"lat":40.73061,"lng":-73.935242},"status":"surplus"},{"frame_index":397,"name":"ports_9","capacity":10000,"empty":1333,"full":292,"on_shipper":72,"on_consignee":0,"shortage":0,"acc_shortage":0,"booking":34,"acc_booking":9693,"fulfillment":34,"acc_fulfillment":9693,"transfer_cost":0.0,"port_name":"Oakland","position":{"lat":37.804363,"lng":-122.271111},"status":"surplus"},{"frame_index":397,"name":"ports_10","capacity":10000,"empty":742,"full":747,"on_shipper":26,"on_consignee":0,"shortage":0,"acc_shortage":0,"booking":17,"acc_booking":4961,"fulfillment":17,"acc_fulfillment":4961,"transfer_cost":0.0,"port_name":"Prince Rupert","position":{"lat":54.312519,"lng":-130.305405},"status":"surplus"},{"frame_index":397,"name":"ports_11","capacity":10000,"empty":467,"full":1353,"on_shipper":106,"on_consignee":0,"shortage":0,"acc_shortage":0,"booking":64,"acc_booking":19278,"fulfillment":64,"acc_fulfillment":19278,"transfer_cost":0.0,"port_name":"Pusan","position":{"lat":35.166668,"lng":129.066666},"status":"surplus"},{"frame_index":397,"name":"ports_12","capacity":10000,"empty":851,"full":2239,"on_shipper":112,"on_consignee":95,"shortage":0,"acc_shortage":0,"booking":76,"acc_booking":25778,"fulfillment":76,"acc_fulfillment":25778,"transfer_cost":108.0,"port_name":"Qingdao","position":{"lat":36.066898,"lng":120.382698},"status":"surplus"},{"frame_index":397,"name":"ports_13","capacity":10000,"empty":235,"full":311,"on_shipper":14,"on_consignee":0,"shortage":0,"acc_shortage":123,"booking":11,"acc_booking":3371,"fulfillment":11,"acc_fulfillment":3248,"transfer_cost":0.0,"port_name":"San Antonio","position":{"lat":29.424349,"lng":-98.491142},"status":"surplus"},{"frame_index":397,"name":"ports_14","capacity":10000,"empty":346,"full":533,"on_shipper":24,"on_consignee":0,"shortage":0,"acc_shortage":697,"booking":13,"acc_booking":3418,"fulfillment":13,"acc_fulfillment":2721,"transfer_cost":0.0,"port_name":"Santos","position":{"lat":-23.96083,"lng":-46.33361},"status":"surplus"},{"frame_index":397,"name":"ports_15","capacity":10000,"empty":3399,"full":1630,"on_shipper":133,"on_consignee":0,"shortage":0,"acc_shortage":0,"booking":77,"acc_booking":22510,"fulfillment":77,"acc_fulfillment":22510,"transfer_cost":0.0,"port_name":"Seattle","position":{"lat":47.608013,"lng":-122.335167},"status":"surplus"},{"frame_index":397,"name":"ports_16","capacity":10000,"empty":650,"full":3078,"on_shipper":194,"on_consignee":0,"shortage":0,"acc_shortage":0,"booking":114,"acc_booking":32132,"fulfillment":114,"acc_fulfillment":32132,"transfer_cost":0.0,"port_name":"Shanghai","position":{"lat":31.224361,"lng":121.46917},"status":"surplus"},{"frame_index":397,"name":"ports_17","capacity":10000,"empty":2504,"full":673,"on_shipper":92,"on_consignee":0,"shortage":0,"acc_shortage":40,"booking":43,"acc_booking":12969,"fulfillment":43,"acc_fulfillment":12929,"transfer_cost":0.0,"port_name":"Singapore","position":{"lat":1.29027,"lng":103.851959},"status":"surplus"},{"frame_index":397,"name":"ports_18","capacity":10000,"empty":278,"full":81,"on_shipper":23,"on_consignee":0,"shortage":0,"acc_shortage":419,"booking":15,"acc_booking":4944,"fulfillment":15,"acc_fulfillment":4525,"transfer_cost":0.0,"port_name":"Sydney","position":{"lat":-33.865143,"lng":151.2099},"status":"surplus"},{"frame_index":397,"name":"ports_19","capacity":10000,"empty":343,"full":704,"on_shipper":37,"on_consignee":0,"shortage":0,"acc_shortage":0,"booking":20,"acc_booking":6613,"fulfillment":20,"acc_fulfillment":6613,"transfer_cost":0.0,"port_name":"Vancouver","position":{"lat":49.246292,"lng":-123.116226},"status":"surplus"},{"frame_index":397,"name":"ports_20","capacity":10000,"empty":636,"full":1089,"on_shipper":123,"on_consignee":0,"shortage":0,"acc_shortage":0,"booking":77,"acc_booking":22244,"fulfillment":77,"acc_fulfillment":22244,"transfer_cost":0.0,"port_name":"Yantian","position":{"lat":26.8533,"lng":119.8575},"status":"surplus"},{"frame_index":397,"name":"ports_21","capacity":10000,"empty":235,"full":1056,"on_shipper":157,"on_consignee":0,"shortage":0,"acc_shortage":1887,"booking":76,"acc_booking":21327,"fulfillment":76,"acc_fulfillment":19440,"transfer_cost":0.0,"port_name":"Yokohama","position":{"lat":35.443707,"lng":139.638031},"status":"demand"}]