[{"frame_index":1102,"name":"ports_0","capacity":10000,"empty":0,"full":4034,"on_shipper":0,"on_consignee":0,"shortage":49,"acc_shortage":2746,"booking":49,"acc_booking":142731,"fulfillment":0,"acc_fulfillment":139985,"transfer_cost":0.0,"port_name":"Bremerhaven","position":{"lat":53.549999,"lng":8.583333},"status":"demand"},{"frame_index":1102,"name":"ports_1","capacity":10000,"empty":309,"full":240,"on_shipper":3,"on_consignee":0,"shortage":0,"acc_shortage":113,"booking":3,"acc_booking":9484,"fulfillment":3,"acc_fulfillment":9371,"transfer_cost":0.0,"port_name":"Durban","position":{"lat":-29.8579,"lng":31.0292},"status":"surplus"},{"frame_index":1102,"name":"ports_2","capacity":10000,"empty":710,"full":404,"on_shipper":6,"on_consignee":0,"shortage":0,"acc_shortage":298,"booking":3,"acc_booking":9447,"fulfillment":3,"acc_fulfillment":9149,"transfer_cost":0.0,"port_name":"Itagual","position":{"lat":-22.85222,"lng":-43.77528},"status":"surplus"},{"frame_index":1102,"name":"ports_3","capacity":10000,"empty":5470,"full":1294,"on_shipper":30,"on_consignee":0,"shortage":0,"acc_shortage":0,"booking":18,"acc_booking":53978,"fulfillment":18,"acc_fulfillment":53978,"transfer_cost":0.0,"port_name":"LeHavre","position":{"lat":49.490002,"lng":0.1},"status":"surplus"},{"frame_index":1102,"name":"ports_4","capacity":10000,"empty":844,"full":91,"on_shipper":30,"on_consignee":0,"shortage":0,"acc_shortage":290,"booking":15,"acc_booking":45207,"fulfillment":15,"acc_fulfillment":44917,"transfer_cost":0.0,"port_name":"Los Angeles","position":{"lat":34.052235,"lng":-118.243683},"status":"surplus"},{"frame_index":1102,"name":"ports_5","capacity":10000,"empty":375,"full":758,"on_shipper":25,"on_consignee":0,"shortage":0,"acc_shortage":194,"booking":15,"acc_booking":45281,"fulfillment":15,"acc_fulfillment":45087,"transfer_cost":0.0,"port_name":"Manzanillo","position":{"lat":19.11695,"lng":-104.34214},"status":"surplus"},{"frame_index":1102,"name":"ports_6","capacity":10000,"empty":262,"full":325,"on_shipper":6,"on_consignee":0,"shortage":0,"acc_shortage":2377,"booking":5,"acc_booking":13918,"fulfillment":5,"acc_fulfillment":11541,"transfer_cost":0.0,"port_name":"Melbourne","position":{"lat":-37.840935,"lng":144.946457},"status":"surplus"},{"frame_index":1102,"name":"ports_7","capacity":10000,"empty":1319,"full":0,"on_shipper":5,"on_consignee":315,"shortage":0,"acc_shortage":0,"booking":5,"acc_booking":13918,"fulfillment":5,"acc_fulfillment":13918,"transfer_cost":0.0,"port_name":"Montreal","position":{"lat":45.516136,"lng":-73.65683},"status":"surplus"},{"frame_index":1102,"name":"ports_8","capacity":10000,"empty":3364,"full":14,"on_shipper":17,"on_consignee":0,"shortage":0,"acc_shortage":136,"booking":10,"acc_booking":27224,"fulfillment":10,"acc_fulfillment":27088,"transfer_cost":0.0,"port_name":"New York","position":{"lat":40.73061,"lng":-73.935242},"status":"surplus"},{"frame_index":1102,"name":"ports_9","capacity":10000,"empty":159,"full":0,"on_shipper":10,"on_consignee":1486,"shortage":0,"acc_shortage":45,"booking":10,"acc_booking":27279,"fulfillment":10,"acc_fulfillment":27234,"transfer_cost":636.0,"port_name":"Oakland","position":{"lat":37.804363,"lng":-122.271111},"status":"surplus"},{"frame_index":1102,"name":"ports_10","capacity":10000,"empty":1226,"full":58,"on_shipper":7,"on_consignee":435,"shortage":0,"acc_shortage":314,"booking":5,"acc_booking":13902,"fulfillment":5,"acc_fulfillment":13588,"transfer_cost":0.0,"port_name":"Prince Rupert","position":{"lat":54.312519,"lng":-130.305405},"status":"surplus"},{"frame_index":1102,"name":"ports_11","capacity":10000,"empty":1565,"full":1157,"on_shipper":29,"on_consignee":0,"shortage":0,"acc_shortage":204,"booking":18,"acc_booking":53943,"fulfillment":18,"acc_fulfillment":53739,"transfer_cost":0.0,"port_name":"Pusan","position":{"lat":35.166668,"lng":129.066666},"status":"surplus"},{"frame_index":1102,"name":"ports_12","capacity":10000,"empty":2515,"full":2088,"on_shipper":37,"on_consignee":0,"shortage":0,"acc_shortage":0,"booking":22,"acc_booking":72016,"fulfillment":22,"acc_fulfillment":72016,"transfer_cost":0.0,"port_name":"Qingdao","position":{"lat":36.066898,"lng":120.382698},"status":"surplus"},{"frame_index":1102,"name":"ports_13","capacity":10000,"empty":163,"full":387,"on_shipper":5,"on_consignee":0,"shortage":0,"acc_shortage":459,"booking":3,"acc_booking":9447,"fulfillment":3,"acc_fulfillment":8988,"transfer_cost":0.0,"port_name":"San Antonio","position":{"lat":29.424349,"lng":-98.491142},"status":"surplus"},{"frame_index":1102,"name":"ports_14","capacity":10000,"empty":121,"full":197,"on_shipper":4,"on_consignee":0,"shortage":0,"acc_shortage":1294,"booking":3,"acc_booking":9504,"fulfillment":3,"acc_fulfillment":8210,"transfer_cost":0.0,"port_name":"Santos","position":{"lat":-23.96083,"lng":-46.33361},"status":"surplus"},{"frame_index":1102,"name":"ports_15","capacity":10000,"empty":600,"full":2084,"on_shipper":45,"on_consignee":0,"shortage":0,"acc_shortage":1985,"booking":21,"acc_booking":62948,"fulfillment":21,"acc_fulfillment":60963,"transfer_cost":0.0,"port_name":"Seattle","position":{"lat":47.608013,"lng":-122.335167},"status":"surplus"},{"frame_index":1102,"name":"ports_16","capacity":10000,"empty":1594,"full":2196,"on_shipper":49,"on_consignee":0,"shortage":0,"acc_shortage":817,"booking":29,"acc_booking":89747,"fulfillment":29,"acc_fulfillment":88930,"transfer_cost":0.0,"port_name":"Shanghai","position":{"lat":31.224361,"lng":121.46917},"status":"surplus"},{"frame_index":1102,"name":"ports_17","capacity":10000,"empty":1158,"full":1085,"on_shipper":24,"on_consignee":0,"shortage":0,"acc_shortage":619,"booking":12,"acc_booking":36246,"fulfillment":12,"acc_fulfillment":35627,"transfer_cost":0.0,"port_name":"Singapore","position":{"lat":1.29027,"lng":103.851959},"status":"surplus"},{"frame_index":1102,"name":"ports_18","capacity":10000,"empty":449,"full":113,"on_shipper":10,"on_consignee":0,"shortage":0,"acc_shortage":1374,"booking":5,"acc_booking":13909,"fulfillment":5,"acc_fulfillment":12535,"transfer_cost":0.0,"port_name":"Sydney","position":{"lat":-33.865143,"lng":151.2099},"status":"surplus"},{"frame_index":1102,"name":"ports_19","capacity":10000,"empty":484,"full":1001,"on_shipper":11,"on_consignee":0,"shortage":0,"acc_shortage":0,"booking":6,"acc_booking":18426,"fulfillment":6,"acc_fulfillment":18426,"transfer_cost":0.0,"port_name":"Vancouver","position":{"lat":49.246292,"lng":-123.116226},"status":"surplus"},{"frame_index":1102,"name":"ports_20","capacity":10000,"empty":1099,"full":1480,"on_shipper":38,"on_consignee":0,"shortage":0,"acc_shortage":2447,"booking":22,"acc_booking":62765,"fulfillment":22,"acc_fulfillment":60318,"transfer_cost":0.0,"port_name":"Yantian","position":{"lat":26.8533,"lng":119.8575},"status":"surplus"},{"frame_index":1102,"name":"ports_21","capacity":10000,"empty":753,"full":1277,"on_shipper":22,"on_consignee":0,"shortage":0,"acc_shortage":10285,"booking":10,"acc_booking":59759,"fulfillment":10,"acc_fulfillment":49474,"transfer_cost":0.0,"port_name":"Yokohama","position":{"lat":35.443707,"lng":139.638031},"status":"surplus"}]