[{"frame_index":870,"name":"ports_0","capacity":10000,"empty":965,"full":2245,"on_shipper":253,"on_consignee":273,"shortage":0,"acc_shortage":522,"booking":144,"acc_booking":113133,"fulfillment":144,"acc_fulfillment":112611,"transfer_cost":0.0,"port_name":"Bremerhaven","position":{"lat":53.549999,"lng":8.583333},"status":"surplus"},{"frame_index":870,"name":"ports_1","capacity":10000,"empty":6,"full":280,"on_shipper":15,"on_consignee":0,"shortage":0,"acc_shortage":10,"booking":10,"acc_booking":7513,"fulfillment":10,"acc_fulfillment":7503,"transfer_cost":0.0,"port_name":"Durban","position":{"lat":-29.8579,"lng":31.0292},"status":"balance"},{"frame_index":870,"name":"ports_2","capacity":10000,"empty":394,"full":298,"on_shipper":16,"on_consignee":0,"shortage":0,"acc_shortage":298,"booking":10,"acc_booking":7479,"fulfillment":10,"acc_fulfillment":7181,"transfer_cost":0.0,"port_name":"Itagual","position":{"lat":-22.85222,"lng":-43.77528},"status":"surplus"},{"frame_index":870,"name":"ports_3","capacity":10000,"empty":3759,"full":2102,"on_shipper":75,"on_consignee":0,"shortage":0,"acc_shortage":0,"booking":54,"acc_booking":42807,"fulfillment":54,"acc_fulfillment":42807,"transfer_cost":0.0,"port_name":"LeHavre","position":{"lat":49.490002,"lng":0.1},"status":"surplus"},{"frame_index":870,"name":"ports_4","capacity":10000,"empty":1451,"full":1390,"on_shipper":78,"on_consignee":0,"shortage":0,"acc_shortage":290,"booking":47,"acc_booking":35848,"fulfillment":47,"acc_fulfillment":35558,"transfer_cost":0.0,"port_name":"Los Angeles","position":{"lat":34.052235,"lng":-118.243683},"status":"surplus"},{"frame_index":870,"name":"ports_5","capacity":10000,"empty":329,"full":273,"on_shipper":80,"on_consignee":0,"shortage":0,"acc_shortage":123,"booking":52,"acc_booking":35956,"fulfillment":52,"acc_fulfillment":35833,"transfer_cost":0.0,"port_name":"Manzanillo","position":{"lat":19.11695,"lng":-104.34214},"status":"surplus"},{"frame_index":870,"name":"ports_6","capacity":10000,"empty":3,"full":476,"on_shipper":27,"on_consignee":0,"shortage":0,"acc_shortage":1654,"booking":14,"acc_booking":11027,"fulfillment":14,"acc_fulfillment":9373,"transfer_cost":0.0,"port_name":"Melbourne","position":{"lat":-37.840935,"lng":144.946457},"status":"demand"},{"frame_index":870,"name":"ports_7","capacity":10000,"empty":509,"full":380,"on_shipper":14,"on_consignee":0,"shortage":0,"acc_shortage":0,"booking":14,"acc_booking":11039,"fulfillment":14,"acc_fulfillment":11039,"transfer_cost":0.0,"port_name":"Montreal","position":{"lat":45.516136,"lng":-73.65683},"status":"surplus"},{"frame_index":870,"name":"ports_8","capacity":10000,"empty":3548,"full":666,"on_shipper":60,"on_consignee":0,"shortage":0,"acc_shortage":136,"booking":26,"acc_booking":21576,"fulfillment":26,"acc_fulfillment":21440,"transfer_cost":0.0,"port_name":"New York","position":{"lat":40.73061,"lng":-73.935242},"status":"surplus"},{"frame_index":870,"name":"ports_9","capacity":10000,"empty":422,"full":1127,"on_shipper":54,"on_consignee":0,"shortage":0,"acc_shortage":45,"booking":29,"acc_booking":21586,"fulfillment":29,"acc_fulfillment":21541,"transfer_cost":0.0,"port_name":"Oakland","position":{"lat":37.804363,"lng":-122.271111},"status":"surplus"},{"frame_index":870,"name":"ports_10","capacity":10000,"empty":1133,"full":316,"on_shipper":37,"on_consignee":0,"shortage":0,"acc_shortage":314,"booking":16,"acc_booking":11080,"fulfillment":16,"acc_fulfillment":10766,"transfer_cost":0.0,"port_name":"Prince Rupert","position":{"lat":54.312519,"lng":-130.305405},"status":"surplus"},{"frame_index":870,"name":"ports_11","capacity":10000,"empty":549,"full":2785,"on_shipper":83,"on_consignee":0,"shortage":0,"acc_shortage":204,"booking":57,"acc_booking":42763,"fulfillment":57,"acc_fulfillment":42559,"transfer_cost":0.0,"port_name":"Pusan","position":{"lat":35.166668,"lng":129.066666},"status":"surplus"},{"frame_index":870,"name":"ports_12","capacity":10000,"empty":503,"full":2771,"on_shipper":141,"on_consignee":60,"shortage":0,"acc_shortage":0,"booking":78,"acc_booking":57146,"fulfillment":78,"acc_fulfillment":57146,"transfer_cost":0.0,"port_name":"Qingdao","position":{"lat":36.066898,"lng":120.382698},"status":"surplus"},{"frame_index":870,"name":"ports_13","capacity":10000,"empty":263,"full":250,"on_shipper":14,"on_consignee":0,"shortage":0,"acc_shortage":449,"booking":9,"acc_booking":7484,"fulfillment":9,"acc_fulfillment":7035,"transfer_cost":0.0,"port_name":"San Antonio","position":{"lat":29.424349,"lng":-98.491142},"status":"surplus"},{"frame_index":870,"name":"ports_14","capacity":10000,"empty":113,"full":490,"on_shipper":14,"on_consignee":0,"shortage":0,"acc_shortage":819,"booking":11,"acc_booking":7537,"fulfillment":11,"acc_fulfillment":6718,"transfer_cost":0.0,"port_name":"Santos","position":{"lat":-23.96083,"lng":-46.33361},"status":"surplus"},{"frame_index":870,"name":"ports_15","capacity":10000,"empty":1218,"full":1225,"on_shipper":87,"on_consignee":0,"shortage":0,"acc_shortage":0,"booking":62,"acc_booking":49942,"fulfillment":62,"acc_fulfillment":49942,"transfer_cost":0.0,"port_name":"Seattle","position":{"lat":47.608013,"lng":-122.335167},"status":"surplus"},{"frame_index":870,"name":"ports_16","capacity":10000,"empty":52,"full":3204,"on_shipper":110,"on_consignee":0,"shortage":0,"acc_shortage":760,"booking":95,"acc_booking":71059,"fulfillment":95,"acc_fulfillment":70299,"transfer_cost":0.0,"port_name":"Shanghai","position":{"lat":31.224361,"lng":121.46917},"status":"demand"},{"frame_index":870,"name":"ports_17","capacity":10000,"empty":1909,"full":966,"on_shipper":60,"on_consignee":0,"shortage":0,"acc_shortage":283,"booking":38,"acc_booking":28747,"fulfillment":38,"acc_fulfillment":28464,"transfer_cost":0.0,"port_name":"Singapore","position":{"lat":1.29027,"lng":103.851959},"status":"surplus"},{"frame_index":870,"name":"ports_18","capacity":10000,"empty":230,"full":995,"on_shipper":25,"on_consignee":0,"shortage":0,"acc_shortage":1374,"booking":13,"acc_booking":11052,"fulfillment":13,"acc_fulfillment":9678,"transfer_cost":0.0,"port_name":"Sydney","position":{"lat":-33.865143,"lng":151.2099},"status":"surplus"},{"frame_index":870,"name":"ports_19","capacity":10000,"empty":634,"full":844,"on_shipper":32,"on_consignee":0,"shortage":0,"acc_shortage":0,"booking":19,"acc_booking":14620,"fulfillment":19,"acc_fulfillment":14620,"transfer_cost":0.0,"port_name":"Vancouver","position":{"lat":49.246292,"lng":-123.116226},"status":"surplus"},{"frame_index":870,"name":"ports_20","capacity":10000,"empty":0,"full":1573,"on_shipper":0,"on_consignee":420,"shortage":67,"acc_shortage":1260,"booking":67,"acc_booking":49651,"fulfillment":0,"acc_fulfillment":48391,"transfer_cost":0.0,"port_name":"Yantian","position":{"lat":26.8533,"lng":119.8575},"status":"demand"},{"frame_index":870,"name":"ports_21","capacity":10000,"empty":86,"full":504,"on_shipper":95,"on_consignee":0,"shortage":0,"acc_shortage":7067,"booking":63,"acc_booking":47457,"fulfillment":63,"acc_fulfillment":40390,"transfer_cost":0.0,"port_name":"Yokohama","position":{"lat":35.443707,"lng":139.638031},"status":"demand"}]