[{"frame_index":563,"name":"ports_0","capacity":10000,"empty":6503,"full":393,"on_shipper":69,"on_consignee":0,"shortage":0,"acc_shortage":522,"booking":58,"acc_booking":71501,"fulfillment":58,"acc_fulfillment":70979,"transfer_cost":0.0,"port_name":"Bremerhaven","position":{"lat":53.549999,"lng":8.583333},"status":"surplus"},{"frame_index":563,"name":"ports_1","capacity":10000,"empty":391,"full":203,"on_shipper":4,"on_consignee":0,"shortage":0,"acc_shortage":0,"booking":4,"acc_booking":4769,"fulfillment":4,"acc_fulfillment":4769,"transfer_cost":0.0,"port_name":"Durban","position":{"lat":-29.8579,"lng":31.0292},"status":"surplus"},{"frame_index":563,"name":"ports_2","capacity":10000,"empty":318,"full":62,"on_shipper":5,"on_consignee":0,"shortage":0,"acc_shortage":233,"booking":4,"acc_booking":4743,"fulfillment":4,"acc_fulfillment":4510,"transfer_cost":0.0,"port_name":"Itagual","position":{"lat":-22.85222,"lng":-43.77528},"status":"surplus"},{"frame_index":563,"name":"ports_3","capacity":10000,"empty":748,"full":1538,"on_shipper":27,"on_consignee":0,"shortage":0,"acc_shortage":0,"booking":22,"acc_booking":27107,"fulfillment":22,"acc_fulfillment":27107,"transfer_cost":0.0,"port_name":"LeHavre","position":{"lat":49.490002,"lng":0.1},"status":"surplus"},{"frame_index":563,"name":"ports_4","capacity":10000,"empty":1612,"full":221,"on_shipper":22,"on_consignee":0,"shortage":0,"acc_shortage":0,"booking":19,"acc_booking":22671,"fulfillment":19,"acc_fulfillment":22671,"transfer_cost":0.0,"port_name":"Los Angeles","position":{"lat":34.052235,"lng":-118.243683},"status":"surplus"},{"frame_index":563,"name":"ports_5","capacity":10000,"empty":2090,"full":320,"on_shipper":23,"on_consignee":0,"shortage":0,"acc_shortage":123,"booking":18,"acc_booking":22713,"fulfillment":18,"acc_fulfillment":22590,"transfer_cost":0.0,"port_name":"Manzanillo","position":{"lat":19.11695,"lng":-104.34214},"status":"surplus"},{"frame_index":563,"name":"ports_6","capacity":10000,"empty":533,"full":27,"on_shipper":8,"on_consignee":0,"shortage":0,"acc_shortage":1259,"booking":6,"acc_booking":6981,"fulfillment":6,"acc_fulfillment":5722,"transfer_cost":0.0,"port_name":"Melbourne","position":{"lat":-37.840935,"lng":144.946457},"status":"surplus"},{"frame_index":563,"name":"ports_7","capacity":10000,"empty":1543,"full":132,"on_shipper":7,"on_consignee":0,"shortage":0,"acc_shortage":0,"booking":6,"acc_booking":6984,"fulfillment":6,"acc_fulfillment":6984,"transfer_cost":0.0,"port_name":"Montreal","position":{"lat":45.516136,"lng":-73.65683},"status":"surplus"},{"frame_index":563,"name":"ports_8","capacity":10000,"empty":2017,"full":115,"on_shipper":16,"on_consignee":0,"shortage":0,"acc_shortage":0,"booking":11,"acc_booking":13650,"fulfillment":11,"acc_fulfillment":13650,"transfer_cost":0.0,"port_name":"New York","position":{"lat":40.73061,"lng":-73.935242},"status":"surplus"},{"frame_index":563,"name":"ports_9","capacity":10000,"empty":711,"full":39,"on_shipper":15,"on_consignee":0,"shortage":0,"acc_shortage":45,"booking":11,"acc_booking":13676,"fulfillment":11,"acc_fulfillment":13631,"transfer_cost":0.0,"port_name":"Oakland","position":{"lat":37.804363,"lng":-122.271111},"status":"surplus"},{"frame_index":563,"name":"ports_10","capacity":10000,"empty":924,"full":132,"on_shipper":9,"on_consignee":0,"shortage":0,"acc_shortage":314,"booking":7,"acc_booking":7000,"fulfillment":7,"acc_fulfillment":6686,"transfer_cost":0.0,"port_name":"Prince Rupert","position":{"lat":54.312519,"lng":-130.305405},"status":"surplus"},{"frame_index":563,"name":"ports_11","capacity":10000,"empty":116,"full":2066,"on_shipper":25,"on_consignee":0,"shortage":0,"acc_shortage":204,"booking":21,"acc_booking":27053,"fulfillment":21,"acc_fulfillment":26849,"transfer_cost":0.0,"port_name":"Pusan","position":{"lat":35.166668,"lng":129.066666},"status":"balance"},{"frame_index":563,"name":"ports_12","capacity":10000,"empty":3204,"full":624,"on_shipper":38,"on_consignee":0,"shortage":0,"acc_shortage":0,"booking":30,"acc_booking":36188,"fulfillment":30,"acc_fulfillment":36188,"transfer_cost":0.0,"port_name":"Qingdao","position":{"lat":36.066898,"lng":120.382698},"status":"surplus"},{"frame_index":563,"name":"ports_13","capacity":10000,"empty":136,"full":249,"on_shipper":6,"on_consignee":0,"shortage":0,"acc_shortage":286,"booking":4,"acc_booking":4736,"fulfillment":4,"acc_fulfillment":4450,"transfer_cost":0.0,"port_name":"San Antonio","position":{"lat":29.424349,"lng":-98.491142},"status":"surplus"},{"frame_index":563,"name":"ports_14","capacity":10000,"empty":462,"full":36,"on_shipper":4,"on_consignee":0,"shortage":0,"acc_shortage":762,"booking":4,"acc_booking":4785,"fulfillment":4,"acc_fulfillment":4023,"transfer_cost":0.0,"port_name":"Santos","position":{"lat":-23.96083,"lng":-46.33361},"status":"surplus"},{"frame_index":563,"name":"ports_15","capacity":10000,"empty":2412,"full":2373,"on_shipper":25,"on_consignee":0,"shortage":0,"acc_shortage":0,"booking":25,"acc_booking":31574,"fulfillment":25,"acc_fulfillment":31574,"transfer_cost":0.0,"port_name":"Seattle","position":{"lat":47.608013,"lng":-122.335167},"status":"surplus"},{"frame_index":563,"name":"ports_16","capacity":10000,"empty":795,"full":2379,"on_shipper":53,"on_consignee":0,"shortage":0,"acc_shortage":470,"booking":41,"acc_booking":45054,"fulfillment":41,"acc_fulfillment":44584,"transfer_cost":0.0,"port_name":"Shanghai","position":{"lat":31.224361,"lng":121.46917},"status":"surplus"},{"frame_index":563,"name":"ports_17","capacity":10000,"empty":983,"full":503,"on_shipper":17,"on_consignee":0,"shortage":0,"acc_shortage":40,"booking":15,"acc_booking":18194,"fulfillment":15,"acc_fulfillment":18154,"transfer_cost":0.0,"port_name":"Singapore","position":{"lat":1.29027,"lng":103.851959},"status":"surplus"},{"frame_index":563,"name":"ports_18","capacity":10000,"empty":710,"full":103,"on_shipper":6,"on_consignee":0,"shortage":0,"acc_shortage":957,"booking":6,"acc_booking":6955,"fulfillment":6,"acc_fulfillment":5998,"transfer_cost":0.0,"port_name":"Sydney","position":{"lat":-33.865143,"lng":151.2099},"status":"surplus"},{"frame_index":563,"name":"ports_19","capacity":10000,"empty":939,"full":236,"on_shipper":12,"on_consignee":0,"shortage":0,"acc_shortage":0,"booking":8,"acc_booking":9284,"fulfillment":8,"acc_fulfillment":9284,"transfer_cost":0.0,"port_name":"Vancouver","position":{"lat":49.246292,"lng":-123.116226},"status":"surplus"},{"frame_index":563,"name":"ports_20","capacity":10000,"empty":693,"full":1614,"on_shipper":28,"on_consignee":342,"shortage":0,"acc_shortage":395,"booking":26,"acc_booking":31381,"fulfillment":26,"acc_fulfillment":30986,"transfer_cost":0.0,"port_name":"Yantian","position":{"lat":26.8533,"lng":119.8575},"status":"surplus"},{"frame_index":563,"name":"ports_21","capacity":10000,"empty":1181,"full":115,"on_shipper":18,"on_consignee":0,"shortage":0,"acc_shortage":3258,"booking":18,"acc_booking":29870,"fulfillment":18,"acc_fulfillment":26612,"transfer_cost":0.0,"port_name":"Yokohama","position":{"lat":35.443707,"lng":139.638031},"status":"surplus"}]