[{"frame_index":216,"name":"ports_0","capacity":10000,"empty":3980,"full":1709,"on_shipper":106,"on_consignee":0,"shortage":0,"acc_shortage":0,"booking":54,"acc_booking":28166,"fulfillment":54,"acc_fulfillment":28166,"transfer_cost":0.0,"port_name":"Bremerhaven","position":{"lat":53.549999,"lng":8.583333},"status":"surplus"},{"frame_index":216,"name":"ports_1","capacity":10000,"empty":657,"full":219,"on_shipper":9,"on_consignee":0,"shortage":0,"acc_shortage":0,"booking":5,"acc_booking":1885,"fulfillment":5,"acc_fulfillment":1885,"transfer_cost":0.0,"port_name":"Durban","position":{"lat":-29.8579,"lng":31.0292},"status":"surplus"},{"frame_index":216,"name":"ports_2","capacity":10000,"empty":827,"full":39,"on_shipper":11,"on_consignee":0,"shortage":0,"acc_shortage":233,"booking":5,"acc_booking":1874,"fulfillment":5,"acc_fulfillment":1641,"transfer_cost":0.0,"port_name":"Itagual","position":{"lat":-22.85222,"lng":-43.77528},"status":"surplus"},{"frame_index":216,"name":"ports_3","capacity":10000,"empty":1901,"full":90,"on_shipper":42,"on_consignee":87,"shortage":0,"acc_shortage":0,"booking":23,"acc_booking":10699,"fulfillment":23,"acc_fulfillment":10699,"transfer_cost":815.0,"port_name":"LeHavre","position":{"lat":49.490002,"lng":0.1},"status":"surplus"},{"frame_index":216,"name":"ports_4","capacity":10000,"empty":1568,"full":425,"on_shipper":32,"on_consignee":0,"shortage":0,"acc_shortage":0,"booking":19,"acc_booking":8939,"fulfillment":19,"acc_fulfillment":8939,"transfer_cost":0.0,"port_name":"Los Angeles","position":{"lat":34.052235,"lng":-118.243683},"status":"surplus"},{"frame_index":216,"name":"ports_5","capacity":10000,"empty":1312,"full":98,"on_shipper":21,"on_consignee":0,"shortage":0,"acc_shortage":0,"booking":18,"acc_booking":8971,"fulfillment":18,"acc_fulfillment":8971,"transfer_cost":0.0,"port_name":"Manzanillo","position":{"lat":19.11695,"lng":-104.34214},"status":"surplus"},{"frame_index":216,"name":"ports_6","capacity":10000,"empty":293,"full":207,"on_shipper":9,"on_consignee":0,"shortage":0,"acc_shortage":0,"booking":6,"acc_booking":2747,"fulfillment":6,"acc_fulfillment":2747,"transfer_cost":0.0,"port_name":"Melbourne","position":{"lat":-37.840935,"lng":144.946457},"status":"surplus"},{"frame_index":216,"name":"ports_7","capacity":10000,"empty":2321,"full":104,"on_shipper":10,"on_consignee":0,"shortage":0,"acc_shortage":0,"booking":6,"acc_booking":2748,"fulfillment":6,"acc_fulfillment":2748,"transfer_cost":0.0,"port_name":"Montreal","position":{"lat":45.516136,"lng":-73.65683},"status":"surplus"},{"frame_index":216,"name":"ports_8","capacity":10000,"empty":2930,"full":1500,"on_shipper":19,"on_consignee":0,"shortage":0,"acc_shortage":0,"booking":12,"acc_booking":5379,"fulfillment":12,"acc_fulfillment":5379,"transfer_cost":0.0,"port_name":"New York","position":{"lat":40.73061,"lng":-73.935242},"status":"surplus"},{"frame_index":216,"name":"ports_9","capacity":10000,"empty":1838,"full":92,"on_shipper":21,"on_consignee":0,"shortage":0,"acc_shortage":0,"booking":11,"acc_booking":5363,"fulfillment":11,"acc_fulfillment":5363,"transfer_cost":0.0,"port_name":"Oakland","position":{"lat":37.804363,"lng":-122.271111},"status":"surplus"},{"frame_index":216,"name":"ports_10","capacity":10000,"empty":455,"full":629,"on_shipper":9,"on_consignee":0,"shortage":0,"acc_shortage":0,"booking":5,"acc_booking":2729,"fulfillment":5,"acc_fulfillment":2729,"transfer_cost":0.0,"port_name":"Prince Rupert","position":{"lat":54.312519,"lng":-130.305405},"status":"surplus"},{"frame_index":216,"name":"ports_11","capacity":10000,"empty":1721,"full":883,"on_shipper":42,"on_consignee":0,"shortage":0,"acc_shortage":0,"booking":24,"acc_booking":10669,"fulfillment":24,"acc_fulfillment":10669,"transfer_cost":0.0,"port_name":"Pusan","position":{"lat":35.166668,"lng":129.066666},"status":"surplus"},{"frame_index":216,"name":"ports_12","capacity":10000,"empty":1760,"full":1601,"on_shipper":59,"on_consignee":0,"shortage":0,"acc_shortage":0,"booking":27,"acc_booking":14235,"fulfillment":27,"acc_fulfillment":14235,"transfer_cost":0.0,"port_name":"Qingdao","position":{"lat":36.066898,"lng":120.382698},"status":"surplus"},{"frame_index":216,"name":"ports_13","capacity":10000,"empty":608,"full":39,"on_shipper":10,"on_consignee":0,"shortage":0,"acc_shortage":55,"booking":4,"acc_booking":1872,"fulfillment":4,"acc_fulfillment":1817,"transfer_cost":0.0,"port_name":"San Antonio","position":{"lat":29.424349,"lng":-98.491142},"status":"surplus"},{"frame_index":216,"name":"ports_14","capacity":10000,"empty":708,"full":14,"on_shipper":6,"on_consignee":0,"shortage":0,"acc_shortage":697,"booking":4,"acc_booking":1893,"fulfillment":4,"acc_fulfillment":1196,"transfer_cost":0.0,"port_name":"Santos","position":{"lat":-23.96083,"lng":-46.33361},"status":"surplus"},{"frame_index":216,"name":"ports_15","capacity":10000,"empty":2046,"full":786,"on_shipper":37,"on_consignee":0,"shortage":0,"acc_shortage":0,"booking":27,"acc_booking":12448,"fulfillment":27,"acc_fulfillment":12448,"transfer_cost":0.0,"port_name":"Seattle","position":{"lat":47.608013,"lng":-122.335167},"status":"surplus"},{"frame_index":216,"name":"ports_16","capacity":10000,"empty":753,"full":2057,"on_shipper":67,"on_consignee":0,"shortage":0,"acc_shortage":0,"booking":41,"acc_booking":17722,"fulfillment":41,"acc_fulfillment":17722,"transfer_cost":0.0,"port_name":"Shanghai","position":{"lat":31.224361,"lng":121.46917},"status":"surplus"},{"frame_index":216,"name":"ports_17","capacity":10000,"empty":118,"full":631,"on_shipper":22,"on_consignee":176,"shortage":0,"acc_shortage":40,"booking":15,"acc_booking":7176,"fulfillment":15,"acc_fulfillment":7136,"transfer_cost":0.0,"port_name":"Singapore","position":{"lat":1.29027,"lng":103.851959},"status":"balance"},{"frame_index":216,"name":"ports_18","capacity":10000,"empty":47,"full":221,"on_shipper":12,"on_consignee":0,"shortage":0,"acc_shortage":0,"booking":7,"acc_booking":2721,"fulfillment":7,"acc_fulfillment":2721,"transfer_cost":0.0,"port_name":"Sydney","position":{"lat":-33.865143,"lng":151.2099},"status":"balance"},{"frame_index":216,"name":"ports_19","capacity":10000,"empty":865,"full":158,"on_shipper":11,"on_consignee":0,"shortage":0,"acc_shortage":0,"booking":9,"acc_booking":3646,"fulfillment":9,"acc_fulfillment":3646,"transfer_cost":0.0,"port_name":"Vancouver","position":{"lat":49.246292,"lng":-123.116226},"status":"surplus"},{"frame_index":216,"name":"ports_20","capacity":10000,"empty":1538,"full":787,"on_shipper":49,"on_consignee":0,"shortage":0,"acc_shortage":0,"booking":29,"acc_booking":12271,"fulfillment":29,"acc_fulfillment":12271,"transfer_cost":0.0,"port_name":"Yantian","position":{"lat":26.8533,"lng":119.8575},"status":"surplus"},{"frame_index":216,"name":"ports_21","capacity":10000,"empty":610,"full":30,"on_shipper":34,"on_consignee":77,"shortage":0,"acc_shortage":492,"booking":19,"acc_booking":11838,"fulfillment":19,"acc_fulfillment":11346,"transfer_cost":11.0,"port_name":"Yokohama","position":{"lat":35.443707,"lng":139.638031},"status":"surplus"}]