[{"frame_index":742,"name":"ports_0","capacity":10000,"empty":3978,"full":2113,"on_shipper":392,"on_consignee":0,"shortage":0,"acc_shortage":522,"booking":318,"acc_booking":95804,"fulfillment":318,"acc_fulfillment":95282,"transfer_cost":0.0,"port_name":"Bremerhaven","position":{"lat":53.549999,"lng":8.583333},"status":"surplus"},{"frame_index":742,"name":"ports_1","capacity":10000,"empty":8,"full":398,"on_shipper":35,"on_consignee":0,"shortage":0,"acc_shortage":0,"booking":19,"acc_booking":6366,"fulfillment":19,"acc_fulfillment":6366,"transfer_cost":0.0,"port_name":"Durban","position":{"lat":-29.8579,"lng":31.0292},"status":"demand"},{"frame_index":742,"name":"ports_2","capacity":10000,"empty":547,"full":132,"on_shipper":18,"on_consignee":0,"shortage":0,"acc_shortage":298,"booking":17,"acc_booking":6342,"fulfillment":17,"acc_fulfillment":6044,"transfer_cost":0.0,"port_name":"Itagual","position":{"lat":-22.85222,"lng":-43.77528},"status":"surplus"},{"frame_index":742,"name":"ports_3","capacity":10000,"empty":1244,"full":2358,"on_shipper":125,"on_consignee":0,"shortage":0,"acc_shortage":0,"booking":102,"acc_booking":36281,"fulfillment":102,"acc_fulfillment":36281,"transfer_cost":0.0,"port_name":"LeHavre","position":{"lat":49.490002,"lng":0.1},"status":"surplus"},{"frame_index":742,"name":"ports_4","capacity":10000,"empty":1848,"full":509,"on_shipper":133,"on_consignee":0,"shortage":0,"acc_shortage":290,"booking":88,"acc_booking":30370,"fulfillment":88,"acc_fulfillment":30080,"transfer_cost":0.0,"port_name":"Los Angeles","position":{"lat":34.052235,"lng":-118.243683},"status":"surplus"},{"frame_index":742,"name":"ports_5","capacity":10000,"empty":668,"full":1193,"on_shipper":117,"on_consignee":0,"shortage":0,"acc_shortage":123,"booking":87,"acc_booking":30472,"fulfillment":87,"acc_fulfillment":30349,"transfer_cost":0.0,"port_name":"Manzanillo","position":{"lat":19.11695,"lng":-104.34214},"status":"surplus"},{"frame_index":742,"name":"ports_6","capacity":10000,"empty":110,"full":288,"on_shipper":52,"on_consignee":0,"shortage":0,"acc_shortage":1388,"booking":26,"acc_booking":9346,"fulfillment":26,"acc_fulfillment":7958,"transfer_cost":0.0,"port_name":"Melbourne","position":{"lat":-37.840935,"lng":144.946457},"status":"balance"},{"frame_index":742,"name":"ports_7","capacity":10000,"empty":396,"full":330,"on_shipper":38,"on_consignee":0,"shortage":0,"acc_shortage":0,"booking":26,"acc_booking":9354,"fulfillment":26,"acc_fulfillment":9354,"transfer_cost":0.0,"port_name":"Montreal","position":{"lat":45.516136,"lng":-73.65683},"status":"surplus"},{"frame_index":742,"name":"ports_8","capacity":10000,"empty":612,"full":395,"on_shipper":73,"on_consignee":0,"shortage":0,"acc_shortage":0,"booking":48,"acc_booking":18270,"fulfillment":48,"acc_fulfillment":18270,"transfer_cost":0.0,"port_name":"New York","position":{"lat":40.73061,"lng":-73.935242},"status":"surplus"},{"frame_index":742,"name":"ports_9","capacity":10000,"empty":386,"full":919,"on_shipper":92,"on_consignee":0,"shortage":0,"acc_shortage":45,"booking":51,"acc_booking":18323,"fulfillment":51,"acc_fulfillment":18278,"transfer_cost":0.0,"port_name":"Oakland","position":{"lat":37.804363,"lng":-122.271111},"status":"surplus"},{"frame_index":742,"name":"ports_10","capacity":10000,"empty":1043,"full":753,"on_shipper":49,"on_consignee":0,"shortage":0,"acc_shortage":314,"booking":28,"acc_booking":9368,"fulfillment":28,"acc_fulfillment":9054,"transfer_cost":0.0,"port_name":"Prince Rupert","position":{"lat":54.312519,"lng":-130.305405},"status":"surplus"},{"frame_index":742,"name":"ports_11","capacity":10000,"empty":1113,"full":3355,"on_shipper":186,"on_consignee":0,"shortage":0,"acc_shortage":204,"booking":102,"acc_booking":36228,"fulfillment":102,"acc_fulfillment":36024,"transfer_cost":0.0,"port_name":"Pusan","position":{"lat":35.166668,"lng":129.066666},"status":"surplus"},{"frame_index":742,"name":"ports_12","capacity":10000,"empty":3233,"full":1135,"on_shipper":237,"on_consignee":0,"shortage":0,"acc_shortage":0,"booking":144,"acc_booking":48408,"fulfillment":144,"acc_fulfillment":48408,"transfer_cost":0.0,"port_name":"Qingdao","position":{"lat":36.066898,"lng":120.382698},"status":"surplus"},{"frame_index":742,"name":"ports_13","capacity":10000,"empty":167,"full":418,"on_shipper":32,"on_consignee":0,"shortage":0,"acc_shortage":325,"booking":18,"acc_booking":6357,"fulfillment":18,"acc_fulfillment":6032,"transfer_cost":0.0,"port_name":"San Antonio","position":{"lat":29.424349,"lng":-98.491142},"status":"surplus"},{"frame_index":742,"name":"ports_14","capacity":10000,"empty":414,"full":463,"on_shipper":31,"on_consignee":0,"shortage":0,"acc_shortage":762,"booking":18,"acc_booking":6391,"fulfillment":18,"acc_fulfillment":5629,"transfer_cost":0.0,"port_name":"Santos","position":{"lat":-23.96083,"lng":-46.33361},"status":"surplus"},{"frame_index":742,"name":"ports_15","capacity":10000,"empty":1318,"full":2376,"on_shipper":138,"on_consignee":0,"shortage":0,"acc_shortage":0,"booking":124,"acc_booking":42315,"fulfillment":124,"acc_fulfillment":42315,"transfer_cost":0.0,"port_name":"Seattle","position":{"lat":47.608013,"lng":-122.335167},"status":"surplus"},{"frame_index":742,"name":"ports_16","capacity":10000,"empty":611,"full":2382,"on_shipper":190,"on_consignee":195,"shortage":0,"acc_shortage":760,"booking":144,"acc_booking":60206,"fulfillment":144,"acc_fulfillment":59446,"transfer_cost":0.0,"port_name":"Shanghai","position":{"lat":31.224361,"lng":121.46917},"status":"demand"},{"frame_index":742,"name":"ports_17","capacity":10000,"empty":2290,"full":598,"on_shipper":90,"on_consignee":398,"shortage":0,"acc_shortage":283,"booking":68,"acc_booking":24380,"fulfillment":68,"acc_fulfillment":24097,"transfer_cost":0.0,"port_name":"Singapore","position":{"lat":1.29027,"lng":103.851959},"status":"surplus"},{"frame_index":742,"name":"ports_18","capacity":10000,"empty":312,"full":15,"on_shipper":36,"on_consignee":48,"shortage":0,"acc_shortage":1226,"booking":27,"acc_booking":9348,"fulfillment":27,"acc_fulfillment":8122,"transfer_cost":236.0,"port_name":"Sydney","position":{"lat":-33.865143,"lng":151.2099},"status":"surplus"},{"frame_index":742,"name":"ports_19","capacity":10000,"empty":1169,"full":161,"on_shipper":63,"on_consignee":0,"shortage":0,"acc_shortage":0,"booking":36,"acc_booking":12400,"fulfillment":36,"acc_fulfillment":12400,"transfer_cost":0.0,"port_name":"Vancouver","position":{"lat":49.246292,"lng":-123.116226},"status":"surplus"},{"frame_index":742,"name":"ports_20","capacity":10000,"empty":555,"full":2209,"on_shipper":174,"on_consignee":0,"shortage":0,"acc_shortage":942,"booking":112,"acc_booking":42041,"fulfillment":112,"acc_fulfillment":41099,"transfer_cost":0.0,"port_name":"Yantian","position":{"lat":26.8533,"lng":119.8575},"status":"balance"},{"frame_index":742,"name":"ports_21","capacity":10000,"empty":609,"full":273,"on_shipper":142,"on_consignee":0,"shortage":0,"acc_shortage":5065,"booking":129,"acc_booking":40142,"fulfillment":129,"acc_fulfillment":35077,"transfer_cost":0.0,"port_name":"Yokohama","position":{"lat":35.443707,"lng":139.638031},"status":"balance"}]