[{"frame_index":869,"name":"ports_0","capacity":10000,"empty":1109,"full":2616,"on_shipper":241,"on_consignee":0,"shortage":0,"acc_shortage":522,"booking":185,"acc_booking":112989,"fulfillment":185,"acc_fulfillment":112467,"transfer_cost":0.0,"port_name":"Bremerhaven","position":{"lat":53.549999,"lng":8.583333},"status":"surplus"},{"frame_index":869,"name":"ports_1","capacity":10000,"empty":16,"full":265,"on_shipper":20,"on_consignee":0,"shortage":0,"acc_shortage":10,"booking":13,"acc_booking":7503,"fulfillment":13,"acc_fulfillment":7493,"transfer_cost":0.0,"port_name":"Durban","position":{"lat":-29.8579,"lng":31.0292},"status":"balance"},{"frame_index":869,"name":"ports_2","capacity":10000,"empty":404,"full":288,"on_shipper":16,"on_consignee":0,"shortage":0,"acc_shortage":298,"booking":12,"acc_booking":7469,"fulfillment":12,"acc_fulfillment":7171,"transfer_cost":0.0,"port_name":"Itagual","position":{"lat":-22.85222,"lng":-43.77528},"status":"surplus"},{"frame_index":869,"name":"ports_3","capacity":10000,"empty":3813,"full":2025,"on_shipper":98,"on_consignee":0,"shortage":0,"acc_shortage":0,"booking":70,"acc_booking":42753,"fulfillment":70,"acc_fulfillment":42753,"transfer_cost":0.0,"port_name":"LeHavre","position":{"lat":49.490002,"lng":0.1},"status":"surplus"},{"frame_index":869,"name":"ports_4","capacity":10000,"empty":1498,"full":1360,"on_shipper":61,"on_consignee":0,"shortage":0,"acc_shortage":290,"booking":61,"acc_booking":35801,"fulfillment":61,"acc_fulfillment":35511,"transfer_cost":0.0,"port_name":"Los Angeles","position":{"lat":34.052235,"lng":-118.243683},"status":"surplus"},{"frame_index":869,"name":"ports_5","capacity":10000,"empty":381,"full":210,"on_shipper":91,"on_consignee":0,"shortage":0,"acc_shortage":123,"booking":55,"acc_booking":35904,"fulfillment":55,"acc_fulfillment":35781,"transfer_cost":0.0,"port_name":"Manzanillo","position":{"lat":19.11695,"lng":-104.34214},"status":"surplus"},{"frame_index":869,"name":"ports_6","capacity":10000,"empty":17,"full":458,"on_shipper":31,"on_consignee":0,"shortage":0,"acc_shortage":1654,"booking":18,"acc_booking":11013,"fulfillment":18,"acc_fulfillment":9359,"transfer_cost":0.0,"port_name":"Melbourne","position":{"lat":-37.840935,"lng":144.946457},"status":"demand"},{"frame_index":869,"name":"ports_7","capacity":10000,"empty":523,"full":352,"on_shipper":28,"on_consignee":0,"shortage":0,"acc_shortage":0,"booking":18,"acc_booking":11025,"fulfillment":18,"acc_fulfillment":11025,"transfer_cost":0.0,"port_name":"Montreal","position":{"lat":45.516136,"lng":-73.65683},"status":"surplus"},{"frame_index":869,"name":"ports_8","capacity":10000,"empty":3574,"full":651,"on_shipper":49,"on_consignee":0,"shortage":0,"acc_shortage":136,"booking":34,"acc_booking":21550,"fulfillment":34,"acc_fulfillment":21414,"transfer_cost":0.0,"port_name":"New York","position":{"lat":40.73061,"lng":-73.935242},"status":"surplus"},{"frame_index":869,"name":"ports_9","capacity":10000,"empty":451,"full":1102,"on_shipper":50,"on_consignee":0,"shortage":0,"acc_shortage":45,"booking":34,"acc_booking":21557,"fulfillment":34,"acc_fulfillment":21512,"transfer_cost":0.0,"port_name":"Oakland","position":{"lat":37.804363,"lng":-122.271111},"status":"surplus"},{"frame_index":869,"name":"ports_10","capacity":10000,"empty":1149,"full":307,"on_shipper":30,"on_consignee":0,"shortage":0,"acc_shortage":314,"booking":21,"acc_booking":11064,"fulfillment":21,"acc_fulfillment":10750,"transfer_cost":0.0,"port_name":"Prince Rupert","position":{"lat":54.312519,"lng":-130.305405},"status":"surplus"},{"frame_index":869,"name":"ports_11","capacity":10000,"empty":606,"full":2718,"on_shipper":93,"on_consignee":0,"shortage":0,"acc_shortage":204,"booking":70,"acc_booking":42706,"fulfillment":70,"acc_fulfillment":42502,"transfer_cost":0.0,"port_name":"Pusan","position":{"lat":35.166668,"lng":129.066666},"status":"surplus"},{"frame_index":869,"name":"ports_12","capacity":10000,"empty":251,"full":2697,"on_shipper":137,"on_consignee":390,"shortage":0,"acc_shortage":0,"booking":86,"acc_booking":57068,"fulfillment":86,"acc_fulfillment":57068,"transfer_cost":584.0,"port_name":"Qingdao","position":{"lat":36.066898,"lng":120.382698},"status":"demand"},{"frame_index":869,"name":"ports_13","capacity":10000,"empty":272,"full":238,"on_shipper":17,"on_consignee":0,"shortage":0,"acc_shortage":449,"booking":12,"acc_booking":7475,"fulfillment":12,"acc_fulfillment":7026,"transfer_cost":0.0,"port_name":"San Antonio","position":{"lat":29.424349,"lng":-98.491142},"status":"surplus"},{"frame_index":869,"name":"ports_14","capacity":10000,"empty":124,"full":474,"on_shipper":19,"on_consignee":0,"shortage":0,"acc_shortage":819,"booking":11,"acc_booking":7526,"fulfillment":11,"acc_fulfillment":6707,"transfer_cost":0.0,"port_name":"Santos","position":{"lat":-23.96083,"lng":-46.33361},"status":"surplus"},{"frame_index":869,"name":"ports_15","capacity":10000,"empty":1280,"full":1114,"on_shipper":136,"on_consignee":0,"shortage":0,"acc_shortage":0,"booking":82,"acc_booking":49880,"fulfillment":82,"acc_fulfillment":49880,"transfer_cost":0.0,"port_name":"Seattle","position":{"lat":47.608013,"lng":-122.335167},"status":"surplus"},{"frame_index":869,"name":"ports_16","capacity":10000,"empty":147,"full":3030,"on_shipper":189,"on_consignee":0,"shortage":0,"acc_shortage":760,"booking":109,"acc_booking":70964,"fulfillment":109,"acc_fulfillment":70204,"transfer_cost":0.0,"port_name":"Shanghai","position":{"lat":31.224361,"lng":121.46917},"status":"demand"},{"frame_index":869,"name":"ports_17","capacity":10000,"empty":1947,"full":911,"on_shipper":77,"on_consignee":0,"shortage":0,"acc_shortage":283,"booking":48,"acc_booking":28709,"fulfillment":48,"acc_fulfillment":28426,"transfer_cost":0.0,"port_name":"Singapore","position":{"lat":1.29027,"lng":103.851959},"status":"surplus"},{"frame_index":869,"name":"ports_18","capacity":10000,"empty":243,"full":982,"on_shipper":25,"on_consignee":0,"shortage":0,"acc_shortage":1374,"booking":19,"acc_booking":11039,"fulfillment":19,"acc_fulfillment":9665,"transfer_cost":0.0,"port_name":"Sydney","position":{"lat":-33.865143,"lng":151.2099},"status":"surplus"},{"frame_index":869,"name":"ports_19","capacity":10000,"empty":653,"full":829,"on_shipper":28,"on_consignee":0,"shortage":0,"acc_shortage":0,"booking":22,"acc_booking":14601,"fulfillment":22,"acc_fulfillment":14601,"transfer_cost":0.0,"port_name":"Vancouver","position":{"lat":49.246292,"lng":-123.116226},"status":"surplus"},{"frame_index":869,"name":"ports_20","capacity":10000,"empty":0,"full":1767,"on_shipper":0,"on_consignee":0,"shortage":76,"acc_shortage":1193,"booking":76,"acc_booking":49584,"fulfillment":0,"acc_fulfillment":48391,"transfer_cost":0.0,"port_name":"Yantian","position":{"lat":26.8533,"lng":119.8575},"status":"demand"},{"frame_index":869,"name":"ports_21","capacity":10000,"empty":149,"full":431,"on_shipper":105,"on_consignee":0,"shortage":0,"acc_shortage":7067,"booking":85,"acc_booking":47394,"fulfillment":85,"acc_fulfillment":40327,"transfer_cost":0.0,"port_name":"Yokohama","position":{"lat":35.443707,"lng":139.638031},"status":"demand"}]