[{"frame_index":553,"name":"ports_0","capacity":10000,"empty":4545,"full":2892,"on_shipper":70,"on_consignee":0,"shortage":0,"acc_shortage":522,"booking":40,"acc_booking":70920,"fulfillment":40,"acc_fulfillment":70398,"transfer_cost":0.0,"port_name":"Bremerhaven","position":{"lat":53.549999,"lng":8.583333},"status":"surplus"},{"frame_index":553,"name":"ports_1","capacity":10000,"empty":428,"full":167,"on_shipper":3,"on_consignee":0,"shortage":0,"acc_shortage":0,"booking":3,"acc_booking":4732,"fulfillment":3,"acc_fulfillment":4732,"transfer_cost":0.0,"port_name":"Durban","position":{"lat":-29.8579,"lng":31.0292},"status":"surplus"},{"frame_index":553,"name":"ports_2","capacity":10000,"empty":357,"full":24,"on_shipper":4,"on_consignee":0,"shortage":0,"acc_shortage":233,"booking":3,"acc_booking":4704,"fulfillment":3,"acc_fulfillment":4471,"transfer_cost":0.0,"port_name":"Itagual","position":{"lat":-22.85222,"lng":-43.77528},"status":"surplus"},{"frame_index":553,"name":"ports_3","capacity":10000,"empty":958,"full":1335,"on_shipper":20,"on_consignee":0,"shortage":0,"acc_shortage":0,"booking":17,"acc_booking":26897,"fulfillment":17,"acc_fulfillment":26897,"transfer_cost":0.0,"port_name":"LeHavre","position":{"lat":49.490002,"lng":0.1},"status":"surplus"},{"frame_index":553,"name":"ports_4","capacity":10000,"empty":1042,"full":173,"on_shipper":19,"on_consignee":0,"shortage":0,"acc_shortage":0,"booking":14,"acc_booking":22494,"fulfillment":14,"acc_fulfillment":22494,"transfer_cost":0.0,"port_name":"Los Angeles","position":{"lat":34.052235,"lng":-118.243683},"status":"surplus"},{"frame_index":553,"name":"ports_5","capacity":10000,"empty":2267,"full":149,"on_shipper":17,"on_consignee":0,"shortage":0,"acc_shortage":123,"booking":13,"acc_booking":22536,"fulfillment":13,"acc_fulfillment":22413,"transfer_cost":0.0,"port_name":"Manzanillo","position":{"lat":19.11695,"lng":-104.34214},"status":"surplus"},{"frame_index":553,"name":"ports_6","capacity":10000,"empty":0,"full":157,"on_shipper":0,"on_consignee":433,"shortage":5,"acc_shortage":1251,"booking":5,"acc_booking":6925,"fulfillment":0,"acc_fulfillment":5674,"transfer_cost":0.0,"port_name":"Melbourne","position":{"lat":-37.840935,"lng":144.946457},"status":"balance"},{"frame_index":553,"name":"ports_7","capacity":10000,"empty":1600,"full":77,"on_shipper":5,"on_consignee":0,"shortage":0,"acc_shortage":0,"booking":5,"acc_booking":6927,"fulfillment":5,"acc_fulfillment":6927,"transfer_cost":0.0,"port_name":"Montreal","position":{"lat":45.516136,"lng":-73.65683},"status":"surplus"},{"frame_index":553,"name":"ports_8","capacity":10000,"empty":2123,"full":14,"on_shipper":11,"on_consignee":0,"shortage":0,"acc_shortage":0,"booking":9,"acc_booking":13544,"fulfillment":9,"acc_fulfillment":13544,"transfer_cost":0.0,"port_name":"New York","position":{"lat":40.73061,"lng":-73.935242},"status":"surplus"},{"frame_index":553,"name":"ports_9","capacity":10000,"empty":2375,"full":112,"on_shipper":11,"on_consignee":0,"shortage":0,"acc_shortage":45,"booking":9,"acc_booking":13572,"fulfillment":9,"acc_fulfillment":13527,"transfer_cost":0.0,"port_name":"Oakland","position":{"lat":37.804363,"lng":-122.271111},"status":"surplus"},{"frame_index":553,"name":"ports_10","capacity":10000,"empty":978,"full":81,"on_shipper":6,"on_consignee":0,"shortage":0,"acc_shortage":314,"booking":4,"acc_booking":6946,"fulfillment":4,"acc_fulfillment":6632,"transfer_cost":0.0,"port_name":"Prince Rupert","position":{"lat":54.312519,"lng":-130.305405},"status":"surplus"},{"frame_index":553,"name":"ports_11","capacity":10000,"empty":325,"full":1859,"on_shipper":23,"on_consignee":0,"shortage":0,"acc_shortage":204,"booking":17,"acc_booking":26844,"fulfillment":17,"acc_fulfillment":26640,"transfer_cost":0.0,"port_name":"Pusan","position":{"lat":35.166668,"lng":129.066666},"status":"surplus"},{"frame_index":553,"name":"ports_12","capacity":10000,"empty":2552,"full":1340,"on_shipper":28,"on_consignee":0,"shortage":0,"acc_shortage":0,"booking":20,"acc_booking":35904,"fulfillment":20,"acc_fulfillment":35904,"transfer_cost":0.0,"port_name":"Qingdao","position":{"lat":36.066898,"lng":120.382698},"status":"surplus"},{"frame_index":553,"name":"ports_13","capacity":10000,"empty":174,"full":213,"on_shipper":4,"on_consignee":0,"shortage":0,"acc_shortage":286,"booking":3,"acc_booking":4698,"fulfillment":3,"acc_fulfillment":4412,"transfer_cost":0.0,"port_name":"San Antonio","position":{"lat":29.424349,"lng":-98.491142},"status":"surplus"},{"frame_index":553,"name":"ports_14","capacity":10000,"empty":188,"full":421,"on_shipper":4,"on_consignee":0,"shortage":0,"acc_shortage":762,"booking":4,"acc_booking":4746,"fulfillment":4,"acc_fulfillment":3984,"transfer_cost":0.0,"port_name":"Santos","position":{"lat":-23.96083,"lng":-46.33361},"status":"surplus"},{"frame_index":553,"name":"ports_15","capacity":10000,"empty":2094,"full":2416,"on_shipper":29,"on_consignee":0,"shortage":0,"acc_shortage":0,"booking":21,"acc_booking":31334,"fulfillment":21,"acc_fulfillment":31334,"transfer_cost":0.0,"port_name":"Seattle","position":{"lat":47.608013,"lng":-122.335167},"status":"surplus"},{"frame_index":553,"name":"ports_16","capacity":10000,"empty":903,"full":2232,"on_shipper":31,"on_consignee":0,"shortage":0,"acc_shortage":470,"booking":24,"acc_booking":44696,"fulfillment":24,"acc_fulfillment":44226,"transfer_cost":0.0,"port_name":"Shanghai","position":{"lat":31.224361,"lng":121.46917},"status":"surplus"},{"frame_index":553,"name":"ports_17","capacity":10000,"empty":545,"full":478,"on_shipper":13,"on_consignee":178,"shortage":0,"acc_shortage":40,"booking":11,"acc_booking":18052,"fulfillment":11,"acc_fulfillment":18012,"transfer_cost":175.0,"port_name":"Singapore","position":{"lat":1.29027,"lng":103.851959},"status":"surplus"},{"frame_index":553,"name":"ports_18","capacity":10000,"empty":767,"full":46,"on_shipper":6,"on_consignee":0,"shortage":0,"acc_shortage":957,"booking":4,"acc_booking":6898,"fulfillment":4,"acc_fulfillment":5941,"transfer_cost":0.0,"port_name":"Sydney","position":{"lat":-33.865143,"lng":151.2099},"status":"surplus"},{"frame_index":553,"name":"ports_19","capacity":10000,"empty":699,"full":277,"on_shipper":9,"on_consignee":0,"shortage":0,"acc_shortage":0,"booking":6,"acc_booking":9209,"fulfillment":6,"acc_fulfillment":9209,"transfer_cost":0.0,"port_name":"Vancouver","position":{"lat":49.246292,"lng":-123.116226},"status":"surplus"},{"frame_index":553,"name":"ports_20","capacity":10000,"empty":252,"full":1966,"on_shipper":30,"on_consignee":0,"shortage":0,"acc_shortage":395,"booking":22,"acc_booking":31139,"fulfillment":22,"acc_fulfillment":30744,"transfer_cost":0.0,"port_name":"Yantian","position":{"lat":26.8533,"lng":119.8575},"status":"surplus"},{"frame_index":553,"name":"ports_21","capacity":10000,"empty":174,"full":244,"on_shipper":18,"on_consignee":0,"shortage":0,"acc_shortage":3258,"booking":13,"acc_booking":29699,"fulfillment":13,"acc_fulfillment":26441,"transfer_cost":0.0,"port_name":"Yokohama","position":{"lat":35.443707,"lng":139.638031},"status":"surplus"}]