[{"frame_index":776,"name":"ports_0","capacity":10000,"empty":2845,"full":4461,"on_shipper":58,"on_consignee":0,"shortage":0,"acc_shortage":522,"booking":44,"acc_booking":100044,"fulfillment":44,"acc_fulfillment":99522,"transfer_cost":0.0,"port_name":"Bremerhaven","position":{"lat":53.549999,"lng":8.583333},"status":"surplus"},{"frame_index":776,"name":"ports_1","capacity":10000,"empty":224,"full":41,"on_shipper":3,"on_consignee":0,"shortage":0,"acc_shortage":10,"booking":3,"acc_booking":6644,"fulfillment":3,"acc_fulfillment":6634,"transfer_cost":0.0,"port_name":"Durban","position":{"lat":-29.8579,"lng":31.0292},"status":"surplus"},{"frame_index":776,"name":"ports_2","capacity":10000,"empty":562,"full":21,"on_shipper":5,"on_consignee":0,"shortage":0,"acc_shortage":298,"booking":3,"acc_booking":6621,"fulfillment":3,"acc_fulfillment":6323,"transfer_cost":0.0,"port_name":"Itagual","position":{"lat":-22.85222,"lng":-43.77528},"status":"surplus"},{"frame_index":776,"name":"ports_3","capacity":10000,"empty":1743,"full":2294,"on_shipper":25,"on_consignee":0,"shortage":0,"acc_shortage":0,"booking":16,"acc_booking":37861,"fulfillment":16,"acc_fulfillment":37861,"transfer_cost":0.0,"port_name":"LeHavre","position":{"lat":49.490002,"lng":0.1},"status":"surplus"},{"frame_index":776,"name":"ports_4","capacity":10000,"empty":1192,"full":1419,"on_shipper":26,"on_consignee":0,"shortage":0,"acc_shortage":290,"booking":14,"acc_booking":31690,"fulfillment":14,"acc_fulfillment":31400,"transfer_cost":0.0,"port_name":"Los Angeles","position":{"lat":34.052235,"lng":-118.243683},"status":"surplus"},{"frame_index":776,"name":"ports_5","capacity":10000,"empty":1608,"full":806,"on_shipper":16,"on_consignee":0,"shortage":0,"acc_shortage":123,"booking":12,"acc_booking":31809,"fulfillment":12,"acc_fulfillment":31686,"transfer_cost":0.0,"port_name":"Manzanillo","position":{"lat":19.11695,"lng":-104.34214},"status":"surplus"},{"frame_index":776,"name":"ports_6","capacity":10000,"empty":357,"full":83,"on_shipper":11,"on_consignee":0,"shortage":0,"acc_shortage":1572,"booking":5,"acc_booking":9754,"fulfillment":5,"acc_fulfillment":8182,"transfer_cost":0.0,"port_name":"Melbourne","position":{"lat":-37.840935,"lng":144.946457},"status":"surplus"},{"frame_index":776,"name":"ports_7","capacity":10000,"empty":823,"full":51,"on_shipper":11,"on_consignee":0,"shortage":0,"acc_shortage":0,"booking":5,"acc_booking":9763,"fulfillment":5,"acc_fulfillment":9763,"transfer_cost":0.0,"port_name":"Montreal","position":{"lat":45.516136,"lng":-73.65683},"status":"surplus"},{"frame_index":776,"name":"ports_8","capacity":10000,"empty":4203,"full":41,"on_shipper":13,"on_consignee":0,"shortage":0,"acc_shortage":136,"booking":8,"acc_booking":19072,"fulfillment":8,"acc_fulfillment":18936,"transfer_cost":0.0,"port_name":"New York","position":{"lat":40.73061,"lng":-73.935242},"status":"surplus"},{"frame_index":776,"name":"ports_9","capacity":10000,"empty":215,"full":730,"on_shipper":11,"on_consignee":0,"shortage":0,"acc_shortage":45,"booking":8,"acc_booking":19115,"fulfillment":8,"acc_fulfillment":19070,"transfer_cost":0.0,"port_name":"Oakland","position":{"lat":37.804363,"lng":-122.271111},"status":"surplus"},{"frame_index":776,"name":"ports_10","capacity":10000,"empty":1060,"full":151,"on_shipper":6,"on_consignee":0,"shortage":0,"acc_shortage":314,"booking":4,"acc_booking":9773,"fulfillment":4,"acc_fulfillment":9459,"transfer_cost":0.0,"port_name":"Prince Rupert","position":{"lat":54.312519,"lng":-130.305405},"status":"surplus"},{"frame_index":776,"name":"ports_11","capacity":10000,"empty":2419,"full":579,"on_shipper":21,"on_consignee":0,"shortage":0,"acc_shortage":204,"booking":16,"acc_booking":37816,"fulfillment":16,"acc_fulfillment":37612,"transfer_cost":0.0,"port_name":"Pusan","position":{"lat":35.166668,"lng":129.066666},"status":"surplus"},{"frame_index":776,"name":"ports_12","capacity":10000,"empty":3390,"full":1038,"on_shipper":42,"on_consignee":0,"shortage":0,"acc_shortage":0,"booking":23,"acc_booking":50535,"fulfillment":23,"acc_fulfillment":50535,"transfer_cost":0.0,"port_name":"Qingdao","position":{"lat":36.066898,"lng":120.382698},"status":"surplus"},{"frame_index":776,"name":"ports_13","capacity":10000,"empty":0,"full":617,"on_shipper":0,"on_consignee":0,"shortage":3,"acc_shortage":433,"booking":3,"acc_booking":6632,"fulfillment":0,"acc_fulfillment":6199,"transfer_cost":0.0,"port_name":"San Antonio","position":{"lat":29.424349,"lng":-98.491142},"status":"balance"},{"frame_index":776,"name":"ports_14","capacity":10000,"empty":539,"full":41,"on_shipper":5,"on_consignee":0,"shortage":0,"acc_shortage":762,"booking":3,"acc_booking":6672,"fulfillment":3,"acc_fulfillment":5910,"transfer_cost":0.0,"port_name":"Santos","position":{"lat":-23.96083,"lng":-46.33361},"status":"surplus"},{"frame_index":776,"name":"ports_15","capacity":10000,"empty":1306,"full":907,"on_shipper":34,"on_consignee":0,"shortage":0,"acc_shortage":0,"booking":20,"acc_booking":44160,"fulfillment":20,"acc_fulfillment":44160,"transfer_cost":0.0,"port_name":"Seattle","position":{"lat":47.608013,"lng":-122.335167},"status":"surplus"},{"frame_index":776,"name":"ports_16","capacity":10000,"empty":1923,"full":734,"on_shipper":43,"on_consignee":184,"shortage":0,"acc_shortage":760,"booking":25,"acc_booking":62850,"fulfillment":25,"acc_fulfillment":62090,"transfer_cost":1.0,"port_name":"Shanghai","position":{"lat":31.224361,"lng":121.46917},"status":"surplus"},{"frame_index":776,"name":"ports_17","capacity":10000,"empty":510,"full":615,"on_shipper":15,"on_consignee":285,"shortage":0,"acc_shortage":283,"booking":11,"acc_booking":25441,"fulfillment":11,"acc_fulfillment":25158,"transfer_cost":370.0,"port_name":"Singapore","position":{"lat":1.29027,"lng":103.851959},"status":"surplus"},{"frame_index":776,"name":"ports_18","capacity":10000,"empty":0,"full":411,"on_shipper":0,"on_consignee":0,"shortage":4,"acc_shortage":1284,"booking":4,"acc_booking":9766,"fulfillment":0,"acc_fulfillment":8482,"transfer_cost":0.0,"port_name":"Sydney","position":{"lat":-33.865143,"lng":151.2099},"status":"balance"},{"frame_index":776,"name":"ports_19","capacity":10000,"empty":625,"full":367,"on_shipper":8,"on_consignee":370,"shortage":0,"acc_shortage":0,"booking":6,"acc_booking":12944,"fulfillment":6,"acc_fulfillment":12944,"transfer_cost":0.0,"port_name":"Vancouver","position":{"lat":49.246292,"lng":-123.116226},"status":"surplus"},{"frame_index":776,"name":"ports_20","capacity":10000,"empty":1225,"full":169,"on_shipper":25,"on_consignee":218,"shortage":0,"acc_shortage":942,"booking":18,"acc_booking":43860,"fulfillment":18,"acc_fulfillment":42918,"transfer_cost":2.0,"port_name":"Yantian","position":{"lat":26.8533,"lng":119.8575},"status":"surplus"},{"frame_index":776,"name":"ports_21","capacity":10000,"empty":0,"full":383,"on_shipper":0,"on_consignee":0,"shortage":12,"acc_shortage":5923,"booking":12,"acc_booking":41884,"fulfillment":0,"acc_fulfillment":35961,"transfer_cost":0.0,"port_name":"Yokohama","position":{"lat":35.443707,"lng":139.638031},"status":"demand"}]