[{"frame_index":415,"name":"ports_0","capacity":10000,"empty":3604,"full":1480,"on_shipper":106,"on_consignee":0,"shortage":0,"acc_shortage":522,"booking":79,"acc_booking":53793,"fulfillment":79,"acc_fulfillment":53271,"transfer_cost":0.0,"port_name":"Bremerhaven","position":{"lat":53.549999,"lng":8.583333},"status":"surplus"},{"frame_index":415,"name":"ports_1","capacity":10000,"empty":170,"full":317,"on_shipper":7,"on_consignee":0,"shortage":0,"acc_shortage":0,"booking":5,"acc_booking":3606,"fulfillment":5,"acc_fulfillment":3606,"transfer_cost":0.0,"port_name":"Durban","position":{"lat":-29.8579,"lng":31.0292},"status":"surplus"},{"frame_index":415,"name":"ports_2","capacity":10000,"empty":562,"full":407,"on_shipper":7,"on_consignee":0,"shortage":0,"acc_shortage":233,"booking":5,"acc_booking":3578,"fulfillment":5,"acc_fulfillment":3345,"transfer_cost":0.0,"port_name":"Itagual","position":{"lat":-22.85222,"lng":-43.77528},"status":"surplus"},{"frame_index":415,"name":"ports_3","capacity":10000,"empty":1137,"full":289,"on_shipper":38,"on_consignee":0,"shortage":0,"acc_shortage":0,"booking":29,"acc_booking":20475,"fulfillment":29,"acc_fulfillment":20475,"transfer_cost":0.0,"port_name":"LeHavre","position":{"lat":49.490002,"lng":0.1},"status":"surplus"},{"frame_index":415,"name":"ports_4","capacity":10000,"empty":1004,"full":2452,"on_shipper":27,"on_consignee":0,"shortage":0,"acc_shortage":0,"booking":24,"acc_booking":17116,"fulfillment":24,"acc_fulfillment":17116,"transfer_cost":0.0,"port_name":"Los Angeles","position":{"lat":34.052235,"lng":-118.243683},"status":"surplus"},{"frame_index":415,"name":"ports_5","capacity":10000,"empty":1882,"full":73,"on_shipper":25,"on_consignee":0,"shortage":0,"acc_shortage":123,"booking":21,"acc_booking":17186,"fulfillment":21,"acc_fulfillment":17063,"transfer_cost":0.0,"port_name":"Manzanillo","position":{"lat":19.11695,"lng":-104.34214},"status":"surplus"},{"frame_index":415,"name":"ports_6","capacity":10000,"empty":251,"full":88,"on_shipper":13,"on_consignee":0,"shortage":0,"acc_shortage":819,"booking":8,"acc_booking":5268,"fulfillment":8,"acc_fulfillment":4449,"transfer_cost":0.0,"port_name":"Melbourne","position":{"lat":-37.840935,"lng":144.946457},"status":"surplus"},{"frame_index":415,"name":"ports_7","capacity":10000,"empty":1817,"full":911,"on_shipper":10,"on_consignee":0,"shortage":0,"acc_shortage":0,"booking":8,"acc_booking":5268,"fulfillment":8,"acc_fulfillment":5268,"transfer_cost":0.0,"port_name":"Montreal","position":{"lat":45.516136,"lng":-73.65683},"status":"surplus"},{"frame_index":415,"name":"ports_8","capacity":10000,"empty":1240,"full":785,"on_shipper":16,"on_consignee":0,"shortage":0,"acc_shortage":0,"booking":16,"acc_booking":10285,"fulfillment":16,"acc_fulfillment":10285,"transfer_cost":0.0,"port_name":"New York","position":{"lat":40.73061,"lng":-73.935242},"status":"surplus"},{"frame_index":415,"name":"ports_9","capacity":10000,"empty":738,"full":936,"on_shipper":23,"on_consignee":0,"shortage":0,"acc_shortage":0,"booking":14,"acc_booking":10288,"fulfillment":14,"acc_fulfillment":10288,"transfer_cost":0.0,"port_name":"Oakland","position":{"lat":37.804363,"lng":-122.271111},"status":"surplus"},{"frame_index":415,"name":"ports_10","capacity":10000,"empty":443,"full":1061,"on_shipper":11,"on_consignee":0,"shortage":0,"acc_shortage":0,"booking":7,"acc_booking":5260,"fulfillment":7,"acc_fulfillment":5260,"transfer_cost":0.0,"port_name":"Prince Rupert","position":{"lat":54.312519,"lng":-130.305405},"status":"surplus"},{"frame_index":415,"name":"ports_11","capacity":10000,"empty":444,"full":1131,"on_shipper":38,"on_consignee":0,"shortage":0,"acc_shortage":204,"booking":28,"acc_booking":20417,"fulfillment":28,"acc_fulfillment":20213,"transfer_cost":0.0,"port_name":"Pusan","position":{"lat":35.166668,"lng":129.066666},"status":"surplus"},{"frame_index":415,"name":"ports_12","capacity":10000,"empty":2355,"full":679,"on_shipper":48,"on_consignee":475,"shortage":0,"acc_shortage":0,"booking":42,"acc_booking":27309,"fulfillment":42,"acc_fulfillment":27309,"transfer_cost":46.0,"port_name":"Qingdao","position":{"lat":36.066898,"lng":120.382698},"status":"surplus"},{"frame_index":415,"name":"ports_13","capacity":10000,"empty":31,"full":522,"on_shipper":7,"on_consignee":0,"shortage":0,"acc_shortage":123,"booking":5,"acc_booking":3575,"fulfillment":5,"acc_fulfillment":3452,"transfer_cost":0.0,"port_name":"San Antonio","position":{"lat":29.424349,"lng":-98.491142},"status":"balance"},{"frame_index":415,"name":"ports_14","capacity":10000,"empty":396,"full":124,"on_shipper":6,"on_consignee":316,"shortage":0,"acc_shortage":697,"booking":5,"acc_booking":3620,"fulfillment":5,"acc_fulfillment":2923,"transfer_cost":0.0,"port_name":"Santos","position":{"lat":-23.96083,"lng":-46.33361},"status":"surplus"},{"frame_index":415,"name":"ports_15","capacity":10000,"empty":3092,"full":1402,"on_shipper":48,"on_consignee":0,"shortage":0,"acc_shortage":0,"booking":33,"acc_booking":23839,"fulfillment":33,"acc_fulfillment":23839,"transfer_cost":0.0,"port_name":"Seattle","position":{"lat":47.608013,"lng":-122.335167},"status":"surplus"},{"frame_index":415,"name":"ports_16","capacity":10000,"empty":130,"full":2103,"on_shipper":79,"on_consignee":284,"shortage":0,"acc_shortage":0,"booking":53,"acc_booking":34057,"fulfillment":53,"acc_fulfillment":34057,"transfer_cost":0.0,"port_name":"Shanghai","position":{"lat":31.224361,"lng":121.46917},"status":"demand"},{"frame_index":415,"name":"ports_17","capacity":10000,"empty":1989,"full":1300,"on_shipper":26,"on_consignee":0,"shortage":0,"acc_shortage":40,"booking":19,"acc_booking":13735,"fulfillment":19,"acc_fulfillment":13695,"transfer_cost":0.0,"port_name":"Singapore","position":{"lat":1.29027,"lng":103.851959},"status":"surplus"},{"frame_index":415,"name":"ports_18","capacity":10000,"empty":0,"full":382,"on_shipper":0,"on_consignee":0,"shortage":9,"acc_shortage":438,"booking":9,"acc_booking":5241,"fulfillment":0,"acc_fulfillment":4803,"transfer_cost":0.0,"port_name":"Sydney","position":{"lat":-33.865143,"lng":151.2099},"status":"balance"},{"frame_index":415,"name":"ports_19","capacity":10000,"empty":315,"full":755,"on_shipper":17,"on_consignee":0,"shortage":0,"acc_shortage":0,"booking":10,"acc_booking":7002,"fulfillment":10,"acc_fulfillment":7002,"transfer_cost":0.0,"port_name":"Vancouver","position":{"lat":49.246292,"lng":-123.116226},"status":"surplus"},{"frame_index":415,"name":"ports_20","capacity":10000,"empty":806,"full":1127,"on_shipper":51,"on_consignee":0,"shortage":0,"acc_shortage":350,"booking":36,"acc_booking":23604,"fulfillment":36,"acc_fulfillment":23254,"transfer_cost":0.0,"port_name":"Yantian","position":{"lat":26.8533,"lng":119.8575},"status":"surplus"},{"frame_index":415,"name":"ports_21","capacity":10000,"empty":313,"full":516,"on_shipper":32,"on_consignee":0,"shortage":0,"acc_shortage":2444,"booking":29,"acc_booking":22657,"fulfillment":29,"acc_fulfillment":20213,"transfer_cost":0.0,"port_name":"Yokohama","position":{"lat":35.443707,"lng":139.638031},"status":"surplus"}]