[{"frame_index":966,"name":"ports_0","capacity":10000,"empty":2370,"full":3454,"on_shipper":490,"on_consignee":0,"shortage":0,"acc_shortage":737,"booking":279,"acc_booking":125185,"fulfillment":279,"acc_fulfillment":124448,"transfer_cost":0.0,"port_name":"Bremerhaven","position":{"lat":53.549999,"lng":8.583333},"status":"surplus"},{"frame_index":966,"name":"ports_1","capacity":10000,"empty":349,"full":150,"on_shipper":25,"on_consignee":0,"shortage":0,"acc_shortage":113,"booking":18,"acc_booking":8318,"fulfillment":18,"acc_fulfillment":8205,"transfer_cost":0.0,"port_name":"Durban","position":{"lat":-29.8579,"lng":31.0292},"status":"surplus"},{"frame_index":966,"name":"ports_2","capacity":10000,"empty":348,"full":470,"on_shipper":19,"on_consignee":0,"shortage":0,"acc_shortage":298,"booking":19,"acc_booking":8280,"fulfillment":19,"acc_fulfillment":7982,"transfer_cost":0.0,"port_name":"Itagual","position":{"lat":-22.85222,"lng":-43.77528},"status":"surplus"},{"frame_index":966,"name":"ports_3","capacity":10000,"empty":3341,"full":921,"on_shipper":141,"on_consignee":0,"shortage":0,"acc_shortage":0,"booking":110,"acc_booking":47359,"fulfillment":110,"acc_fulfillment":47359,"transfer_cost":0.0,"port_name":"LeHavre","position":{"lat":49.490002,"lng":0.1},"status":"surplus"},{"frame_index":966,"name":"ports_4","capacity":10000,"empty":1723,"full":941,"on_shipper":122,"on_consignee":0,"shortage":0,"acc_shortage":290,"booking":88,"acc_booking":39659,"fulfillment":88,"acc_fulfillment":39369,"transfer_cost":0.0,"port_name":"Los Angeles","position":{"lat":34.052235,"lng":-118.243683},"status":"surplus"},{"frame_index":966,"name":"ports_5","capacity":10000,"empty":387,"full":1006,"on_shipper":156,"on_consignee":0,"shortage":0,"acc_shortage":163,"booking":80,"acc_booking":39699,"fulfillment":80,"acc_fulfillment":39536,"transfer_cost":0.0,"port_name":"Manzanillo","position":{"lat":19.11695,"lng":-104.34214},"status":"balance"},{"frame_index":966,"name":"ports_6","capacity":10000,"empty":0,"full":640,"on_shipper":0,"on_consignee":0,"shortage":27,"acc_shortage":2001,"booking":27,"acc_booking":12204,"fulfillment":0,"acc_fulfillment":10203,"transfer_cost":0.0,"port_name":"Melbourne","position":{"lat":-37.840935,"lng":144.946457},"status":"demand"},{"frame_index":966,"name":"ports_7","capacity":10000,"empty":1371,"full":116,"on_shipper":27,"on_consignee":0,"shortage":0,"acc_shortage":0,"booking":27,"acc_booking":12215,"fulfillment":27,"acc_fulfillment":12215,"transfer_cost":0.0,"port_name":"Montreal","position":{"lat":45.516136,"lng":-73.65683},"status":"surplus"},{"frame_index":966,"name":"ports_8","capacity":10000,"empty":897,"full":0,"on_shipper":58,"on_consignee":1799,"shortage":0,"acc_shortage":136,"booking":58,"acc_booking":23867,"fulfillment":58,"acc_fulfillment":23731,"transfer_cost":253.0,"port_name":"New York","position":{"lat":40.73061,"lng":-73.935242},"status":"surplus"},{"frame_index":966,"name":"ports_9","capacity":10000,"empty":596,"full":1196,"on_shipper":83,"on_consignee":0,"shortage":0,"acc_shortage":45,"booking":54,"acc_booking":23883,"fulfillment":54,"acc_fulfillment":23838,"transfer_cost":0.0,"port_name":"Oakland","position":{"lat":37.804363,"lng":-122.271111},"status":"surplus"},{"frame_index":966,"name":"ports_10","capacity":10000,"empty":1377,"full":221,"on_shipper":22,"on_consignee":0,"shortage":0,"acc_shortage":314,"booking":22,"acc_booking":12216,"fulfillment":22,"acc_fulfillment":11902,"transfer_cost":0.0,"port_name":"Prince Rupert","position":{"lat":54.312519,"lng":-130.305405},"status":"surplus"},{"frame_index":966,"name":"ports_11","capacity":10000,"empty":2721,"full":156,"on_shipper":140,"on_consignee":327,"shortage":0,"acc_shortage":204,"booking":111,"acc_booking":47303,"fulfillment":111,"acc_fulfillment":47099,"transfer_cost":0.0,"port_name":"Pusan","position":{"lat":35.166668,"lng":129.066666},"status":"surplus"},{"frame_index":966,"name":"ports_12","capacity":10000,"empty":3271,"full":1672,"on_shipper":249,"on_consignee":0,"shortage":0,"acc_shortage":0,"booking":153,"acc_booking":63254,"fulfillment":153,"acc_fulfillment":63254,"transfer_cost":0.0,"port_name":"Qingdao","position":{"lat":36.066898,"lng":120.382698},"status":"surplus"},{"frame_index":966,"name":"ports_13","capacity":10000,"empty":0,"full":0,"on_shipper":20,"on_consignee":309,"shortage":10,"acc_shortage":459,"booking":17,"acc_booking":8282,"fulfillment":7,"acc_fulfillment":7823,"transfer_cost":0.0,"port_name":"San Antonio","position":{"lat":29.424349,"lng":-98.491142},"status":"demand"},{"frame_index":966,"name":"ports_14","capacity":10000,"empty":515,"full":165,"on_shipper":31,"on_consignee":0,"shortage":0,"acc_shortage":876,"booking":21,"acc_booking":8340,"fulfillment":21,"acc_fulfillment":7464,"transfer_cost":0.0,"port_name":"Santos","position":{"lat":-23.96083,"lng":-46.33361},"status":"surplus"},{"frame_index":966,"name":"ports_15","capacity":10000,"empty":725,"full":450,"on_shipper":140,"on_consignee":0,"shortage":0,"acc_shortage":859,"booking":126,"acc_booking":55247,"fulfillment":126,"acc_fulfillment":54388,"transfer_cost":0.0,"port_name":"Seattle","position":{"lat":47.608013,"lng":-122.335167},"status":"surplus"},{"frame_index":966,"name":"ports_16","capacity":10000,"empty":1827,"full":1834,"on_shipper":239,"on_consignee":0,"shortage":0,"acc_shortage":817,"booking":161,"acc_booking":78760,"fulfillment":161,"acc_fulfillment":77943,"transfer_cost":0.0,"port_name":"Shanghai","position":{"lat":31.224361,"lng":121.46917},"status":"surplus"},{"frame_index":966,"name":"ports_17","capacity":10000,"empty":0,"full":463,"on_shipper":30,"on_consignee":0,"shortage":47,"acc_shortage":389,"booking":73,"acc_booking":31798,"fulfillment":26,"acc_fulfillment":31409,"transfer_cost":0.0,"port_name":"Singapore","position":{"lat":1.29027,"lng":103.851959},"status":"demand"},{"frame_index":966,"name":"ports_18","capacity":10000,"empty":519,"full":270,"on_shipper":56,"on_consignee":0,"shortage":0,"acc_shortage":1374,"booking":30,"acc_booking":12221,"fulfillment":30,"acc_fulfillment":10847,"transfer_cost":0.0,"port_name":"Sydney","position":{"lat":-33.865143,"lng":151.2099},"status":"surplus"},{"frame_index":966,"name":"ports_19","capacity":10000,"empty":748,"full":909,"on_shipper":45,"on_consignee":0,"shortage":0,"acc_shortage":0,"booking":34,"acc_booking":16168,"fulfillment":34,"acc_fulfillment":16168,"transfer_cost":0.0,"port_name":"Vancouver","position":{"lat":49.246292,"lng":-123.116226},"status":"surplus"},{"frame_index":966,"name":"ports_20","capacity":10000,"empty":580,"full":1203,"on_shipper":211,"on_consignee":36,"shortage":0,"acc_shortage":1425,"booking":133,"acc_booking":54920,"fulfillment":133,"acc_fulfillment":53495,"transfer_cost":38.0,"port_name":"Yantian","position":{"lat":26.8533,"lng":119.8575},"status":"demand"},{"frame_index":966,"name":"ports_21","capacity":10000,"empty":964,"full":1530,"on_shipper":149,"on_consignee":0,"shortage":0,"acc_shortage":7238,"booking":134,"acc_booking":52436,"fulfillment":134,"acc_fulfillment":45198,"transfer_cost":0.0,"port_name":"Yokohama","position":{"lat":35.443707,"lng":139.638031},"status":"surplus"}]