[{"frame_index":1052,"name":"ports_0","capacity":10000,"empty":5087,"full":1348,"on_shipper":523,"on_consignee":0,"shortage":0,"acc_shortage":861,"booking":301,"acc_booking":134678,"fulfillment":301,"acc_fulfillment":133817,"transfer_cost":0.0,"port_name":"Bremerhaven","position":{"lat":53.549999,"lng":8.583333},"status":"surplus"},{"frame_index":1052,"name":"ports_1","capacity":10000,"empty":429,"full":154,"on_shipper":33,"on_consignee":0,"shortage":0,"acc_shortage":113,"booking":19,"acc_booking":8945,"fulfillment":19,"acc_fulfillment":8832,"transfer_cost":0.0,"port_name":"Durban","position":{"lat":-29.8579,"lng":31.0292},"status":"surplus"},{"frame_index":1052,"name":"ports_2","capacity":10000,"empty":646,"full":93,"on_shipper":23,"on_consignee":0,"shortage":0,"acc_shortage":298,"booking":16,"acc_booking":8909,"fulfillment":16,"acc_fulfillment":8611,"transfer_cost":0.0,"port_name":"Itagual","position":{"lat":-22.85222,"lng":-43.77528},"status":"surplus"},{"frame_index":1052,"name":"ports_3","capacity":10000,"empty":6125,"full":1000,"on_shipper":116,"on_consignee":0,"shortage":0,"acc_shortage":0,"booking":98,"acc_booking":50896,"fulfillment":98,"acc_fulfillment":50896,"transfer_cost":0.0,"port_name":"LeHavre","position":{"lat":49.490002,"lng":0.1},"status":"surplus"},{"frame_index":1052,"name":"ports_4","capacity":10000,"empty":2384,"full":728,"on_shipper":100,"on_consignee":0,"shortage":0,"acc_shortage":290,"booking":85,"acc_booking":42629,"fulfillment":85,"acc_fulfillment":42339,"transfer_cost":0.0,"port_name":"Los Angeles","position":{"lat":34.052235,"lng":-118.243683},"status":"surplus"},{"frame_index":1052,"name":"ports_5","capacity":10000,"empty":1580,"full":775,"on_shipper":104,"on_consignee":0,"shortage":0,"acc_shortage":194,"booking":92,"acc_booking":42670,"fulfillment":92,"acc_fulfillment":42476,"transfer_cost":0.0,"port_name":"Manzanillo","position":{"lat":19.11695,"lng":-104.34214},"status":"surplus"},{"frame_index":1052,"name":"ports_6","capacity":10000,"empty":507,"full":48,"on_shipper":53,"on_consignee":0,"shortage":0,"acc_shortage":2108,"booking":26,"acc_booking":13129,"fulfillment":26,"acc_fulfillment":11021,"transfer_cost":0.0,"port_name":"Melbourne","position":{"lat":-37.840935,"lng":144.946457},"status":"surplus"},{"frame_index":1052,"name":"ports_7","capacity":10000,"empty":1642,"full":38,"on_shipper":40,"on_consignee":0,"shortage":0,"acc_shortage":0,"booking":25,"acc_booking":13132,"fulfillment":25,"acc_fulfillment":13132,"transfer_cost":0.0,"port_name":"Montreal","position":{"lat":45.516136,"lng":-73.65683},"status":"surplus"},{"frame_index":1052,"name":"ports_8","capacity":10000,"empty":4673,"full":676,"on_shipper":80,"on_consignee":0,"shortage":0,"acc_shortage":136,"booking":53,"acc_booking":25662,"fulfillment":53,"acc_fulfillment":25526,"transfer_cost":0.0,"port_name":"New York","position":{"lat":40.73061,"lng":-73.935242},"status":"surplus"},{"frame_index":1052,"name":"ports_9","capacity":10000,"empty":1023,"full":722,"on_shipper":101,"on_consignee":0,"shortage":0,"acc_shortage":45,"booking":43,"acc_booking":25699,"fulfillment":43,"acc_fulfillment":25654,"transfer_cost":0.0,"port_name":"Oakland","position":{"lat":37.804363,"lng":-122.271111},"status":"surplus"},{"frame_index":1052,"name":"ports_10","capacity":10000,"empty":1195,"full":396,"on_shipper":32,"on_consignee":0,"shortage":0,"acc_shortage":314,"booking":21,"acc_booking":13130,"fulfillment":21,"acc_fulfillment":12816,"transfer_cost":0.0,"port_name":"Prince Rupert","position":{"lat":54.312519,"lng":-130.305405},"status":"surplus"},{"frame_index":1052,"name":"ports_11","capacity":10000,"empty":1746,"full":2212,"on_shipper":128,"on_consignee":0,"shortage":0,"acc_shortage":204,"booking":103,"acc_booking":50846,"fulfillment":103,"acc_fulfillment":50642,"transfer_cost":0.0,"port_name":"Pusan","position":{"lat":35.166668,"lng":129.066666},"status":"surplus"},{"frame_index":1052,"name":"ports_12","capacity":10000,"empty":4478,"full":914,"on_shipper":206,"on_consignee":50,"shortage":0,"acc_shortage":0,"booking":123,"acc_booking":67970,"fulfillment":123,"acc_fulfillment":67970,"transfer_cost":0.0,"port_name":"Qingdao","position":{"lat":36.066898,"lng":120.382698},"status":"surplus"},{"frame_index":1052,"name":"ports_13","capacity":10000,"empty":490,"full":51,"on_shipper":23,"on_consignee":0,"shortage":0,"acc_shortage":459,"booking":19,"acc_booking":8912,"fulfillment":19,"acc_fulfillment":8453,"transfer_cost":0.0,"port_name":"San Antonio","position":{"lat":29.424349,"lng":-98.491142},"status":"surplus"},{"frame_index":1052,"name":"ports_14","capacity":10000,"empty":71,"full":285,"on_shipper":22,"on_consignee":0,"shortage":0,"acc_shortage":877,"booking":17,"acc_booking":8968,"fulfillment":17,"acc_fulfillment":8091,"transfer_cost":0.0,"port_name":"Santos","position":{"lat":-23.96083,"lng":-46.33361},"status":"balance"},{"frame_index":1052,"name":"ports_15","capacity":10000,"empty":2637,"full":1105,"on_shipper":181,"on_consignee":0,"shortage":0,"acc_shortage":1489,"booking":118,"acc_booking":59354,"fulfillment":118,"acc_fulfillment":57865,"transfer_cost":0.0,"port_name":"Seattle","position":{"lat":47.608013,"lng":-122.335167},"status":"surplus"},{"frame_index":1052,"name":"ports_16","capacity":10000,"empty":3041,"full":2235,"on_shipper":213,"on_consignee":2,"shortage":0,"acc_shortage":817,"booking":162,"acc_booking":84687,"fulfillment":162,"acc_fulfillment":83870,"transfer_cost":487.0,"port_name":"Shanghai","position":{"lat":31.224361,"lng":121.46917},"status":"surplus"},{"frame_index":1052,"name":"ports_17","capacity":10000,"empty":1652,"full":919,"on_shipper":119,"on_consignee":0,"shortage":0,"acc_shortage":619,"booking":69,"acc_booking":34183,"fulfillment":69,"acc_fulfillment":33564,"transfer_cost":0.0,"port_name":"Singapore","position":{"lat":1.29027,"lng":103.851959},"status":"surplus"},{"frame_index":1052,"name":"ports_18","capacity":10000,"empty":586,"full":366,"on_shipper":32,"on_consignee":0,"shortage":0,"acc_shortage":1374,"booking":23,"acc_booking":13123,"fulfillment":23,"acc_fulfillment":11749,"transfer_cost":0.0,"port_name":"Sydney","position":{"lat":-33.865143,"lng":151.2099},"status":"surplus"},{"frame_index":1052,"name":"ports_19","capacity":10000,"empty":1325,"full":342,"on_shipper":44,"on_consignee":0,"shortage":0,"acc_shortage":0,"booking":31,"acc_booking":17377,"fulfillment":31,"acc_fulfillment":17377,"transfer_cost":0.0,"port_name":"Vancouver","position":{"lat":49.246292,"lng":-123.116226},"status":"surplus"},{"frame_index":1052,"name":"ports_20","capacity":10000,"empty":471,"full":1575,"on_shipper":210,"on_consignee":352,"shortage":0,"acc_shortage":1425,"booking":117,"acc_booking":59076,"fulfillment":117,"acc_fulfillment":57651,"transfer_cost":0.0,"port_name":"Yantian","position":{"lat":26.8533,"lng":119.8575},"status":"demand"},{"frame_index":1052,"name":"ports_21","capacity":10000,"empty":0,"full":264,"on_shipper":47,"on_consignee":882,"shortage":71,"acc_shortage":8488,"booking":118,"acc_booking":56190,"fulfillment":47,"acc_fulfillment":47702,"transfer_cost":0.0,"port_name":"Yokohama","position":{"lat":35.443707,"lng":139.638031},"status":"demand"}]