[{"frame_index":703,"name":"ports_0","capacity":10000,"empty":5468,"full":1130,"on_shipper":290,"on_consignee":0,"shortage":0,"acc_shortage":522,"booking":200,"acc_booking":88689,"fulfillment":200,"acc_fulfillment":88167,"transfer_cost":0.0,"port_name":"Bremerhaven","position":{"lat":53.549999,"lng":8.583333},"status":"surplus"},{"frame_index":703,"name":"ports_1","capacity":10000,"empty":329,"full":127,"on_shipper":20,"on_consignee":0,"shortage":0,"acc_shortage":0,"booking":12,"acc_booking":5894,"fulfillment":12,"acc_fulfillment":5894,"transfer_cost":0.0,"port_name":"Durban","position":{"lat":-29.8579,"lng":31.0292},"status":"surplus"},{"frame_index":703,"name":"ports_2","capacity":10000,"empty":252,"full":269,"on_shipper":14,"on_consignee":0,"shortage":0,"acc_shortage":298,"booking":12,"acc_booking":5876,"fulfillment":12,"acc_fulfillment":5578,"transfer_cost":0.0,"port_name":"Itagual","position":{"lat":-22.85222,"lng":-43.77528},"status":"surplus"},{"frame_index":703,"name":"ports_3","capacity":10000,"empty":2173,"full":654,"on_shipper":92,"on_consignee":329,"shortage":0,"acc_shortage":0,"booking":66,"acc_booking":33539,"fulfillment":66,"acc_fulfillment":33539,"transfer_cost":35.0,"port_name":"LeHavre","position":{"lat":49.490002,"lng":0.1},"status":"surplus"},{"frame_index":703,"name":"ports_4","capacity":10000,"empty":699,"full":309,"on_shipper":93,"on_consignee":577,"shortage":0,"acc_shortage":150,"booking":57,"acc_booking":28073,"fulfillment":57,"acc_fulfillment":27923,"transfer_cost":0.0,"port_name":"Los Angeles","position":{"lat":34.052235,"lng":-118.243683},"status":"surplus"},{"frame_index":703,"name":"ports_5","capacity":10000,"empty":2747,"full":335,"on_shipper":90,"on_consignee":0,"shortage":0,"acc_shortage":123,"booking":63,"acc_booking":28150,"fulfillment":63,"acc_fulfillment":28027,"transfer_cost":0.0,"port_name":"Manzanillo","position":{"lat":19.11695,"lng":-104.34214},"status":"surplus"},{"frame_index":703,"name":"ports_6","capacity":10000,"empty":544,"full":75,"on_shipper":30,"on_consignee":0,"shortage":0,"acc_shortage":1336,"booking":18,"acc_booking":8645,"fulfillment":18,"acc_fulfillment":7309,"transfer_cost":0.0,"port_name":"Melbourne","position":{"lat":-37.840935,"lng":144.946457},"status":"surplus"},{"frame_index":703,"name":"ports_7","capacity":10000,"empty":523,"full":231,"on_shipper":33,"on_consignee":0,"shortage":0,"acc_shortage":0,"booking":17,"acc_booking":8650,"fulfillment":17,"acc_fulfillment":8650,"transfer_cost":0.0,"port_name":"Montreal","position":{"lat":45.516136,"lng":-73.65683},"status":"surplus"},{"frame_index":703,"name":"ports_8","capacity":10000,"empty":4396,"full":550,"on_shipper":50,"on_consignee":0,"shortage":0,"acc_shortage":0,"booking":33,"acc_booking":16897,"fulfillment":33,"acc_fulfillment":16897,"transfer_cost":0.0,"port_name":"New York","position":{"lat":40.73061,"lng":-73.935242},"status":"surplus"},{"frame_index":703,"name":"ports_9","capacity":10000,"empty":1551,"full":184,"on_shipper":58,"on_consignee":0,"shortage":0,"acc_shortage":45,"booking":34,"acc_booking":16957,"fulfillment":34,"acc_fulfillment":16912,"transfer_cost":0.0,"port_name":"Oakland","position":{"lat":37.804363,"lng":-122.271111},"status":"surplus"},{"frame_index":703,"name":"ports_10","capacity":10000,"empty":1749,"full":68,"on_shipper":28,"on_consignee":0,"shortage":0,"acc_shortage":314,"booking":18,"acc_booking":8662,"fulfillment":18,"acc_fulfillment":8348,"transfer_cost":0.0,"port_name":"Prince Rupert","position":{"lat":54.312519,"lng":-130.305405},"status":"surplus"},{"frame_index":703,"name":"ports_11","capacity":10000,"empty":3304,"full":1555,"on_shipper":105,"on_consignee":0,"shortage":0,"acc_shortage":204,"booking":65,"acc_booking":33506,"fulfillment":65,"acc_fulfillment":33302,"transfer_cost":0.0,"port_name":"Pusan","position":{"lat":35.166668,"lng":129.066666},"status":"surplus"},{"frame_index":703,"name":"ports_12","capacity":10000,"empty":847,"full":2261,"on_shipper":168,"on_consignee":0,"shortage":0,"acc_shortage":0,"booking":97,"acc_booking":44723,"fulfillment":97,"acc_fulfillment":44723,"transfer_cost":0.0,"port_name":"Qingdao","position":{"lat":36.066898,"lng":120.382698},"status":"surplus"},{"frame_index":703,"name":"ports_13","capacity":10000,"empty":368,"full":163,"on_shipper":14,"on_consignee":0,"shortage":0,"acc_shortage":325,"booking":12,"acc_booking":5878,"fulfillment":12,"acc_fulfillment":5553,"transfer_cost":0.0,"port_name":"San Antonio","position":{"lat":29.424349,"lng":-98.491142},"status":"surplus"},{"frame_index":703,"name":"ports_14","capacity":10000,"empty":406,"full":0,"on_shipper":19,"on_consignee":483,"shortage":0,"acc_shortage":762,"booking":10,"acc_booking":5916,"fulfillment":10,"acc_fulfillment":5154,"transfer_cost":8.0,"port_name":"Santos","position":{"lat":-23.96083,"lng":-46.33361},"status":"surplus"},{"frame_index":703,"name":"ports_15","capacity":10000,"empty":3403,"full":753,"on_shipper":127,"on_consignee":0,"shortage":0,"acc_shortage":0,"booking":77,"acc_booking":39081,"fulfillment":77,"acc_fulfillment":39081,"transfer_cost":0.0,"port_name":"Seattle","position":{"lat":47.608013,"lng":-122.335167},"status":"surplus"},{"frame_index":703,"name":"ports_16","capacity":10000,"empty":1960,"full":1610,"on_shipper":138,"on_consignee":0,"shortage":0,"acc_shortage":712,"booking":109,"acc_booking":55649,"fulfillment":109,"acc_fulfillment":54937,"transfer_cost":0.0,"port_name":"Shanghai","position":{"lat":31.224361,"lng":121.46917},"status":"surplus"},{"frame_index":703,"name":"ports_17","capacity":10000,"empty":3198,"full":279,"on_shipper":64,"on_consignee":0,"shortage":0,"acc_shortage":283,"booking":45,"acc_booking":22535,"fulfillment":45,"acc_fulfillment":22252,"transfer_cost":0.0,"port_name":"Singapore","position":{"lat":1.29027,"lng":103.851959},"status":"surplus"},{"frame_index":703,"name":"ports_18","capacity":10000,"empty":204,"full":269,"on_shipper":18,"on_consignee":0,"shortage":0,"acc_shortage":1082,"booking":18,"acc_booking":8621,"fulfillment":18,"acc_fulfillment":7539,"transfer_cost":0.0,"port_name":"Sydney","position":{"lat":-33.865143,"lng":151.2099},"status":"surplus"},{"frame_index":703,"name":"ports_19","capacity":10000,"empty":1324,"full":134,"on_shipper":40,"on_consignee":0,"shortage":0,"acc_shortage":0,"booking":24,"acc_booking":11481,"fulfillment":24,"acc_fulfillment":11481,"transfer_cost":0.0,"port_name":"Vancouver","position":{"lat":49.246292,"lng":-123.116226},"status":"surplus"},{"frame_index":703,"name":"ports_20","capacity":10000,"empty":516,"full":1164,"on_shipper":96,"on_consignee":0,"shortage":0,"acc_shortage":395,"booking":72,"acc_booking":38849,"fulfillment":72,"acc_fulfillment":38454,"transfer_cost":0.0,"port_name":"Yantian","position":{"lat":26.8533,"lng":119.8575},"status":"surplus"},{"frame_index":703,"name":"ports_21","capacity":10000,"empty":619,"full":739,"on_shipper":126,"on_consignee":0,"shortage":0,"acc_shortage":4175,"booking":80,"acc_booking":36911,"fulfillment":80,"acc_fulfillment":32736,"transfer_cost":0.0,"port_name":"Yokohama","position":{"lat":35.443707,"lng":139.638031},"status":"surplus"}]