[{"frame_index":32,"name":"ports_0","capacity":10000,"empty":13317,"full":1535,"on_shipper":191,"on_consignee":0,"shortage":0,"acc_shortage":0,"booking":164,"acc_booking":2683,"fulfillment":164,"acc_fulfillment":2683,"transfer_cost":0.0,"port_name":"Bremerhaven","position":{"lat":53.549999,"lng":8.583333},"status":"surplus"},{"frame_index":32,"name":"ports_1","capacity":10000,"empty":825,"full":96,"on_shipper":15,"on_consignee":0,"shortage":0,"acc_shortage":0,"booking":12,"acc_booking":186,"fulfillment":12,"acc_fulfillment":186,"transfer_cost":0.0,"port_name":"Durban","position":{"lat":-29.8579,"lng":31.0292},"status":"surplus"},{"frame_index":32,"name":"ports_2","capacity":10000,"empty":823,"full":75,"on_shipper":15,"on_consignee":0,"shortage":0,"acc_shortage":0,"booking":12,"acc_booking":184,"fulfillment":12,"acc_fulfillment":184,"transfer_cost":0.0,"port_name":"Itagual","position":{"lat":-22.85222,"lng":-43.77528},"status":"surplus"},{"frame_index":32,"name":"ports_3","capacity":10000,"empty":4294,"full":202,"on_shipper":113,"on_consignee":0,"shortage":0,"acc_shortage":0,"booking":68,"acc_booking":1042,"fulfillment":68,"acc_fulfillment":1042,"transfer_cost":0.0,"port_name":"LeHavre","position":{"lat":49.490002,"lng":0.1},"status":"surplus"},{"frame_index":32,"name":"ports_4","capacity":10000,"empty":4130,"full":338,"on_shipper":67,"on_consignee":0,"shortage":0,"acc_shortage":0,"booking":56,"acc_booking":870,"fulfillment":56,"acc_fulfillment":870,"transfer_cost":0.0,"port_name":"Los Angeles","position":{"lat":34.052235,"lng":-118.243683},"status":"surplus"},{"frame_index":32,"name":"ports_5","capacity":10000,"empty":4125,"full":337,"on_shipper":94,"on_consignee":0,"shortage":0,"acc_shortage":0,"booking":62,"acc_booking":875,"fulfillment":62,"acc_fulfillment":875,"transfer_cost":0.0,"port_name":"Manzanillo","position":{"lat":19.11695,"lng":-104.34214},"status":"surplus"},{"frame_index":32,"name":"ports_6","capacity":10000,"empty":1230,"full":130,"on_shipper":26,"on_consignee":0,"shortage":0,"acc_shortage":0,"booking":17,"acc_booking":270,"fulfillment":17,"acc_fulfillment":270,"transfer_cost":0.0,"port_name":"Melbourne","position":{"lat":-37.840935,"lng":144.946457},"status":"surplus"},{"frame_index":32,"name":"ports_7","capacity":10000,"empty":1758,"full":41,"on_shipper":31,"on_consignee":0,"shortage":0,"acc_shortage":0,"booking":17,"acc_booking":268,"fulfillment":17,"acc_fulfillment":268,"transfer_cost":0.0,"port_name":"Montreal","position":{"lat":45.516136,"lng":-73.65683},"status":"surplus"},{"frame_index":32,"name":"ports_8","capacity":10000,"empty":2471,"full":481,"on_shipper":48,"on_consignee":0,"shortage":0,"acc_shortage":0,"booking":36,"acc_booking":529,"fulfillment":36,"acc_fulfillment":529,"transfer_cost":0.0,"port_name":"New York","position":{"lat":40.73061,"lng":-73.935242},"status":"surplus"},{"frame_index":32,"name":"ports_9","capacity":10000,"empty":2481,"full":466,"on_shipper":53,"on_consignee":0,"shortage":0,"acc_shortage":0,"booking":32,"acc_booking":519,"fulfillment":32,"acc_fulfillment":519,"transfer_cost":0.0,"port_name":"Oakland","position":{"lat":37.804363,"lng":-122.271111},"status":"surplus"},{"frame_index":32,"name":"ports_10","capacity":10000,"empty":1217,"full":260,"on_shipper":23,"on_consignee":0,"shortage":0,"acc_shortage":0,"booking":19,"acc_booking":283,"fulfillment":19,"acc_fulfillment":283,"transfer_cost":0.0,"port_name":"Prince Rupert","position":{"lat":54.312519,"lng":-130.305405},"status":"surplus"},{"frame_index":32,"name":"ports_11","capacity":10000,"empty":4968,"full":334,"on_shipper":95,"on_consignee":4,"shortage":0,"acc_shortage":0,"booking":66,"acc_booking":1032,"fulfillment":66,"acc_fulfillment":1032,"transfer_cost":0.0,"port_name":"Pusan","position":{"lat":35.166668,"lng":129.066666},"status":"surplus"},{"frame_index":32,"name":"ports_12","capacity":10000,"empty":6620,"full":894,"on_shipper":135,"on_consignee":0,"shortage":0,"acc_shortage":0,"booking":86,"acc_booking":1380,"fulfillment":86,"acc_fulfillment":1380,"transfer_cost":0.0,"port_name":"Qingdao","position":{"lat":36.066898,"lng":120.382698},"status":"surplus"},{"frame_index":32,"name":"ports_13","capacity":10000,"empty":815,"full":168,"on_shipper":17,"on_consignee":0,"shortage":0,"acc_shortage":0,"booking":11,"acc_booking":185,"fulfillment":11,"acc_fulfillment":185,"transfer_cost":0.0,"port_name":"San Antonio","position":{"lat":29.424349,"lng":-98.491142},"status":"surplus"},{"frame_index":32,"name":"ports_14","capacity":10000,"empty":815,"full":171,"on_shipper":14,"on_consignee":0,"shortage":0,"acc_shortage":0,"booking":12,"acc_booking":185,"fulfillment":12,"acc_fulfillment":185,"transfer_cost":0.0,"port_name":"Santos","position":{"lat":-23.96083,"lng":-46.33361},"status":"surplus"},{"frame_index":32,"name":"ports_15","capacity":10000,"empty":5783,"full":670,"on_shipper":128,"on_consignee":0,"shortage":0,"acc_shortage":0,"booking":79,"acc_booking":1217,"fulfillment":79,"acc_fulfillment":1217,"transfer_cost":0.0,"port_name":"Seattle","position":{"lat":47.608013,"lng":-122.335167},"status":"surplus"},{"frame_index":32,"name":"ports_16","capacity":10000,"empty":8271,"full":766,"on_shipper":174,"on_consignee":34,"shortage":0,"acc_shortage":0,"booking":130,"acc_booking":1729,"fulfillment":130,"acc_fulfillment":1729,"transfer_cost":0.0,"port_name":"Shanghai","position":{"lat":31.224361,"lng":121.46917},"status":"surplus"},{"frame_index":32,"name":"ports_17","capacity":10000,"empty":3308,"full":429,"on_shipper":58,"on_consignee":0,"shortage":0,"acc_shortage":0,"booking":45,"acc_booking":703,"fulfillment":45,"acc_fulfillment":703,"transfer_cost":0.0,"port_name":"Singapore","position":{"lat":1.29027,"lng":103.851959},"status":"surplus"},{"frame_index":32,"name":"ports_18","capacity":10000,"empty":1230,"full":248,"on_shipper":22,"on_consignee":0,"shortage":0,"acc_shortage":0,"booking":17,"acc_booking":270,"fulfillment":17,"acc_fulfillment":270,"transfer_cost":0.0,"port_name":"Sydney","position":{"lat":-33.865143,"lng":151.2099},"status":"surplus"},{"frame_index":32,"name":"ports_19","capacity":10000,"empty":1645,"full":0,"on_shipper":34,"on_consignee":19,"shortage":0,"acc_shortage":0,"booking":23,"acc_booking":355,"fulfillment":23,"acc_fulfillment":355,"transfer_cost":0.0,"port_name":"Vancouver","position":{"lat":49.246292,"lng":-123.116226},"status":"surplus"},{"frame_index":32,"name":"ports_20","capacity":10000,"empty":5797,"full":664,"on_shipper":94,"on_consignee":0,"shortage":0,"acc_shortage":0,"booking":72,"acc_booking":1208,"fulfillment":72,"acc_fulfillment":1208,"transfer_cost":0.0,"port_name":"Yantian","position":{"lat":26.8533,"lng":119.8575},"status":"surplus"},{"frame_index":32,"name":"ports_21","capacity":10000,"empty":6962,"full":934,"on_shipper":104,"on_consignee":0,"shortage":0,"acc_shortage":0,"booking":82,"acc_booking":1038,"fulfillment":82,"acc_fulfillment":1038,"transfer_cost":0.0,"port_name":"Yokohama","position":{"lat":35.443707,"lng":139.638031},"status":"surplus"}]