[{"frame_index":483,"name":"ports_0","capacity":10000,"empty":3138,"full":1974,"on_shipper":124,"on_consignee":0,"shortage":0,"acc_shortage":522,"booking":93,"acc_booking":60161,"fulfillment":93,"acc_fulfillment":59639,"transfer_cost":0.0,"port_name":"Bremerhaven","position":{"lat":53.549999,"lng":8.583333},"status":"surplus"},{"frame_index":483,"name":"ports_1","capacity":10000,"empty":119,"full":290,"on_shipper":10,"on_consignee":0,"shortage":0,"acc_shortage":0,"booking":7,"acc_booking":4032,"fulfillment":7,"acc_fulfillment":4032,"transfer_cost":0.0,"port_name":"Durban","position":{"lat":-29.8579,"lng":31.0292},"status":"surplus"},{"frame_index":483,"name":"ports_2","capacity":10000,"empty":835,"full":147,"on_shipper":11,"on_consignee":0,"shortage":0,"acc_shortage":233,"booking":7,"acc_booking":4006,"fulfillment":7,"acc_fulfillment":3773,"transfer_cost":0.0,"port_name":"Itagual","position":{"lat":-22.85222,"lng":-43.77528},"status":"surplus"},{"frame_index":483,"name":"ports_3","capacity":10000,"empty":1620,"full":452,"on_shipper":61,"on_consignee":0,"shortage":0,"acc_shortage":0,"booking":39,"acc_booking":22868,"fulfillment":39,"acc_fulfillment":22868,"transfer_cost":0.0,"port_name":"LeHavre","position":{"lat":49.490002,"lng":0.1},"status":"surplus"},{"frame_index":483,"name":"ports_4","capacity":10000,"empty":3126,"full":483,"on_shipper":44,"on_consignee":0,"shortage":0,"acc_shortage":0,"booking":33,"acc_booking":19116,"fulfillment":33,"acc_fulfillment":19116,"transfer_cost":0.0,"port_name":"Los Angeles","position":{"lat":34.052235,"lng":-118.243683},"status":"surplus"},{"frame_index":483,"name":"ports_5","capacity":10000,"empty":2129,"full":164,"on_shipper":46,"on_consignee":0,"shortage":0,"acc_shortage":123,"booking":28,"acc_booking":19190,"fulfillment":28,"acc_fulfillment":19067,"transfer_cost":0.0,"port_name":"Manzanillo","position":{"lat":19.11695,"lng":-104.34214},"status":"surplus"},{"frame_index":483,"name":"ports_6","capacity":10000,"empty":295,"full":230,"on_shipper":15,"on_consignee":0,"shortage":0,"acc_shortage":837,"booking":10,"acc_booking":5890,"fulfillment":10,"acc_fulfillment":5053,"transfer_cost":0.0,"port_name":"Melbourne","position":{"lat":-37.840935,"lng":144.946457},"status":"surplus"},{"frame_index":483,"name":"ports_7","capacity":10000,"empty":2214,"full":72,"on_shipper":24,"on_consignee":0,"shortage":0,"acc_shortage":0,"booking":10,"acc_booking":5893,"fulfillment":10,"acc_fulfillment":5893,"transfer_cost":0.0,"port_name":"Montreal","position":{"lat":45.516136,"lng":-73.65683},"status":"surplus"},{"frame_index":483,"name":"ports_8","capacity":10000,"empty":2150,"full":186,"on_shipper":37,"on_consignee":0,"shortage":0,"acc_shortage":0,"booking":21,"acc_booking":11502,"fulfillment":21,"acc_fulfillment":11502,"transfer_cost":0.0,"port_name":"New York","position":{"lat":40.73061,"lng":-73.935242},"status":"surplus"},{"frame_index":483,"name":"ports_9","capacity":10000,"empty":2401,"full":408,"on_shipper":25,"on_consignee":0,"shortage":0,"acc_shortage":45,"booking":17,"acc_booking":11510,"fulfillment":17,"acc_fulfillment":11465,"transfer_cost":0.0,"port_name":"Oakland","position":{"lat":37.804363,"lng":-122.271111},"status":"surplus"},{"frame_index":483,"name":"ports_10","capacity":10000,"empty":140,"full":329,"on_shipper":23,"on_consignee":0,"shortage":0,"acc_shortage":0,"booking":12,"acc_booking":5897,"fulfillment":12,"acc_fulfillment":5897,"transfer_cost":0.0,"port_name":"Prince Rupert","position":{"lat":54.312519,"lng":-130.305405},"status":"surplus"},{"frame_index":483,"name":"ports_11","capacity":10000,"empty":3412,"full":362,"on_shipper":65,"on_consignee":123,"shortage":0,"acc_shortage":204,"booking":39,"acc_booking":22804,"fulfillment":39,"acc_fulfillment":22600,"transfer_cost":0.0,"port_name":"Pusan","position":{"lat":35.166668,"lng":129.066666},"status":"surplus"},{"frame_index":483,"name":"ports_12","capacity":10000,"empty":4322,"full":1048,"on_shipper":105,"on_consignee":0,"shortage":0,"acc_shortage":0,"booking":52,"acc_booking":30482,"fulfillment":52,"acc_fulfillment":30482,"transfer_cost":0.0,"port_name":"Qingdao","position":{"lat":36.066898,"lng":120.382698},"status":"surplus"},{"frame_index":483,"name":"ports_13","capacity":10000,"empty":549,"full":11,"on_shipper":11,"on_consignee":100,"shortage":0,"acc_shortage":286,"booking":7,"acc_booking":3997,"fulfillment":7,"acc_fulfillment":3711,"transfer_cost":0.0,"port_name":"San Antonio","position":{"lat":29.424349,"lng":-98.491142},"status":"surplus"},{"frame_index":483,"name":"ports_14","capacity":10000,"empty":218,"full":201,"on_shipper":11,"on_consignee":0,"shortage":0,"acc_shortage":697,"booking":7,"acc_booking":4038,"fulfillment":7,"acc_fulfillment":3341,"transfer_cost":0.0,"port_name":"Santos","position":{"lat":-23.96083,"lng":-46.33361},"status":"surplus"},{"frame_index":483,"name":"ports_15","capacity":10000,"empty":4303,"full":39,"on_shipper":89,"on_consignee":378,"shortage":0,"acc_shortage":0,"booking":46,"acc_booking":26626,"fulfillment":46,"acc_fulfillment":26626,"transfer_cost":0.0,"port_name":"Seattle","position":{"lat":47.608013,"lng":-122.335167},"status":"surplus"},{"frame_index":483,"name":"ports_16","capacity":10000,"empty":1389,"full":1177,"on_shipper":81,"on_consignee":0,"shortage":0,"acc_shortage":0,"booking":62,"acc_booking":37973,"fulfillment":62,"acc_fulfillment":37973,"transfer_cost":0.0,"port_name":"Shanghai","position":{"lat":31.224361,"lng":121.46917},"status":"surplus"},{"frame_index":483,"name":"ports_17","capacity":10000,"empty":3005,"full":286,"on_shipper":41,"on_consignee":84,"shortage":0,"acc_shortage":40,"booking":26,"acc_booking":15337,"fulfillment":26,"acc_fulfillment":15297,"transfer_cost":692.0,"port_name":"Singapore","position":{"lat":1.29027,"lng":103.851959},"status":"surplus"},{"frame_index":483,"name":"ports_18","capacity":10000,"empty":606,"full":208,"on_shipper":15,"on_consignee":0,"shortage":0,"acc_shortage":774,"booking":10,"acc_booking":5858,"fulfillment":10,"acc_fulfillment":5084,"transfer_cost":0.0,"port_name":"Sydney","position":{"lat":-33.865143,"lng":151.2099},"status":"surplus"},{"frame_index":483,"name":"ports_19","capacity":10000,"empty":637,"full":212,"on_shipper":26,"on_consignee":258,"shortage":0,"acc_shortage":0,"booking":14,"acc_booking":7826,"fulfillment":14,"acc_fulfillment":7826,"transfer_cost":0.0,"port_name":"Vancouver","position":{"lat":49.246292,"lng":-123.116226},"status":"surplus"},{"frame_index":483,"name":"ports_20","capacity":10000,"empty":1858,"full":904,"on_shipper":78,"on_consignee":5,"shortage":0,"acc_shortage":350,"booking":48,"acc_booking":26387,"fulfillment":48,"acc_fulfillment":26037,"transfer_cost":80.0,"port_name":"Yantian","position":{"lat":26.8533,"lng":119.8575},"status":"surplus"},{"frame_index":483,"name":"ports_21","capacity":10000,"empty":1790,"full":434,"on_shipper":88,"on_consignee":0,"shortage":0,"acc_shortage":2740,"booking":44,"acc_booking":25093,"fulfillment":44,"acc_fulfillment":22353,"transfer_cost":0.0,"port_name":"Yokohama","position":{"lat":35.443707,"lng":139.638031},"status":"surplus"}]