[{"frame_index":177,"name":"ports_0","capacity":10000,"empty":5463,"full":4674,"on_shipper":102,"on_consignee":0,"shortage":0,"acc_shortage":0,"booking":85,"acc_booking":23005,"fulfillment":85,"acc_fulfillment":23005,"transfer_cost":0.0,"port_name":"Bremerhaven","position":{"lat":53.549999,"lng":8.583333},"status":"surplus"},{"frame_index":177,"name":"ports_1","capacity":10000,"empty":547,"full":363,"on_shipper":7,"on_consignee":0,"shortage":0,"acc_shortage":0,"booking":5,"acc_booking":1542,"fulfillment":5,"acc_fulfillment":1542,"transfer_cost":0.0,"port_name":"Durban","position":{"lat":-29.8579,"lng":31.0292},"status":"surplus"},{"frame_index":177,"name":"ports_2","capacity":10000,"empty":371,"full":343,"on_shipper":6,"on_consignee":0,"shortage":0,"acc_shortage":233,"booking":5,"acc_booking":1528,"fulfillment":5,"acc_fulfillment":1295,"transfer_cost":0.0,"port_name":"Itagual","position":{"lat":-22.85222,"lng":-43.77528},"status":"surplus"},{"frame_index":177,"name":"ports_3","capacity":10000,"empty":3525,"full":725,"on_shipper":31,"on_consignee":0,"shortage":0,"acc_shortage":0,"booking":28,"acc_booking":8743,"fulfillment":28,"acc_fulfillment":8743,"transfer_cost":0.0,"port_name":"LeHavre","position":{"lat":49.490002,"lng":0.1},"status":"surplus"},{"frame_index":177,"name":"ports_4","capacity":10000,"empty":1751,"full":205,"on_shipper":28,"on_consignee":1427,"shortage":0,"acc_shortage":0,"booking":23,"acc_booking":7309,"fulfillment":23,"acc_fulfillment":7309,"transfer_cost":7.0,"port_name":"Los Angeles","position":{"lat":34.052235,"lng":-118.243683},"status":"surplus"},{"frame_index":177,"name":"ports_5","capacity":10000,"empty":1129,"full":936,"on_shipper":23,"on_consignee":0,"shortage":0,"acc_shortage":0,"booking":22,"acc_booking":7297,"fulfillment":22,"acc_fulfillment":7297,"transfer_cost":0.0,"port_name":"Manzanillo","position":{"lat":19.11695,"lng":-104.34214},"status":"surplus"},{"frame_index":177,"name":"ports_6","capacity":10000,"empty":190,"full":512,"on_shipper":8,"on_consignee":0,"shortage":0,"acc_shortage":0,"booking":7,"acc_booking":2249,"fulfillment":7,"acc_fulfillment":2249,"transfer_cost":0.0,"port_name":"Melbourne","position":{"lat":-37.840935,"lng":144.946457},"status":"surplus"},{"frame_index":177,"name":"ports_7","capacity":10000,"empty":2077,"full":631,"on_shipper":7,"on_consignee":0,"shortage":0,"acc_shortage":0,"booking":7,"acc_booking":2246,"fulfillment":7,"acc_fulfillment":2246,"transfer_cost":0.0,"port_name":"Montreal","position":{"lat":45.516136,"lng":-73.65683},"status":"surplus"},{"frame_index":177,"name":"ports_8","capacity":10000,"empty":3914,"full":519,"on_shipper":16,"on_consignee":0,"shortage":0,"acc_shortage":0,"booking":15,"acc_booking":4395,"fulfillment":15,"acc_fulfillment":4395,"transfer_cost":0.0,"port_name":"New York","position":{"lat":40.73061,"lng":-73.935242},"status":"surplus"},{"frame_index":177,"name":"ports_9","capacity":10000,"empty":855,"full":1544,"on_shipper":17,"on_consignee":0,"shortage":0,"acc_shortage":0,"booking":14,"acc_booking":4383,"fulfillment":14,"acc_fulfillment":4383,"transfer_cost":0.0,"port_name":"Oakland","position":{"lat":37.804363,"lng":-122.271111},"status":"surplus"},{"frame_index":177,"name":"ports_10","capacity":10000,"empty":944,"full":138,"on_shipper":11,"on_consignee":0,"shortage":0,"acc_shortage":0,"booking":9,"acc_booking":2240,"fulfillment":9,"acc_fulfillment":2240,"transfer_cost":0.0,"port_name":"Prince Rupert","position":{"lat":54.312519,"lng":-130.305405},"status":"surplus"},{"frame_index":177,"name":"ports_11","capacity":10000,"empty":2180,"full":209,"on_shipper":30,"on_consignee":0,"shortage":0,"acc_shortage":0,"booking":29,"acc_booking":8714,"fulfillment":29,"acc_fulfillment":8714,"transfer_cost":0.0,"port_name":"Pusan","position":{"lat":35.166668,"lng":129.066666},"status":"surplus"},{"frame_index":177,"name":"ports_12","capacity":10000,"empty":1965,"full":1905,"on_shipper":45,"on_consignee":0,"shortage":0,"acc_shortage":0,"booking":37,"acc_booking":11630,"fulfillment":37,"acc_fulfillment":11630,"transfer_cost":0.0,"port_name":"Qingdao","position":{"lat":36.066898,"lng":120.382698},"status":"surplus"},{"frame_index":177,"name":"ports_13","capacity":10000,"empty":452,"full":12,"on_shipper":7,"on_consignee":0,"shortage":0,"acc_shortage":55,"booking":5,"acc_booking":1530,"fulfillment":5,"acc_fulfillment":1475,"transfer_cost":0.0,"port_name":"San Antonio","position":{"lat":29.424349,"lng":-98.491142},"status":"surplus"},{"frame_index":177,"name":"ports_14","capacity":10000,"empty":0,"full":224,"on_shipper":0,"on_consignee":0,"shortage":4,"acc_shortage":370,"booking":4,"acc_booking":1546,"fulfillment":0,"acc_fulfillment":1176,"transfer_cost":0.0,"port_name":"Santos","position":{"lat":-23.96083,"lng":-46.33361},"status":"balance"},{"frame_index":177,"name":"ports_15","capacity":10000,"empty":2573,"full":1403,"on_shipper":37,"on_consignee":0,"shortage":0,"acc_shortage":0,"booking":31,"acc_booking":10174,"fulfillment":31,"acc_fulfillment":10174,"transfer_cost":0.0,"port_name":"Seattle","position":{"lat":47.608013,"lng":-122.335167},"status":"surplus"},{"frame_index":177,"name":"ports_16","capacity":10000,"empty":2523,"full":2154,"on_shipper":49,"on_consignee":2,"shortage":0,"acc_shortage":0,"booking":43,"acc_booking":14526,"fulfillment":43,"acc_fulfillment":14526,"transfer_cost":0.0,"port_name":"Shanghai","position":{"lat":31.224361,"lng":121.46917},"status":"surplus"},{"frame_index":177,"name":"ports_17","capacity":10000,"empty":352,"full":611,"on_shipper":19,"on_consignee":0,"shortage":0,"acc_shortage":0,"booking":18,"acc_booking":5869,"fulfillment":18,"acc_fulfillment":5869,"transfer_cost":0.0,"port_name":"Singapore","position":{"lat":1.29027,"lng":103.851959},"status":"surplus"},{"frame_index":177,"name":"ports_18","capacity":10000,"empty":333,"full":318,"on_shipper":9,"on_consignee":0,"shortage":0,"acc_shortage":0,"booking":8,"acc_booking":2224,"fulfillment":8,"acc_fulfillment":2224,"transfer_cost":0.0,"port_name":"Sydney","position":{"lat":-33.865143,"lng":151.2099},"status":"surplus"},{"frame_index":177,"name":"ports_19","capacity":10000,"empty":765,"full":189,"on_shipper":11,"on_consignee":0,"shortage":0,"acc_shortage":0,"booking":10,"acc_booking":2974,"fulfillment":10,"acc_fulfillment":2974,"transfer_cost":0.0,"port_name":"Vancouver","position":{"lat":49.246292,"lng":-123.116226},"status":"surplus"},{"frame_index":177,"name":"ports_20","capacity":10000,"empty":1200,"full":1605,"on_shipper":41,"on_consignee":25,"shortage":0,"acc_shortage":0,"booking":34,"acc_booking":9999,"fulfillment":34,"acc_fulfillment":9999,"transfer_cost":0.0,"port_name":"Yantian","position":{"lat":26.8533,"lng":119.8575},"status":"surplus"},{"frame_index":177,"name":"ports_21","capacity":10000,"empty":1024,"full":2625,"on_shipper":27,"on_consignee":0,"shortage":0,"acc_shortage":0,"booking":27,"acc_booking":9672,"fulfillment":27,"acc_fulfillment":9672,"transfer_cost":0.0,"port_name":"Yokohama","position":{"lat":35.443707,"lng":139.638031},"status":"surplus"}]