[{"frame_index":772,"name":"ports_0","capacity":10000,"empty":3111,"full":4099,"on_shipper":154,"on_consignee":0,"shortage":0,"acc_shortage":522,"booking":122,"acc_booking":99778,"fulfillment":122,"acc_fulfillment":99256,"transfer_cost":0.0,"port_name":"Bremerhaven","position":{"lat":53.549999,"lng":8.583333},"status":"surplus"},{"frame_index":772,"name":"ports_1","capacity":10000,"empty":242,"full":16,"on_shipper":10,"on_consignee":0,"shortage":0,"acc_shortage":10,"booking":8,"acc_booking":6626,"fulfillment":8,"acc_fulfillment":6616,"transfer_cost":0.0,"port_name":"Durban","position":{"lat":-29.8579,"lng":31.0292},"status":"surplus"},{"frame_index":772,"name":"ports_2","capacity":10000,"empty":86,"full":0,"on_shipper":8,"on_consignee":494,"shortage":0,"acc_shortage":298,"booking":7,"acc_booking":6603,"fulfillment":7,"acc_fulfillment":6305,"transfer_cost":200.0,"port_name":"Itagual","position":{"lat":-22.85222,"lng":-43.77528},"status":"surplus"},{"frame_index":772,"name":"ports_3","capacity":10000,"empty":1167,"full":2277,"on_shipper":60,"on_consignee":0,"shortage":0,"acc_shortage":0,"booking":40,"acc_booking":37762,"fulfillment":40,"acc_fulfillment":37762,"transfer_cost":0.0,"port_name":"LeHavre","position":{"lat":49.490002,"lng":0.1},"status":"surplus"},{"frame_index":772,"name":"ports_4","capacity":10000,"empty":1275,"full":1303,"on_shipper":59,"on_consignee":0,"shortage":0,"acc_shortage":290,"booking":35,"acc_booking":31607,"fulfillment":35,"acc_fulfillment":31317,"transfer_cost":0.0,"port_name":"Los Angeles","position":{"lat":34.052235,"lng":-118.243683},"status":"surplus"},{"frame_index":772,"name":"ports_5","capacity":10000,"empty":1687,"full":690,"on_shipper":53,"on_consignee":0,"shortage":0,"acc_shortage":123,"booking":33,"acc_booking":31730,"fulfillment":33,"acc_fulfillment":31607,"transfer_cost":0.0,"port_name":"Manzanillo","position":{"lat":19.11695,"lng":-104.34214},"status":"surplus"},{"frame_index":772,"name":"ports_6","capacity":10000,"empty":384,"full":46,"on_shipper":21,"on_consignee":0,"shortage":0,"acc_shortage":1572,"booking":11,"acc_booking":9727,"fulfillment":11,"acc_fulfillment":8155,"transfer_cost":0.0,"port_name":"Melbourne","position":{"lat":-37.840935,"lng":144.946457},"status":"surplus"},{"frame_index":772,"name":"ports_7","capacity":10000,"empty":850,"full":18,"on_shipper":17,"on_consignee":0,"shortage":0,"acc_shortage":0,"booking":11,"acc_booking":9736,"fulfillment":11,"acc_fulfillment":9736,"transfer_cost":0.0,"port_name":"Montreal","position":{"lat":45.516136,"lng":-73.65683},"status":"surplus"},{"frame_index":772,"name":"ports_8","capacity":10000,"empty":0,"full":0,"on_shipper":0,"on_consignee":4257,"shortage":21,"acc_shortage":136,"booking":21,"acc_booking":19018,"fulfillment":0,"acc_fulfillment":18882,"transfer_cost":0.0,"port_name":"New York","position":{"lat":40.73061,"lng":-73.935242},"status":"demand"},{"frame_index":772,"name":"ports_9","capacity":10000,"empty":266,"full":654,"on_shipper":36,"on_consignee":0,"shortage":0,"acc_shortage":45,"booking":24,"acc_booking":19064,"fulfillment":24,"acc_fulfillment":19019,"transfer_cost":0.0,"port_name":"Oakland","position":{"lat":37.804363,"lng":-122.271111},"status":"surplus"},{"frame_index":772,"name":"ports_10","capacity":10000,"empty":1084,"full":115,"on_shipper":18,"on_consignee":0,"shortage":0,"acc_shortage":314,"booking":9,"acc_booking":9749,"fulfillment":9,"acc_fulfillment":9435,"transfer_cost":0.0,"port_name":"Prince Rupert","position":{"lat":54.312519,"lng":-130.305405},"status":"surplus"},{"frame_index":772,"name":"ports_11","capacity":10000,"empty":2522,"full":435,"on_shipper":62,"on_consignee":0,"shortage":0,"acc_shortage":204,"booking":40,"acc_booking":37713,"fulfillment":40,"acc_fulfillment":37509,"transfer_cost":0.0,"port_name":"Pusan","position":{"lat":35.166668,"lng":129.066666},"status":"surplus"},{"frame_index":772,"name":"ports_12","capacity":10000,"empty":3045,"full":1193,"on_shipper":67,"on_consignee":0,"shortage":0,"acc_shortage":0,"booking":54,"acc_booking":50403,"fulfillment":54,"acc_fulfillment":50403,"transfer_cost":0.0,"port_name":"Qingdao","position":{"lat":36.066898,"lng":120.382698},"status":"surplus"},{"frame_index":772,"name":"ports_13","capacity":10000,"empty":0,"full":617,"on_shipper":0,"on_consignee":0,"shortage":7,"acc_shortage":416,"booking":7,"acc_booking":6615,"fulfillment":0,"acc_fulfillment":6199,"transfer_cost":0.0,"port_name":"San Antonio","position":{"lat":29.424349,"lng":-98.491142},"status":"balance"},{"frame_index":772,"name":"ports_14","capacity":10000,"empty":557,"full":17,"on_shipper":11,"on_consignee":0,"shortage":0,"acc_shortage":762,"booking":6,"acc_booking":6654,"fulfillment":6,"acc_fulfillment":5892,"transfer_cost":0.0,"port_name":"Santos","position":{"lat":-23.96083,"lng":-46.33361},"status":"surplus"},{"frame_index":772,"name":"ports_15","capacity":10000,"empty":522,"full":746,"on_shipper":77,"on_consignee":902,"shortage":0,"acc_shortage":0,"booking":49,"acc_booking":44042,"fulfillment":49,"acc_fulfillment":44042,"transfer_cost":0.0,"port_name":"Seattle","position":{"lat":47.608013,"lng":-122.335167},"status":"surplus"},{"frame_index":772,"name":"ports_16","capacity":10000,"empty":1719,"full":798,"on_shipper":104,"on_consignee":284,"shortage":0,"acc_shortage":760,"booking":65,"acc_booking":62677,"fulfillment":65,"acc_fulfillment":61917,"transfer_cost":0.0,"port_name":"Shanghai","position":{"lat":31.224361,"lng":121.46917},"status":"surplus"},{"frame_index":772,"name":"ports_17","capacity":10000,"empty":689,"full":755,"on_shipper":37,"on_consignee":175,"shortage":0,"acc_shortage":283,"booking":28,"acc_booking":25373,"fulfillment":28,"acc_fulfillment":25090,"transfer_cost":88.0,"port_name":"Singapore","position":{"lat":1.29027,"lng":103.851959},"status":"surplus"},{"frame_index":772,"name":"ports_18","capacity":10000,"empty":0,"full":411,"on_shipper":0,"on_consignee":0,"shortage":11,"acc_shortage":1257,"booking":11,"acc_booking":9739,"fulfillment":0,"acc_fulfillment":8482,"transfer_cost":0.0,"port_name":"Sydney","position":{"lat":-33.865143,"lng":151.2099},"status":"demand"},{"frame_index":772,"name":"ports_19","capacity":10000,"empty":660,"full":714,"on_shipper":19,"on_consignee":0,"shortage":0,"acc_shortage":0,"booking":14,"acc_booking":12909,"fulfillment":14,"acc_fulfillment":12909,"transfer_cost":0.0,"port_name":"Vancouver","position":{"lat":49.246292,"lng":-123.116226},"status":"surplus"},{"frame_index":772,"name":"ports_20","capacity":10000,"empty":1424,"full":205,"on_shipper":74,"on_consignee":154,"shortage":0,"acc_shortage":942,"booking":45,"acc_booking":43746,"fulfillment":45,"acc_fulfillment":42804,"transfer_cost":0.0,"port_name":"Yantian","position":{"lat":26.8533,"lng":119.8575},"status":"surplus"},{"frame_index":772,"name":"ports_21","capacity":10000,"empty":0,"full":383,"on_shipper":0,"on_consignee":0,"shortage":43,"acc_shortage":5831,"booking":43,"acc_booking":41792,"fulfillment":0,"acc_fulfillment":35961,"transfer_cost":0.0,"port_name":"Yokohama","position":{"lat":35.443707,"lng":139.638031},"status":"demand"}]