[{"frame_index":807,"name":"ports_0","capacity":10000,"empty":2742,"full":3764,"on_shipper":112,"on_consignee":0,"shortage":0,"acc_shortage":522,"booking":87,"acc_booking":102040,"fulfillment":87,"acc_fulfillment":101518,"transfer_cost":0.0,"port_name":"Bremerhaven","position":{"lat":53.549999,"lng":8.583333},"status":"surplus"},{"frame_index":807,"name":"ports_1","capacity":10000,"empty":333,"full":85,"on_shipper":9,"on_consignee":0,"shortage":0,"acc_shortage":10,"booking":6,"acc_booking":6785,"fulfillment":6,"acc_fulfillment":6775,"transfer_cost":0.0,"port_name":"Durban","position":{"lat":-29.8579,"lng":31.0292},"status":"surplus"},{"frame_index":807,"name":"ports_2","capacity":10000,"empty":422,"full":155,"on_shipper":11,"on_consignee":0,"shortage":0,"acc_shortage":298,"booking":6,"acc_booking":6761,"fulfillment":6,"acc_fulfillment":6463,"transfer_cost":0.0,"port_name":"Itagual","position":{"lat":-22.85222,"lng":-43.77528},"status":"surplus"},{"frame_index":807,"name":"ports_3","capacity":10000,"empty":3778,"full":272,"on_shipper":44,"on_consignee":0,"shortage":0,"acc_shortage":0,"booking":30,"acc_booking":38618,"fulfillment":30,"acc_fulfillment":38618,"transfer_cost":0.0,"port_name":"LeHavre","position":{"lat":49.490002,"lng":0.1},"status":"surplus"},{"frame_index":807,"name":"ports_4","capacity":10000,"empty":1093,"full":707,"on_shipper":35,"on_consignee":0,"shortage":0,"acc_shortage":290,"booking":26,"acc_booking":32328,"fulfillment":26,"acc_fulfillment":32038,"transfer_cost":0.0,"port_name":"Los Angeles","position":{"lat":34.052235,"lng":-118.243683},"status":"surplus"},{"frame_index":807,"name":"ports_5","capacity":10000,"empty":2583,"full":160,"on_shipper":40,"on_consignee":0,"shortage":0,"acc_shortage":123,"booking":28,"acc_booking":32439,"fulfillment":28,"acc_fulfillment":32316,"transfer_cost":0.0,"port_name":"Manzanillo","position":{"lat":19.11695,"lng":-104.34214},"status":"surplus"},{"frame_index":807,"name":"ports_6","capacity":10000,"empty":155,"full":285,"on_shipper":11,"on_consignee":0,"shortage":0,"acc_shortage":1572,"booking":8,"acc_booking":9956,"fulfillment":8,"acc_fulfillment":8384,"transfer_cost":0.0,"port_name":"Melbourne","position":{"lat":-37.840935,"lng":144.946457},"status":"surplus"},{"frame_index":807,"name":"ports_7","capacity":10000,"empty":874,"full":172,"on_shipper":12,"on_consignee":0,"shortage":0,"acc_shortage":0,"booking":8,"acc_booking":9967,"fulfillment":8,"acc_fulfillment":9967,"transfer_cost":0.0,"port_name":"Montreal","position":{"lat":45.516136,"lng":-73.65683},"status":"surplus"},{"frame_index":807,"name":"ports_8","capacity":10000,"empty":2287,"full":219,"on_shipper":24,"on_consignee":0,"shortage":0,"acc_shortage":136,"booking":16,"acc_booking":19464,"fulfillment":16,"acc_fulfillment":19328,"transfer_cost":0.0,"port_name":"New York","position":{"lat":40.73061,"lng":-73.935242},"status":"surplus"},{"frame_index":807,"name":"ports_9","capacity":10000,"empty":1520,"full":127,"on_shipper":27,"on_consignee":0,"shortage":0,"acc_shortage":45,"booking":18,"acc_booking":19501,"fulfillment":18,"acc_fulfillment":19456,"transfer_cost":0.0,"port_name":"Oakland","position":{"lat":37.804363,"lng":-122.271111},"status":"surplus"},{"frame_index":807,"name":"ports_10","capacity":10000,"empty":1398,"full":89,"on_shipper":13,"on_consignee":0,"shortage":0,"acc_shortage":314,"booking":9,"acc_booking":9977,"fulfillment":9,"acc_fulfillment":9663,"transfer_cost":0.0,"port_name":"Prince Rupert","position":{"lat":54.312519,"lng":-130.305405},"status":"surplus"},{"frame_index":807,"name":"ports_11","capacity":10000,"empty":3659,"full":313,"on_shipper":44,"on_consignee":0,"shortage":0,"acc_shortage":204,"booking":30,"acc_booking":38576,"fulfillment":30,"acc_fulfillment":38372,"transfer_cost":0.0,"port_name":"Pusan","position":{"lat":35.166668,"lng":129.066666},"status":"surplus"},{"frame_index":807,"name":"ports_12","capacity":10000,"empty":2718,"full":1045,"on_shipper":55,"on_consignee":170,"shortage":0,"acc_shortage":0,"booking":45,"acc_booking":51554,"fulfillment":45,"acc_fulfillment":51554,"transfer_cost":146.0,"port_name":"Qingdao","position":{"lat":36.066898,"lng":120.382698},"status":"surplus"},{"frame_index":807,"name":"ports_13","capacity":10000,"empty":682,"full":83,"on_shipper":9,"on_consignee":0,"shortage":0,"acc_shortage":449,"booking":5,"acc_booking":6767,"fulfillment":5,"acc_fulfillment":6318,"transfer_cost":0.0,"port_name":"San Antonio","position":{"lat":29.424349,"lng":-98.491142},"status":"surplus"},{"frame_index":807,"name":"ports_14","capacity":10000,"empty":166,"full":122,"on_shipper":7,"on_consignee":0,"shortage":0,"acc_shortage":762,"booking":6,"acc_booking":6810,"fulfillment":6,"acc_fulfillment":6048,"transfer_cost":0.0,"port_name":"Santos","position":{"lat":-23.96083,"lng":-46.33361},"status":"surplus"},{"frame_index":807,"name":"ports_15","capacity":10000,"empty":2336,"full":272,"on_shipper":62,"on_consignee":0,"shortage":0,"acc_shortage":0,"booking":35,"acc_booking":45043,"fulfillment":35,"acc_fulfillment":45043,"transfer_cost":0.0,"port_name":"Seattle","position":{"lat":47.608013,"lng":-122.335167},"status":"surplus"},{"frame_index":807,"name":"ports_16","capacity":10000,"empty":3257,"full":432,"on_shipper":78,"on_consignee":4,"shortage":0,"acc_shortage":760,"booking":48,"acc_booking":64105,"fulfillment":48,"acc_fulfillment":63345,"transfer_cost":1.0,"port_name":"Shanghai","position":{"lat":31.224361,"lng":121.46917},"status":"surplus"},{"frame_index":807,"name":"ports_17","capacity":10000,"empty":1490,"full":228,"on_shipper":33,"on_consignee":0,"shortage":0,"acc_shortage":283,"booking":21,"acc_booking":25948,"fulfillment":21,"acc_fulfillment":25665,"transfer_cost":0.0,"port_name":"Singapore","position":{"lat":1.29027,"lng":103.851959},"status":"surplus"},{"frame_index":807,"name":"ports_18","capacity":10000,"empty":251,"full":254,"on_shipper":12,"on_consignee":0,"shortage":0,"acc_shortage":1374,"booking":8,"acc_booking":9970,"fulfillment":8,"acc_fulfillment":8596,"transfer_cost":0.0,"port_name":"Sydney","position":{"lat":-33.865143,"lng":151.2099},"status":"surplus"},{"frame_index":807,"name":"ports_19","capacity":10000,"empty":934,"full":423,"on_shipper":13,"on_consignee":0,"shortage":0,"acc_shortage":0,"booking":11,"acc_booking":13212,"fulfillment":11,"acc_fulfillment":13212,"transfer_cost":0.0,"port_name":"Vancouver","position":{"lat":49.246292,"lng":-123.116226},"status":"surplus"},{"frame_index":807,"name":"ports_20","capacity":10000,"empty":2191,"full":368,"on_shipper":47,"on_consignee":0,"shortage":0,"acc_shortage":942,"booking":32,"acc_booking":44757,"fulfillment":32,"acc_fulfillment":43815,"transfer_cost":0.0,"port_name":"Yantian","position":{"lat":26.8533,"lng":119.8575},"status":"surplus"},{"frame_index":807,"name":"ports_21","capacity":10000,"empty":1451,"full":520,"on_shipper":29,"on_consignee":0,"shortage":0,"acc_shortage":6236,"booking":29,"acc_booking":42550,"fulfillment":29,"acc_fulfillment":36314,"transfer_cost":0.0,"port_name":"Yokohama","position":{"lat":35.443707,"lng":139.638031},"status":"surplus"}]