[{"frame_index":406,"name":"ports_0","capacity":10000,"empty":3207,"full":3486,"on_shipper":361,"on_consignee":0,"shortage":0,"acc_shortage":522,"booking":250,"acc_booking":52338,"fulfillment":250,"acc_fulfillment":51816,"transfer_cost":0.0,"port_name":"Bremerhaven","position":{"lat":53.549999,"lng":8.583333},"status":"surplus"},{"frame_index":406,"name":"ports_1","capacity":10000,"empty":274,"full":200,"on_shipper":20,"on_consignee":0,"shortage":0,"acc_shortage":0,"booking":15,"acc_booking":3502,"fulfillment":15,"acc_fulfillment":3502,"transfer_cost":0.0,"port_name":"Durban","position":{"lat":-29.8579,"lng":31.0292},"status":"surplus"},{"frame_index":406,"name":"ports_2","capacity":10000,"empty":663,"full":294,"on_shipper":19,"on_consignee":0,"shortage":0,"acc_shortage":233,"booking":15,"acc_booking":3477,"fulfillment":15,"acc_fulfillment":3244,"transfer_cost":0.0,"port_name":"Itagual","position":{"lat":-22.85222,"lng":-43.77528},"status":"surplus"},{"frame_index":406,"name":"ports_3","capacity":10000,"empty":1015,"full":2266,"on_shipper":127,"on_consignee":0,"shortage":0,"acc_shortage":0,"booking":91,"acc_booking":19898,"fulfillment":91,"acc_fulfillment":19898,"transfer_cost":0.0,"port_name":"LeHavre","position":{"lat":49.490002,"lng":0.1},"status":"surplus"},{"frame_index":406,"name":"ports_4","capacity":10000,"empty":1487,"full":1880,"on_shipper":116,"on_consignee":0,"shortage":0,"acc_shortage":0,"booking":79,"acc_booking":16633,"fulfillment":79,"acc_fulfillment":16633,"transfer_cost":0.0,"port_name":"Los Angeles","position":{"lat":34.052235,"lng":-118.243683},"status":"surplus"},{"frame_index":406,"name":"ports_5","capacity":10000,"empty":428,"full":892,"on_shipper":132,"on_consignee":0,"shortage":0,"acc_shortage":123,"booking":84,"acc_booking":16726,"fulfillment":84,"acc_fulfillment":16603,"transfer_cost":0.0,"port_name":"Manzanillo","position":{"lat":19.11695,"lng":-104.34214},"status":"balance"},{"frame_index":406,"name":"ports_6","capacity":10000,"empty":0,"full":447,"on_shipper":0,"on_consignee":0,"shortage":24,"acc_shortage":791,"booking":24,"acc_booking":5119,"fulfillment":0,"acc_fulfillment":4328,"transfer_cost":0.0,"port_name":"Melbourne","position":{"lat":-37.840935,"lng":144.946457},"status":"demand"},{"frame_index":406,"name":"ports_7","capacity":10000,"empty":1964,"full":726,"on_shipper":48,"on_consignee":0,"shortage":0,"acc_shortage":0,"booking":23,"acc_booking":5121,"fulfillment":23,"acc_fulfillment":5121,"transfer_cost":0.0,"port_name":"Montreal","position":{"lat":45.516136,"lng":-73.65683},"status":"surplus"},{"frame_index":406,"name":"ports_8","capacity":10000,"empty":1525,"full":470,"on_shipper":46,"on_consignee":0,"shortage":0,"acc_shortage":0,"booking":46,"acc_booking":10000,"fulfillment":46,"acc_fulfillment":10000,"transfer_cost":0.0,"port_name":"New York","position":{"lat":40.73061,"lng":-73.935242},"status":"surplus"},{"frame_index":406,"name":"ports_9","capacity":10000,"empty":1037,"full":567,"on_shipper":93,"on_consignee":0,"shortage":0,"acc_shortage":0,"booking":48,"acc_booking":9989,"fulfillment":48,"acc_fulfillment":9989,"transfer_cost":0.0,"port_name":"Oakland","position":{"lat":37.804363,"lng":-122.271111},"status":"surplus"},{"frame_index":406,"name":"ports_10","capacity":10000,"empty":592,"full":878,"on_shipper":45,"on_consignee":0,"shortage":0,"acc_shortage":0,"booking":26,"acc_booking":5111,"fulfillment":26,"acc_fulfillment":5111,"transfer_cost":0.0,"port_name":"Prince Rupert","position":{"lat":54.312519,"lng":-130.305405},"status":"surplus"},{"frame_index":406,"name":"ports_11","capacity":10000,"empty":0,"full":1788,"on_shipper":138,"on_consignee":0,"shortage":11,"acc_shortage":11,"booking":97,"acc_booking":19854,"fulfillment":86,"acc_fulfillment":19843,"transfer_cost":0.0,"port_name":"Pusan","position":{"lat":35.166668,"lng":129.066666},"status":"demand"},{"frame_index":406,"name":"ports_12","capacity":10000,"empty":2290,"full":921,"on_shipper":183,"on_consignee":0,"shortage":0,"acc_shortage":0,"booking":113,"acc_booking":26538,"fulfillment":113,"acc_fulfillment":26538,"transfer_cost":0.0,"port_name":"Qingdao","position":{"lat":36.066898,"lng":120.382698},"status":"surplus"},{"frame_index":406,"name":"ports_13","capacity":10000,"empty":136,"full":407,"on_shipper":17,"on_consignee":0,"shortage":0,"acc_shortage":123,"booking":15,"acc_booking":3470,"fulfillment":15,"acc_fulfillment":3347,"transfer_cost":0.0,"port_name":"San Antonio","position":{"lat":29.424349,"lng":-98.491142},"status":"surplus"},{"frame_index":406,"name":"ports_14","capacity":10000,"empty":248,"full":625,"on_shipper":30,"on_consignee":0,"shortage":0,"acc_shortage":697,"booking":15,"acc_booking":3516,"fulfillment":15,"acc_fulfillment":2819,"transfer_cost":0.0,"port_name":"Santos","position":{"lat":-23.96083,"lng":-46.33361},"status":"surplus"},{"frame_index":406,"name":"ports_15","capacity":10000,"empty":2746,"full":2272,"on_shipper":144,"on_consignee":0,"shortage":0,"acc_shortage":0,"booking":110,"acc_booking":23163,"fulfillment":110,"acc_fulfillment":23163,"transfer_cost":0.0,"port_name":"Seattle","position":{"lat":47.608013,"lng":-122.335167},"status":"surplus"},{"frame_index":406,"name":"ports_16","capacity":10000,"empty":234,"full":2940,"on_shipper":288,"on_consignee":91,"shortage":0,"acc_shortage":0,"booking":162,"acc_booking":33102,"fulfillment":162,"acc_fulfillment":33102,"transfer_cost":0.0,"port_name":"Shanghai","position":{"lat":31.224361,"lng":121.46917},"status":"demand"},{"frame_index":406,"name":"ports_17","capacity":10000,"empty":2298,"full":840,"on_shipper":100,"on_consignee":77,"shortage":0,"acc_shortage":40,"booking":63,"acc_booking":13349,"fulfillment":63,"acc_fulfillment":13309,"transfer_cost":0.0,"port_name":"Singapore","position":{"lat":1.29027,"lng":103.851959},"status":"surplus"},{"frame_index":406,"name":"ports_18","capacity":10000,"empty":131,"full":209,"on_shipper":42,"on_consignee":0,"shortage":0,"acc_shortage":419,"booking":25,"acc_booking":5091,"fulfillment":25,"acc_fulfillment":4672,"transfer_cost":0.0,"port_name":"Sydney","position":{"lat":-33.865143,"lng":151.2099},"status":"balance"},{"frame_index":406,"name":"ports_19","capacity":10000,"empty":512,"full":533,"on_shipper":42,"on_consignee":0,"shortage":0,"acc_shortage":0,"booking":30,"acc_booking":6805,"fulfillment":30,"acc_fulfillment":6805,"transfer_cost":0.0,"port_name":"Vancouver","position":{"lat":49.246292,"lng":-123.116226},"status":"surplus"},{"frame_index":406,"name":"ports_20","capacity":10000,"empty":0,"full":1737,"on_shipper":111,"on_consignee":0,"shortage":46,"acc_shortage":46,"booking":115,"acc_booking":22926,"fulfillment":69,"acc_fulfillment":22880,"transfer_cost":0.0,"port_name":"Yantian","position":{"lat":26.8533,"lng":119.8575},"status":"demand"},{"frame_index":406,"name":"ports_21","capacity":10000,"empty":0,"full":1448,"on_shipper":0,"on_consignee":0,"shortage":110,"acc_shortage":2307,"booking":110,"acc_booking":21982,"fulfillment":0,"acc_fulfillment":19675,"transfer_cost":0.0,"port_name":"Yokohama","position":{"lat":35.443707,"lng":139.638031},"status":"demand"}]