[{"frame_index":66,"name":"ports_0","capacity":10000,"empty":8048,"full":1587,"on_shipper":243,"on_consignee":0,"shortage":0,"acc_shortage":0,"booking":193,"acc_booking":8801,"fulfillment":193,"acc_fulfillment":8801,"transfer_cost":0.0,"port_name":"Bremerhaven","position":{"lat":53.549999,"lng":8.583333},"status":"surplus"},{"frame_index":66,"name":"ports_1","capacity":10000,"empty":481,"full":352,"on_shipper":17,"on_consignee":0,"shortage":0,"acc_shortage":0,"booking":12,"acc_booking":591,"fulfillment":12,"acc_fulfillment":591,"transfer_cost":0.0,"port_name":"Durban","position":{"lat":-29.8579,"lng":31.0292},"status":"surplus"},{"frame_index":66,"name":"ports_2","capacity":10000,"empty":494,"full":210,"on_shipper":16,"on_consignee":0,"shortage":0,"acc_shortage":0,"booking":12,"acc_booking":586,"fulfillment":12,"acc_fulfillment":586,"transfer_cost":0.0,"port_name":"Itagual","position":{"lat":-22.85222,"lng":-43.77528},"status":"surplus"},{"frame_index":66,"name":"ports_3","capacity":10000,"empty":2612,"full":710,"on_shipper":82,"on_consignee":0,"shortage":0,"acc_shortage":0,"booking":68,"acc_booking":3373,"fulfillment":68,"acc_fulfillment":3373,"transfer_cost":0.0,"port_name":"LeHavre","position":{"lat":49.490002,"lng":0.1},"status":"surplus"},{"frame_index":66,"name":"ports_4","capacity":10000,"empty":2187,"full":2271,"on_shipper":77,"on_consignee":0,"shortage":0,"acc_shortage":0,"booking":58,"acc_booking":2813,"fulfillment":58,"acc_fulfillment":2813,"transfer_cost":0.0,"port_name":"Los Angeles","position":{"lat":34.052235,"lng":-118.243683},"status":"surplus"},{"frame_index":66,"name":"ports_5","capacity":10000,"empty":2466,"full":792,"on_shipper":60,"on_consignee":0,"shortage":0,"acc_shortage":0,"booking":50,"acc_booking":2805,"fulfillment":50,"acc_fulfillment":2805,"transfer_cost":0.0,"port_name":"Manzanillo","position":{"lat":19.11695,"lng":-104.34214},"status":"surplus"},{"frame_index":66,"name":"ports_6","capacity":10000,"empty":746,"full":387,"on_shipper":22,"on_consignee":0,"shortage":0,"acc_shortage":0,"booking":18,"acc_booking":863,"fulfillment":18,"acc_fulfillment":863,"transfer_cost":0.0,"port_name":"Melbourne","position":{"lat":-37.840935,"lng":144.946457},"status":"surplus"},{"frame_index":66,"name":"ports_7","capacity":10000,"empty":1453,"full":88,"on_shipper":22,"on_consignee":0,"shortage":0,"acc_shortage":0,"booking":18,"acc_booking":863,"fulfillment":18,"acc_fulfillment":863,"transfer_cost":0.0,"port_name":"Montreal","position":{"lat":45.516136,"lng":-73.65683},"status":"surplus"},{"frame_index":66,"name":"ports_8","capacity":10000,"empty":2275,"full":554,"on_shipper":41,"on_consignee":0,"shortage":0,"acc_shortage":0,"booking":34,"acc_booking":1686,"fulfillment":34,"acc_fulfillment":1686,"transfer_cost":0.0,"port_name":"New York","position":{"lat":40.73061,"lng":-73.935242},"status":"surplus"},{"frame_index":66,"name":"ports_9","capacity":10000,"empty":1496,"full":944,"on_shipper":49,"on_consignee":0,"shortage":0,"acc_shortage":0,"booking":39,"acc_booking":1680,"fulfillment":39,"acc_fulfillment":1680,"transfer_cost":0.0,"port_name":"Oakland","position":{"lat":37.804363,"lng":-122.271111},"status":"surplus"},{"frame_index":66,"name":"ports_10","capacity":10000,"empty":643,"full":313,"on_shipper":24,"on_consignee":0,"shortage":0,"acc_shortage":0,"booking":16,"acc_booking":870,"fulfillment":16,"acc_fulfillment":870,"transfer_cost":0.0,"port_name":"Prince Rupert","position":{"lat":54.312519,"lng":-130.305405},"status":"surplus"},{"frame_index":66,"name":"ports_11","capacity":10000,"empty":2823,"full":2242,"on_shipper":82,"on_consignee":0,"shortage":0,"acc_shortage":0,"booking":68,"acc_booking":3359,"fulfillment":68,"acc_fulfillment":3359,"transfer_cost":0.0,"port_name":"Pusan","position":{"lat":35.166668,"lng":129.066666},"status":"surplus"},{"frame_index":66,"name":"ports_12","capacity":10000,"empty":4103,"full":778,"on_shipper":108,"on_consignee":0,"shortage":0,"acc_shortage":0,"booking":97,"acc_booking":4499,"fulfillment":97,"acc_fulfillment":4499,"transfer_cost":0.0,"port_name":"Qingdao","position":{"lat":36.066898,"lng":120.382698},"status":"surplus"},{"frame_index":66,"name":"ports_13","capacity":10000,"empty":425,"full":371,"on_shipper":14,"on_consignee":0,"shortage":0,"acc_shortage":0,"booking":11,"acc_booking":589,"fulfillment":11,"acc_fulfillment":589,"transfer_cost":0.0,"port_name":"San Antonio","position":{"lat":29.424349,"lng":-98.491142},"status":"surplus"},{"frame_index":66,"name":"ports_14","capacity":10000,"empty":416,"full":30,"on_shipper":12,"on_consignee":0,"shortage":0,"acc_shortage":0,"booking":11,"acc_booking":598,"fulfillment":11,"acc_fulfillment":598,"transfer_cost":0.0,"port_name":"Santos","position":{"lat":-23.96083,"lng":-46.33361},"status":"surplus"},{"frame_index":66,"name":"ports_15","capacity":10000,"empty":3307,"full":2122,"on_shipper":100,"on_consignee":0,"shortage":0,"acc_shortage":0,"booking":80,"acc_booking":3925,"fulfillment":80,"acc_fulfillment":3925,"transfer_cost":0.0,"port_name":"Seattle","position":{"lat":47.608013,"lng":-122.335167},"status":"surplus"},{"frame_index":66,"name":"ports_16","capacity":10000,"empty":4375,"full":2385,"on_shipper":136,"on_consignee":0,"shortage":0,"acc_shortage":0,"booking":112,"acc_booking":5689,"fulfillment":112,"acc_fulfillment":5689,"transfer_cost":0.0,"port_name":"Shanghai","position":{"lat":31.224361,"lng":121.46917},"status":"surplus"},{"frame_index":66,"name":"ports_17","capacity":10000,"empty":2196,"full":441,"on_shipper":57,"on_consignee":42,"shortage":0,"acc_shortage":0,"booking":47,"acc_booking":2260,"fulfillment":47,"acc_fulfillment":2260,"transfer_cost":0.0,"port_name":"Singapore","position":{"lat":1.29027,"lng":103.851959},"status":"surplus"},{"frame_index":66,"name":"ports_18","capacity":10000,"empty":658,"full":419,"on_shipper":20,"on_consignee":0,"shortage":0,"acc_shortage":0,"booking":17,"acc_booking":845,"fulfillment":17,"acc_fulfillment":845,"transfer_cost":0.0,"port_name":"Sydney","position":{"lat":-33.865143,"lng":151.2099},"status":"surplus"},{"frame_index":66,"name":"ports_19","capacity":10000,"empty":958,"full":434,"on_shipper":29,"on_consignee":0,"shortage":0,"acc_shortage":0,"booking":25,"acc_booking":1154,"fulfillment":25,"acc_fulfillment":1154,"transfer_cost":0.0,"port_name":"Vancouver","position":{"lat":49.246292,"lng":-123.116226},"status":"surplus"},{"frame_index":66,"name":"ports_20","capacity":10000,"empty":3208,"full":1921,"on_shipper":86,"on_consignee":0,"shortage":0,"acc_shortage":0,"booking":71,"acc_booking":3876,"fulfillment":71,"acc_fulfillment":3876,"transfer_cost":0.0,"port_name":"Yantian","position":{"lat":26.8533,"lng":119.8575},"status":"surplus"},{"frame_index":66,"name":"ports_21","capacity":10000,"empty":4347,"full":1451,"on_shipper":86,"on_consignee":0,"shortage":0,"acc_shortage":0,"booking":80,"acc_booking":3762,"fulfillment":80,"acc_fulfillment":3762,"transfer_cost":0.0,"port_name":"Yokohama","position":{"lat":35.443707,"lng":139.638031},"status":"surplus"}]