[{"frame_index":263,"name":"ports_0","capacity":10000,"empty":4461,"full":1846,"on_shipper":158,"on_consignee":0,"shortage":0,"acc_shortage":0,"booking":141,"acc_booking":31978,"fulfillment":141,"acc_fulfillment":31978,"transfer_cost":0.0,"port_name":"Bremerhaven","position":{"lat":53.549999,"lng":8.583333},"status":"surplus"},{"frame_index":263,"name":"ports_1","capacity":10000,"empty":721,"full":0,"on_shipper":10,"on_consignee":176,"shortage":0,"acc_shortage":0,"booking":9,"acc_booking":2154,"fulfillment":9,"acc_fulfillment":2154,"transfer_cost":7.0,"port_name":"Durban","position":{"lat":-29.8579,"lng":31.0292},"status":"surplus"},{"frame_index":263,"name":"ports_2","capacity":10000,"empty":893,"full":47,"on_shipper":13,"on_consignee":0,"shortage":0,"acc_shortage":233,"booking":9,"acc_booking":2136,"fulfillment":9,"acc_fulfillment":1903,"transfer_cost":0.0,"port_name":"Itagual","position":{"lat":-22.85222,"lng":-43.77528},"status":"surplus"},{"frame_index":263,"name":"ports_3","capacity":10000,"empty":1631,"full":1038,"on_shipper":86,"on_consignee":0,"shortage":0,"acc_shortage":0,"booking":51,"acc_booking":12159,"fulfillment":51,"acc_fulfillment":12159,"transfer_cost":0.0,"port_name":"LeHavre","position":{"lat":49.490002,"lng":0.1},"status":"surplus"},{"frame_index":263,"name":"ports_4","capacity":10000,"empty":1649,"full":904,"on_shipper":58,"on_consignee":0,"shortage":0,"acc_shortage":0,"booking":42,"acc_booking":10161,"fulfillment":42,"acc_fulfillment":10161,"transfer_cost":0.0,"port_name":"Los Angeles","position":{"lat":34.052235,"lng":-118.243683},"status":"surplus"},{"frame_index":263,"name":"ports_5","capacity":10000,"empty":881,"full":386,"on_shipper":47,"on_consignee":0,"shortage":0,"acc_shortage":0,"booking":39,"acc_booking":10176,"fulfillment":39,"acc_fulfillment":10176,"transfer_cost":0.0,"port_name":"Manzanillo","position":{"lat":19.11695,"lng":-104.34214},"status":"surplus"},{"frame_index":263,"name":"ports_6","capacity":10000,"empty":246,"full":108,"on_shipper":17,"on_consignee":66,"shortage":0,"acc_shortage":0,"booking":13,"acc_booking":3129,"fulfillment":13,"acc_fulfillment":3129,"transfer_cost":0.0,"port_name":"Melbourne","position":{"lat":-37.840935,"lng":144.946457},"status":"surplus"},{"frame_index":263,"name":"ports_7","capacity":10000,"empty":2246,"full":52,"on_shipper":13,"on_consignee":0,"shortage":0,"acc_shortage":0,"booking":13,"acc_booking":3134,"fulfillment":13,"acc_fulfillment":3134,"transfer_cost":0.0,"port_name":"Montreal","position":{"lat":45.516136,"lng":-73.65683},"status":"surplus"},{"frame_index":263,"name":"ports_8","capacity":10000,"empty":4340,"full":594,"on_shipper":26,"on_consignee":0,"shortage":0,"acc_shortage":0,"booking":26,"acc_booking":6121,"fulfillment":26,"acc_fulfillment":6121,"transfer_cost":0.0,"port_name":"New York","position":{"lat":40.73061,"lng":-73.935242},"status":"surplus"},{"frame_index":263,"name":"ports_9","capacity":10000,"empty":1110,"full":815,"on_shipper":26,"on_consignee":0,"shortage":0,"acc_shortage":0,"booking":26,"acc_booking":6091,"fulfillment":26,"acc_fulfillment":6091,"transfer_cost":0.0,"port_name":"Oakland","position":{"lat":37.804363,"lng":-122.271111},"status":"surplus"},{"frame_index":263,"name":"ports_10","capacity":10000,"empty":1471,"full":140,"on_shipper":18,"on_consignee":0,"shortage":0,"acc_shortage":0,"booking":14,"acc_booking":3118,"fulfillment":14,"acc_fulfillment":3118,"transfer_cost":0.0,"port_name":"Prince Rupert","position":{"lat":54.312519,"lng":-130.305405},"status":"surplus"},{"frame_index":263,"name":"ports_11","capacity":10000,"empty":1571,"full":908,"on_shipper":68,"on_consignee":0,"shortage":0,"acc_shortage":0,"booking":48,"acc_booking":12126,"fulfillment":48,"acc_fulfillment":12126,"transfer_cost":0.0,"port_name":"Pusan","position":{"lat":35.166668,"lng":129.066666},"status":"surplus"},{"frame_index":263,"name":"ports_12","capacity":10000,"empty":1472,"full":1113,"on_shipper":91,"on_consignee":0,"shortage":0,"acc_shortage":0,"booking":65,"acc_booking":16174,"fulfillment":65,"acc_fulfillment":16174,"transfer_cost":0.0,"port_name":"Qingdao","position":{"lat":36.066898,"lng":120.382698},"status":"surplus"},{"frame_index":263,"name":"ports_13","capacity":10000,"empty":479,"full":171,"on_shipper":16,"on_consignee":0,"shortage":0,"acc_shortage":55,"booking":10,"acc_booking":2134,"fulfillment":10,"acc_fulfillment":2079,"transfer_cost":0.0,"port_name":"San Antonio","position":{"lat":29.424349,"lng":-98.491142},"status":"surplus"},{"frame_index":263,"name":"ports_14","capacity":10000,"empty":1220,"full":57,"on_shipper":12,"on_consignee":0,"shortage":0,"acc_shortage":697,"booking":9,"acc_booking":2156,"fulfillment":9,"acc_fulfillment":1459,"transfer_cost":0.0,"port_name":"Santos","position":{"lat":-23.96083,"lng":-46.33361},"status":"surplus"},{"frame_index":263,"name":"ports_15","capacity":10000,"empty":4438,"full":828,"on_shipper":79,"on_consignee":0,"shortage":0,"acc_shortage":0,"booking":61,"acc_booking":14154,"fulfillment":61,"acc_fulfillment":14154,"transfer_cost":0.0,"port_name":"Seattle","position":{"lat":47.608013,"lng":-122.335167},"status":"surplus"},{"frame_index":263,"name":"ports_16","capacity":10000,"empty":3631,"full":665,"on_shipper":114,"on_consignee":0,"shortage":0,"acc_shortage":0,"booking":96,"acc_booking":20184,"fulfillment":96,"acc_fulfillment":20184,"transfer_cost":0.0,"port_name":"Shanghai","position":{"lat":31.224361,"lng":121.46917},"status":"surplus"},{"frame_index":263,"name":"ports_17","capacity":10000,"empty":2475,"full":146,"on_shipper":51,"on_consignee":117,"shortage":0,"acc_shortage":40,"booking":33,"acc_booking":8155,"fulfillment":33,"acc_fulfillment":8115,"transfer_cost":0.0,"port_name":"Singapore","position":{"lat":1.29027,"lng":103.851959},"status":"surplus"},{"frame_index":263,"name":"ports_18","capacity":10000,"empty":291,"full":128,"on_shipper":14,"on_consignee":0,"shortage":0,"acc_shortage":5,"booking":14,"acc_booking":3113,"fulfillment":14,"acc_fulfillment":3108,"transfer_cost":0.0,"port_name":"Sydney","position":{"lat":-33.865143,"lng":151.2099},"status":"surplus"},{"frame_index":263,"name":"ports_19","capacity":10000,"empty":899,"full":437,"on_shipper":27,"on_consignee":0,"shortage":0,"acc_shortage":0,"booking":17,"acc_booking":4161,"fulfillment":17,"acc_fulfillment":4161,"transfer_cost":0.0,"port_name":"Vancouver","position":{"lat":49.246292,"lng":-123.116226},"status":"surplus"},{"frame_index":263,"name":"ports_20","capacity":10000,"empty":2357,"full":1253,"on_shipper":85,"on_consignee":53,"shortage":0,"acc_shortage":0,"booking":59,"acc_booking":13967,"fulfillment":59,"acc_fulfillment":13967,"transfer_cost":0.0,"port_name":"Yantian","position":{"lat":26.8533,"lng":119.8575},"status":"surplus"},{"frame_index":263,"name":"ports_21","capacity":10000,"empty":1268,"full":851,"on_shipper":79,"on_consignee":0,"shortage":0,"acc_shortage":492,"booking":56,"acc_booking":13232,"fulfillment":56,"acc_fulfillment":12740,"transfer_cost":0.0,"port_name":"Yokohama","position":{"lat":35.443707,"lng":139.638031},"status":"surplus"}]