[{"frame_index":298,"name":"ports_0","capacity":10000,"empty":3750,"full":1227,"on_shipper":217,"on_consignee":0,"shortage":0,"acc_shortage":522,"booking":217,"acc_booking":39075,"fulfillment":217,"acc_fulfillment":38553,"transfer_cost":0.0,"port_name":"Bremerhaven","position":{"lat":53.549999,"lng":8.583333},"status":"surplus"},{"frame_index":298,"name":"ports_1","capacity":10000,"empty":520,"full":7,"on_shipper":21,"on_consignee":128,"shortage":0,"acc_shortage":0,"booking":13,"acc_booking":2604,"fulfillment":13,"acc_fulfillment":2604,"transfer_cost":0.0,"port_name":"Durban","position":{"lat":-29.8579,"lng":31.0292},"status":"surplus"},{"frame_index":298,"name":"ports_2","capacity":10000,"empty":646,"full":306,"on_shipper":19,"on_consignee":0,"shortage":0,"acc_shortage":233,"booking":12,"acc_booking":2588,"fulfillment":12,"acc_fulfillment":2355,"transfer_cost":0.0,"port_name":"Itagual","position":{"lat":-22.85222,"lng":-43.77528},"status":"surplus"},{"frame_index":298,"name":"ports_3","capacity":10000,"empty":2051,"full":659,"on_shipper":117,"on_consignee":0,"shortage":0,"acc_shortage":0,"booking":73,"acc_booking":14827,"fulfillment":73,"acc_fulfillment":14827,"transfer_cost":0.0,"port_name":"LeHavre","position":{"lat":49.490002,"lng":0.1},"status":"surplus"},{"frame_index":298,"name":"ports_4","capacity":10000,"empty":1092,"full":911,"on_shipper":104,"on_consignee":0,"shortage":0,"acc_shortage":0,"booking":63,"acc_booking":12389,"fulfillment":63,"acc_fulfillment":12389,"transfer_cost":0.0,"port_name":"Los Angeles","position":{"lat":34.052235,"lng":-118.243683},"status":"surplus"},{"frame_index":298,"name":"ports_5","capacity":10000,"empty":822,"full":1143,"on_shipper":107,"on_consignee":0,"shortage":0,"acc_shortage":123,"booking":67,"acc_booking":12423,"fulfillment":67,"acc_fulfillment":12300,"transfer_cost":0.0,"port_name":"Manzanillo","position":{"lat":19.11695,"lng":-104.34214},"status":"surplus"},{"frame_index":298,"name":"ports_6","capacity":10000,"empty":0,"full":287,"on_shipper":0,"on_consignee":0,"shortage":19,"acc_shortage":80,"booking":19,"acc_booking":3807,"fulfillment":0,"acc_fulfillment":3727,"transfer_cost":0.0,"port_name":"Melbourne","position":{"lat":-37.840935,"lng":144.946457},"status":"demand"},{"frame_index":298,"name":"ports_7","capacity":10000,"empty":1300,"full":22,"on_shipper":28,"on_consignee":565,"shortage":0,"acc_shortage":0,"booking":19,"acc_booking":3813,"fulfillment":19,"acc_fulfillment":3813,"transfer_cost":0.0,"port_name":"Montreal","position":{"lat":45.516136,"lng":-73.65683},"status":"surplus"},{"frame_index":298,"name":"ports_8","capacity":10000,"empty":983,"full":254,"on_shipper":64,"on_consignee":0,"shortage":0,"acc_shortage":0,"booking":39,"acc_booking":7455,"fulfillment":39,"acc_fulfillment":7455,"transfer_cost":0.0,"port_name":"New York","position":{"lat":40.73061,"lng":-73.935242},"status":"surplus"},{"frame_index":298,"name":"ports_9","capacity":10000,"empty":1525,"full":154,"on_shipper":66,"on_consignee":0,"shortage":0,"acc_shortage":0,"booking":44,"acc_booking":7421,"fulfillment":44,"acc_fulfillment":7421,"transfer_cost":0.0,"port_name":"Oakland","position":{"lat":37.804363,"lng":-122.271111},"status":"surplus"},{"frame_index":298,"name":"ports_10","capacity":10000,"empty":788,"full":812,"on_shipper":29,"on_consignee":0,"shortage":0,"acc_shortage":0,"booking":19,"acc_booking":3801,"fulfillment":19,"acc_fulfillment":3801,"transfer_cost":0.0,"port_name":"Prince Rupert","position":{"lat":54.312519,"lng":-130.305405},"status":"surplus"},{"frame_index":298,"name":"ports_11","capacity":10000,"empty":1403,"full":580,"on_shipper":119,"on_consignee":0,"shortage":0,"acc_shortage":0,"booking":75,"acc_booking":14785,"fulfillment":75,"acc_fulfillment":14785,"transfer_cost":0.0,"port_name":"Pusan","position":{"lat":35.166668,"lng":129.066666},"status":"surplus"},{"frame_index":298,"name":"ports_12","capacity":10000,"empty":531,"full":1584,"on_shipper":179,"on_consignee":361,"shortage":0,"acc_shortage":0,"booking":105,"acc_booking":19763,"fulfillment":105,"acc_fulfillment":19763,"transfer_cost":0.0,"port_name":"Qingdao","position":{"lat":36.066898,"lng":120.382698},"status":"balance"},{"frame_index":298,"name":"ports_13","capacity":10000,"empty":26,"full":620,"on_shipper":20,"on_consignee":0,"shortage":0,"acc_shortage":55,"booking":11,"acc_booking":2587,"fulfillment":11,"acc_fulfillment":2532,"transfer_cost":0.0,"port_name":"San Antonio","position":{"lat":29.424349,"lng":-98.491142},"status":"balance"},{"frame_index":298,"name":"ports_14","capacity":10000,"empty":750,"full":518,"on_shipper":21,"on_consignee":0,"shortage":0,"acc_shortage":697,"booking":15,"acc_booking":2626,"fulfillment":15,"acc_fulfillment":1929,"transfer_cost":0.0,"port_name":"Santos","position":{"lat":-23.96083,"lng":-46.33361},"status":"surplus"},{"frame_index":298,"name":"ports_15","capacity":10000,"empty":2770,"full":969,"on_shipper":117,"on_consignee":442,"shortage":0,"acc_shortage":0,"booking":89,"acc_booking":17233,"fulfillment":89,"acc_fulfillment":17233,"transfer_cost":0.0,"port_name":"Seattle","position":{"lat":47.608013,"lng":-122.335167},"status":"surplus"},{"frame_index":298,"name":"ports_16","capacity":10000,"empty":1114,"full":2582,"on_shipper":208,"on_consignee":8,"shortage":0,"acc_shortage":0,"booking":121,"acc_booking":24644,"fulfillment":121,"acc_fulfillment":24644,"transfer_cost":0.0,"port_name":"Shanghai","position":{"lat":31.224361,"lng":121.46917},"status":"surplus"},{"frame_index":298,"name":"ports_17","capacity":10000,"empty":2974,"full":711,"on_shipper":79,"on_consignee":0,"shortage":0,"acc_shortage":40,"booking":50,"acc_booking":9937,"fulfillment":50,"acc_fulfillment":9897,"transfer_cost":0.0,"port_name":"Singapore","position":{"lat":1.29027,"lng":103.851959},"status":"surplus"},{"frame_index":298,"name":"ports_18","capacity":10000,"empty":0,"full":230,"on_shipper":0,"on_consignee":0,"shortage":17,"acc_shortage":283,"booking":17,"acc_booking":3783,"fulfillment":0,"acc_fulfillment":3500,"transfer_cost":0.0,"port_name":"Sydney","position":{"lat":-33.865143,"lng":151.2099},"status":"demand"},{"frame_index":298,"name":"ports_19","capacity":10000,"empty":320,"full":532,"on_shipper":32,"on_consignee":105,"shortage":0,"acc_shortage":0,"booking":26,"acc_booking":5060,"fulfillment":26,"acc_fulfillment":5060,"transfer_cost":0.0,"port_name":"Vancouver","position":{"lat":49.246292,"lng":-123.116226},"status":"surplus"},{"frame_index":298,"name":"ports_20","capacity":10000,"empty":754,"full":1144,"on_shipper":116,"on_consignee":38,"shortage":0,"acc_shortage":0,"booking":84,"acc_booking":17024,"fulfillment":84,"acc_fulfillment":17024,"transfer_cost":0.0,"port_name":"Yantian","position":{"lat":26.8533,"lng":119.8575},"status":"surplus"},{"frame_index":298,"name":"ports_21","capacity":10000,"empty":0,"full":1578,"on_shipper":0,"on_consignee":0,"shortage":88,"acc_shortage":1243,"booking":88,"acc_booking":16395,"fulfillment":0,"acc_fulfillment":15152,"transfer_cost":0.0,"port_name":"Yokohama","position":{"lat":35.443707,"lng":139.638031},"status":"demand"}]