[{"frame_index":759,"name":"ports_0","capacity":10000,"empty":4330,"full":2789,"on_shipper":245,"on_consignee":0,"shortage":0,"acc_shortage":522,"booking":125,"acc_booking":98559,"fulfillment":125,"acc_fulfillment":98037,"transfer_cost":0.0,"port_name":"Bremerhaven","position":{"lat":53.549999,"lng":8.583333},"status":"surplus"},{"frame_index":759,"name":"ports_1","capacity":10000,"empty":235,"full":166,"on_shipper":11,"on_consignee":0,"shortage":0,"acc_shortage":10,"booking":8,"acc_booking":6543,"fulfillment":8,"acc_fulfillment":6533,"transfer_cost":0.0,"port_name":"Durban","position":{"lat":-29.8579,"lng":31.0292},"status":"surplus"},{"frame_index":759,"name":"ports_2","capacity":10000,"empty":368,"full":316,"on_shipper":13,"on_consignee":0,"shortage":0,"acc_shortage":298,"booking":9,"acc_booking":6521,"fulfillment":9,"acc_fulfillment":6223,"transfer_cost":0.0,"port_name":"Itagual","position":{"lat":-22.85222,"lng":-43.77528},"status":"surplus"},{"frame_index":759,"name":"ports_3","capacity":10000,"empty":218,"full":3432,"on_shipper":77,"on_consignee":0,"shortage":0,"acc_shortage":0,"booking":51,"acc_booking":37307,"fulfillment":51,"acc_fulfillment":37307,"transfer_cost":0.0,"port_name":"LeHavre","position":{"lat":49.490002,"lng":0.1},"status":"balance"},{"frame_index":759,"name":"ports_4","capacity":10000,"empty":1654,"full":900,"on_shipper":83,"on_consignee":0,"shortage":0,"acc_shortage":290,"booking":43,"acc_booking":31228,"fulfillment":43,"acc_fulfillment":30938,"transfer_cost":0.0,"port_name":"Los Angeles","position":{"lat":34.052235,"lng":-118.243683},"status":"surplus"},{"frame_index":759,"name":"ports_5","capacity":10000,"empty":2071,"full":307,"on_shipper":52,"on_consignee":0,"shortage":0,"acc_shortage":123,"booking":46,"acc_booking":31346,"fulfillment":46,"acc_fulfillment":31223,"transfer_cost":0.0,"port_name":"Manzanillo","position":{"lat":19.11695,"lng":-104.34214},"status":"surplus"},{"frame_index":759,"name":"ports_6","capacity":10000,"empty":0,"full":450,"on_shipper":0,"on_consignee":0,"shortage":13,"acc_shortage":1541,"booking":13,"acc_booking":9609,"fulfillment":0,"acc_fulfillment":8068,"transfer_cost":0.0,"port_name":"Melbourne","position":{"lat":-37.840935,"lng":144.946457},"status":"demand"},{"frame_index":759,"name":"ports_7","capacity":10000,"empty":132,"full":612,"on_shipper":20,"on_consignee":0,"shortage":0,"acc_shortage":0,"booking":13,"acc_booking":9618,"fulfillment":13,"acc_fulfillment":9618,"transfer_cost":0.0,"port_name":"Montreal","position":{"lat":45.516136,"lng":-73.65683},"status":"surplus"},{"frame_index":759,"name":"ports_8","capacity":10000,"empty":94,"full":948,"on_shipper":38,"on_consignee":0,"shortage":0,"acc_shortage":0,"booking":24,"acc_booking":18788,"fulfillment":24,"acc_fulfillment":18788,"transfer_cost":0.0,"port_name":"New York","position":{"lat":40.73061,"lng":-73.935242},"status":"balance"},{"frame_index":759,"name":"ports_9","capacity":10000,"empty":499,"full":419,"on_shipper":38,"on_consignee":0,"shortage":0,"acc_shortage":45,"booking":23,"acc_booking":18831,"fulfillment":23,"acc_fulfillment":18786,"transfer_cost":0.0,"port_name":"Oakland","position":{"lat":37.804363,"lng":-122.271111},"status":"surplus"},{"frame_index":759,"name":"ports_10","capacity":10000,"empty":920,"full":0,"on_shipper":20,"on_consignee":277,"shortage":0,"acc_shortage":314,"booking":15,"acc_booking":9636,"fulfillment":15,"acc_fulfillment":9322,"transfer_cost":394.0,"port_name":"Prince Rupert","position":{"lat":54.312519,"lng":-130.305405},"status":"surplus"},{"frame_index":759,"name":"ports_11","capacity":10000,"empty":2178,"full":449,"on_shipper":84,"on_consignee":0,"shortage":0,"acc_shortage":204,"booking":51,"acc_booking":37265,"fulfillment":51,"acc_fulfillment":37061,"transfer_cost":0.0,"port_name":"Pusan","position":{"lat":35.166668,"lng":129.066666},"status":"surplus"},{"frame_index":759,"name":"ports_12","capacity":10000,"empty":2609,"full":1713,"on_shipper":120,"on_consignee":60,"shortage":0,"acc_shortage":0,"booking":77,"acc_booking":49793,"fulfillment":77,"acc_fulfillment":49793,"transfer_cost":0.0,"port_name":"Qingdao","position":{"lat":36.066898,"lng":120.382698},"status":"surplus"},{"frame_index":759,"name":"ports_13","capacity":10000,"empty":0,"full":615,"on_shipper":2,"on_consignee":0,"shortage":10,"acc_shortage":337,"booking":10,"acc_booking":6536,"fulfillment":0,"acc_fulfillment":6199,"transfer_cost":0.0,"port_name":"San Antonio","position":{"lat":29.424349,"lng":-98.491142},"status":"balance"},{"frame_index":759,"name":"ports_14","capacity":10000,"empty":235,"full":658,"on_shipper":15,"on_consignee":0,"shortage":0,"acc_shortage":762,"booking":8,"acc_booking":6570,"fulfillment":8,"acc_fulfillment":5808,"transfer_cost":0.0,"port_name":"Santos","position":{"lat":-23.96083,"lng":-46.33361},"status":"surplus"},{"frame_index":759,"name":"ports_15","capacity":10000,"empty":570,"full":3164,"on_shipper":95,"on_consignee":0,"shortage":0,"acc_shortage":0,"booking":61,"acc_booking":43519,"fulfillment":61,"acc_fulfillment":43519,"transfer_cost":0.0,"port_name":"Seattle","position":{"lat":47.608013,"lng":-122.335167},"status":"surplus"},{"frame_index":759,"name":"ports_16","capacity":10000,"empty":1631,"full":1883,"on_shipper":114,"on_consignee":0,"shortage":0,"acc_shortage":760,"booking":97,"acc_booking":61931,"fulfillment":97,"acc_fulfillment":61171,"transfer_cost":0.0,"port_name":"Shanghai","position":{"lat":31.224361,"lng":121.46917},"status":"surplus"},{"frame_index":759,"name":"ports_17","capacity":10000,"empty":1513,"full":896,"on_shipper":50,"on_consignee":0,"shortage":0,"acc_shortage":283,"booking":35,"acc_booking":25071,"fulfillment":35,"acc_fulfillment":24788,"transfer_cost":0.0,"port_name":"Singapore","position":{"lat":1.29027,"lng":103.851959},"status":"surplus"},{"frame_index":759,"name":"ports_18","capacity":10000,"empty":90,"full":305,"on_shipper":16,"on_consignee":0,"shortage":0,"acc_shortage":1226,"booking":12,"acc_booking":9618,"fulfillment":12,"acc_fulfillment":8392,"transfer_cost":0.0,"port_name":"Sydney","position":{"lat":-33.865143,"lng":151.2099},"status":"balance"},{"frame_index":759,"name":"ports_19","capacity":10000,"empty":818,"full":548,"on_shipper":27,"on_consignee":0,"shortage":0,"acc_shortage":0,"booking":17,"acc_booking":12751,"fulfillment":17,"acc_fulfillment":12751,"transfer_cost":0.0,"port_name":"Vancouver","position":{"lat":49.246292,"lng":-123.116226},"status":"surplus"},{"frame_index":759,"name":"ports_20","capacity":10000,"empty":288,"full":2462,"on_shipper":88,"on_consignee":0,"shortage":0,"acc_shortage":942,"booking":61,"acc_booking":43209,"fulfillment":61,"acc_fulfillment":42267,"transfer_cost":0.0,"port_name":"Yantian","position":{"lat":26.8533,"lng":119.8575},"status":"balance"},{"frame_index":759,"name":"ports_21","capacity":10000,"empty":0,"full":383,"on_shipper":0,"on_consignee":0,"shortage":57,"acc_shortage":5364,"booking":57,"acc_booking":41325,"fulfillment":0,"acc_fulfillment":35961,"transfer_cost":0.0,"port_name":"Yokohama","position":{"lat":35.443707,"lng":139.638031},"status":"demand"}]