[{"frame_index":1108,"name":"ports_0","capacity":10000,"empty":2206,"full":2199,"on_shipper":0,"on_consignee":1284,"shortage":81,"acc_shortage":3223,"booking":81,"acc_booking":143208,"fulfillment":0,"acc_fulfillment":139985,"transfer_cost":2206.0,"port_name":"Bremerhaven","position":{"lat":53.549999,"lng":8.583333},"status":"surplus"},{"frame_index":1108,"name":"ports_1","capacity":10000,"empty":273,"full":270,"on_shipper":9,"on_consignee":0,"shortage":0,"acc_shortage":113,"booking":5,"acc_booking":9520,"fulfillment":5,"acc_fulfillment":9407,"transfer_cost":0.0,"port_name":"Durban","position":{"lat":-29.8579,"lng":31.0292},"status":"surplus"},{"frame_index":1108,"name":"ports_2","capacity":10000,"empty":676,"full":435,"on_shipper":9,"on_consignee":0,"shortage":0,"acc_shortage":298,"booking":5,"acc_booking":9481,"fulfillment":5,"acc_fulfillment":9183,"transfer_cost":0.0,"port_name":"Itagual","position":{"lat":-22.85222,"lng":-43.77528},"status":"surplus"},{"frame_index":1108,"name":"ports_3","capacity":10000,"empty":5277,"full":1463,"on_shipper":54,"on_consignee":0,"shortage":0,"acc_shortage":0,"booking":30,"acc_booking":54171,"fulfillment":30,"acc_fulfillment":54171,"transfer_cost":0.0,"port_name":"LeHavre","position":{"lat":49.490002,"lng":0.1},"status":"surplus"},{"frame_index":1108,"name":"ports_4","capacity":10000,"empty":684,"full":249,"on_shipper":32,"on_consignee":0,"shortage":0,"acc_shortage":290,"booking":24,"acc_booking":45367,"fulfillment":24,"acc_fulfillment":45077,"transfer_cost":0.0,"port_name":"Los Angeles","position":{"lat":34.052235,"lng":-118.243683},"status":"surplus"},{"frame_index":1108,"name":"ports_5","capacity":10000,"empty":215,"full":914,"on_shipper":29,"on_consignee":0,"shortage":0,"acc_shortage":194,"booking":21,"acc_booking":45441,"fulfillment":21,"acc_fulfillment":45247,"transfer_cost":0.0,"port_name":"Manzanillo","position":{"lat":19.11695,"lng":-104.34214},"status":"surplus"},{"frame_index":1108,"name":"ports_6","capacity":10000,"empty":211,"full":374,"on_shipper":8,"on_consignee":0,"shortage":0,"acc_shortage":2377,"booking":8,"acc_booking":13969,"fulfillment":8,"acc_fulfillment":11592,"transfer_cost":0.0,"port_name":"Melbourne","position":{"lat":-37.840935,"lng":144.946457},"status":"surplus"},{"frame_index":1108,"name":"ports_7","capacity":10000,"empty":1583,"full":48,"on_shipper":8,"on_consignee":0,"shortage":0,"acc_shortage":0,"booking":8,"acc_booking":13969,"fulfillment":8,"acc_fulfillment":13969,"transfer_cost":0.0,"port_name":"Montreal","position":{"lat":45.516136,"lng":-73.65683},"status":"surplus"},{"frame_index":1108,"name":"ports_8","capacity":10000,"empty":3266,"full":108,"on_shipper":21,"on_consignee":0,"shortage":0,"acc_shortage":136,"booking":14,"acc_booking":27322,"fulfillment":14,"acc_fulfillment":27186,"transfer_cost":0.0,"port_name":"New York","position":{"lat":40.73061,"lng":-73.935242},"status":"surplus"},{"frame_index":1108,"name":"ports_9","capacity":10000,"empty":1549,"full":84,"on_shipper":22,"on_consignee":0,"shortage":0,"acc_shortage":45,"booking":14,"acc_booking":27375,"fulfillment":14,"acc_fulfillment":27330,"transfer_cost":0.0,"port_name":"Oakland","position":{"lat":37.804363,"lng":-122.271111},"status":"surplus"},{"frame_index":1108,"name":"ports_10","capacity":10000,"empty":1607,"full":105,"on_shipper":14,"on_consignee":0,"shortage":0,"acc_shortage":314,"booking":9,"acc_booking":13956,"fulfillment":9,"acc_fulfillment":13642,"transfer_cost":0.0,"port_name":"Prince Rupert","position":{"lat":54.312519,"lng":-130.305405},"status":"surplus"},{"frame_index":1108,"name":"ports_11","capacity":10000,"empty":1374,"full":587,"on_shipper":54,"on_consignee":782,"shortage":0,"acc_shortage":204,"booking":28,"acc_booking":54134,"fulfillment":28,"acc_fulfillment":53930,"transfer_cost":0.0,"port_name":"Pusan","position":{"lat":35.166668,"lng":129.066666},"status":"surplus"},{"frame_index":1108,"name":"ports_12","capacity":10000,"empty":2268,"full":2309,"on_shipper":63,"on_consignee":0,"shortage":0,"acc_shortage":0,"booking":34,"acc_booking":72263,"fulfillment":34,"acc_fulfillment":72263,"transfer_cost":0.0,"port_name":"Qingdao","position":{"lat":36.066898,"lng":120.382698},"status":"surplus"},{"frame_index":1108,"name":"ports_13","capacity":10000,"empty":127,"full":420,"on_shipper":8,"on_consignee":0,"shortage":0,"acc_shortage":459,"booking":6,"acc_booking":9483,"fulfillment":6,"acc_fulfillment":9024,"transfer_cost":0.0,"port_name":"San Antonio","position":{"lat":29.424349,"lng":-98.491142},"status":"surplus"},{"frame_index":1108,"name":"ports_14","capacity":10000,"empty":532,"full":191,"on_shipper":8,"on_consignee":0,"shortage":0,"acc_shortage":1294,"booking":5,"acc_booking":9536,"fulfillment":5,"acc_fulfillment":8242,"transfer_cost":0.0,"port_name":"Santos","position":{"lat":-23.96083,"lng":-46.33361},"status":"surplus"},{"frame_index":1108,"name":"ports_15","capacity":10000,"empty":378,"full":2287,"on_shipper":64,"on_consignee":0,"shortage":0,"acc_shortage":1985,"booking":34,"acc_booking":63170,"fulfillment":34,"acc_fulfillment":61185,"transfer_cost":0.0,"port_name":"Seattle","position":{"lat":47.608013,"lng":-122.335167},"status":"surplus"},{"frame_index":1108,"name":"ports_16","capacity":10000,"empty":1737,"full":870,"on_shipper":64,"on_consignee":265,"shortage":0,"acc_shortage":817,"booking":47,"acc_booking":90057,"fulfillment":47,"acc_fulfillment":89240,"transfer_cost":0.0,"port_name":"Shanghai","position":{"lat":31.224361,"lng":121.46917},"status":"surplus"},{"frame_index":1108,"name":"ports_17","capacity":10000,"empty":914,"full":897,"on_shipper":35,"on_consignee":450,"shortage":0,"acc_shortage":619,"booking":19,"acc_booking":36372,"fulfillment":19,"acc_fulfillment":35753,"transfer_cost":130.0,"port_name":"Singapore","position":{"lat":1.29027,"lng":103.851959},"status":"surplus"},{"frame_index":1108,"name":"ports_18","capacity":10000,"empty":397,"full":161,"on_shipper":14,"on_consignee":0,"shortage":0,"acc_shortage":1374,"booking":9,"acc_booking":13961,"fulfillment":9,"acc_fulfillment":12587,"transfer_cost":0.0,"port_name":"Sydney","position":{"lat":-33.865143,"lng":151.2099},"status":"surplus"},{"frame_index":1108,"name":"ports_19","capacity":10000,"empty":420,"full":1061,"on_shipper":15,"on_consignee":0,"shortage":0,"acc_shortage":0,"booking":10,"acc_booking":18490,"fulfillment":10,"acc_fulfillment":18490,"transfer_cost":0.0,"port_name":"Vancouver","position":{"lat":49.246292,"lng":-123.116226},"status":"surplus"},{"frame_index":1108,"name":"ports_20","capacity":10000,"empty":1771,"full":1500,"on_shipper":44,"on_consignee":19,"shortage":0,"acc_shortage":2447,"booking":30,"acc_booking":62977,"fulfillment":30,"acc_fulfillment":60530,"transfer_cost":0.0,"port_name":"Yantian","position":{"lat":26.8533,"lng":119.8575},"status":"surplus"},{"frame_index":1108,"name":"ports_21","capacity":10000,"empty":1033,"full":1232,"on_shipper":38,"on_consignee":27,"shortage":0,"acc_shortage":10285,"booking":29,"acc_booking":59946,"fulfillment":29,"acc_fulfillment":49661,"transfer_cost":0.0,"port_name":"Yokohama","position":{"lat":35.443707,"lng":139.638031},"status":"surplus"}]