[{"frame_index":266,"name":"ports_0","capacity":10000,"empty":4327,"full":1690,"on_shipper":311,"on_consignee":177,"shortage":0,"acc_shortage":0,"booking":287,"acc_booking":32703,"fulfillment":287,"acc_fulfillment":32703,"transfer_cost":193.0,"port_name":"Bremerhaven","position":{"lat":53.549999,"lng":8.583333},"status":"surplus"},{"frame_index":266,"name":"ports_1","capacity":10000,"empty":852,"full":32,"on_shipper":23,"on_consignee":0,"shortage":0,"acc_shortage":0,"booking":17,"acc_booking":2199,"fulfillment":17,"acc_fulfillment":2199,"transfer_cost":0.0,"port_name":"Durban","position":{"lat":-29.8579,"lng":31.0292},"status":"surplus"},{"frame_index":266,"name":"ports_2","capacity":10000,"empty":849,"full":84,"on_shipper":20,"on_consignee":0,"shortage":0,"acc_shortage":233,"booking":16,"acc_booking":2180,"fulfillment":16,"acc_fulfillment":1947,"transfer_cost":0.0,"port_name":"Itagual","position":{"lat":-22.85222,"lng":-43.77528},"status":"surplus"},{"frame_index":266,"name":"ports_3","capacity":10000,"empty":1367,"full":1249,"on_shipper":139,"on_consignee":0,"shortage":0,"acc_shortage":0,"booking":98,"acc_booking":12423,"fulfillment":98,"acc_fulfillment":12423,"transfer_cost":0.0,"port_name":"LeHavre","position":{"lat":49.490002,"lng":0.1},"status":"surplus"},{"frame_index":266,"name":"ports_4","capacity":10000,"empty":1431,"full":1076,"on_shipper":104,"on_consignee":0,"shortage":0,"acc_shortage":0,"booking":80,"acc_booking":10379,"fulfillment":80,"acc_fulfillment":10379,"transfer_cost":0.0,"port_name":"Los Angeles","position":{"lat":34.052235,"lng":-118.243683},"status":"surplus"},{"frame_index":266,"name":"ports_5","capacity":10000,"empty":657,"full":525,"on_shipper":132,"on_consignee":0,"shortage":0,"acc_shortage":0,"booking":88,"acc_booking":10400,"fulfillment":88,"acc_fulfillment":10400,"transfer_cost":0.0,"port_name":"Manzanillo","position":{"lat":19.11695,"lng":-104.34214},"status":"surplus"},{"frame_index":266,"name":"ports_6","capacity":10000,"empty":245,"full":159,"on_shipper":33,"on_consignee":0,"shortage":0,"acc_shortage":0,"booking":25,"acc_booking":3196,"fulfillment":25,"acc_fulfillment":3196,"transfer_cost":0.0,"port_name":"Melbourne","position":{"lat":-37.840935,"lng":144.946457},"status":"surplus"},{"frame_index":266,"name":"ports_7","capacity":10000,"empty":2179,"full":95,"on_shipper":37,"on_consignee":0,"shortage":0,"acc_shortage":0,"booking":24,"acc_booking":3201,"fulfillment":24,"acc_fulfillment":3201,"transfer_cost":0.0,"port_name":"Montreal","position":{"lat":45.516136,"lng":-73.65683},"status":"surplus"},{"frame_index":266,"name":"ports_8","capacity":10000,"empty":4215,"full":677,"on_shipper":68,"on_consignee":0,"shortage":0,"acc_shortage":0,"booking":47,"acc_booking":6246,"fulfillment":47,"acc_fulfillment":6246,"transfer_cost":0.0,"port_name":"New York","position":{"lat":40.73061,"lng":-73.935242},"status":"surplus"},{"frame_index":266,"name":"ports_9","capacity":10000,"empty":981,"full":898,"on_shipper":72,"on_consignee":0,"shortage":0,"acc_shortage":0,"booking":52,"acc_booking":6220,"fulfillment":52,"acc_fulfillment":6220,"transfer_cost":0.0,"port_name":"Oakland","position":{"lat":37.804363,"lng":-122.271111},"status":"surplus"},{"frame_index":266,"name":"ports_10","capacity":10000,"empty":1411,"full":189,"on_shipper":29,"on_consignee":0,"shortage":0,"acc_shortage":0,"booking":20,"acc_booking":3178,"fulfillment":20,"acc_fulfillment":3178,"transfer_cost":0.0,"port_name":"Prince Rupert","position":{"lat":54.312519,"lng":-130.305405},"status":"surplus"},{"frame_index":266,"name":"ports_11","capacity":10000,"empty":1308,"full":1084,"on_shipper":155,"on_consignee":0,"shortage":0,"acc_shortage":0,"booking":94,"acc_booking":12389,"fulfillment":94,"acc_fulfillment":12389,"transfer_cost":0.0,"port_name":"Pusan","position":{"lat":35.166668,"lng":129.066666},"status":"surplus"},{"frame_index":266,"name":"ports_12","capacity":10000,"empty":1163,"full":875,"on_shipper":196,"on_consignee":901,"shortage":0,"acc_shortage":0,"booking":135,"acc_booking":16545,"fulfillment":135,"acc_fulfillment":16545,"transfer_cost":3.0,"port_name":"Qingdao","position":{"lat":36.066898,"lng":120.382698},"status":"surplus"},{"frame_index":266,"name":"ports_13","capacity":10000,"empty":433,"full":213,"on_shipper":20,"on_consignee":0,"shortage":0,"acc_shortage":55,"booking":17,"acc_booking":2180,"fulfillment":17,"acc_fulfillment":2125,"transfer_cost":0.0,"port_name":"San Antonio","position":{"lat":29.424349,"lng":-98.491142},"status":"surplus"},{"frame_index":266,"name":"ports_14","capacity":10000,"empty":1180,"full":86,"on_shipper":23,"on_consignee":0,"shortage":0,"acc_shortage":697,"booking":16,"acc_booking":2196,"fulfillment":16,"acc_fulfillment":1499,"transfer_cost":0.0,"port_name":"Santos","position":{"lat":-23.96083,"lng":-46.33361},"status":"surplus"},{"frame_index":266,"name":"ports_15","capacity":10000,"empty":4134,"full":1019,"on_shipper":192,"on_consignee":0,"shortage":0,"acc_shortage":0,"booking":115,"acc_booking":14458,"fulfillment":115,"acc_fulfillment":14458,"transfer_cost":0.0,"port_name":"Seattle","position":{"lat":47.608013,"lng":-122.335167},"status":"surplus"},{"frame_index":266,"name":"ports_16","capacity":10000,"empty":3235,"full":999,"on_shipper":176,"on_consignee":0,"shortage":0,"acc_shortage":0,"booking":147,"acc_booking":20580,"fulfillment":147,"acc_fulfillment":20580,"transfer_cost":0.0,"port_name":"Shanghai","position":{"lat":31.224361,"lng":121.46917},"status":"surplus"},{"frame_index":266,"name":"ports_17","capacity":10000,"empty":2419,"full":286,"on_shipper":84,"on_consignee":0,"shortage":0,"acc_shortage":40,"booking":64,"acc_booking":8328,"fulfillment":64,"acc_fulfillment":8288,"transfer_cost":0.0,"port_name":"Singapore","position":{"lat":1.29027,"lng":103.851959},"status":"surplus"},{"frame_index":266,"name":"ports_18","capacity":10000,"empty":231,"full":175,"on_shipper":27,"on_consignee":0,"shortage":0,"acc_shortage":5,"booking":21,"acc_booking":3173,"fulfillment":21,"acc_fulfillment":3168,"transfer_cost":0.0,"port_name":"Sydney","position":{"lat":-33.865143,"lng":151.2099},"status":"surplus"},{"frame_index":266,"name":"ports_19","capacity":10000,"empty":961,"full":200,"on_shipper":40,"on_consignee":3,"shortage":0,"acc_shortage":0,"booking":32,"acc_booking":4250,"fulfillment":32,"acc_fulfillment":4250,"transfer_cost":0.0,"port_name":"Vancouver","position":{"lat":49.246292,"lng":-123.116226},"status":"surplus"},{"frame_index":266,"name":"ports_20","capacity":10000,"empty":2131,"full":1451,"on_shipper":166,"on_consignee":0,"shortage":0,"acc_shortage":0,"booking":99,"acc_booking":14246,"fulfillment":99,"acc_fulfillment":14246,"transfer_cost":0.0,"port_name":"Yantian","position":{"lat":26.8533,"lng":119.8575},"status":"surplus"},{"frame_index":266,"name":"ports_21","capacity":10000,"empty":1180,"full":894,"on_shipper":160,"on_consignee":0,"shortage":0,"acc_shortage":492,"booking":116,"acc_booking":13546,"fulfillment":116,"acc_fulfillment":13054,"transfer_cost":0.0,"port_name":"Yokohama","position":{"lat":35.443707,"lng":139.638031},"status":"surplus"}]