[{"frame_index":790,"name":"ports_0","capacity":10000,"empty":2092,"full":5169,"on_shipper":103,"on_consignee":0,"shortage":0,"acc_shortage":522,"booking":57,"acc_booking":100797,"fulfillment":57,"acc_fulfillment":100275,"transfer_cost":0.0,"port_name":"Bremerhaven","position":{"lat":53.549999,"lng":8.583333},"status":"surplus"},{"frame_index":790,"name":"ports_1","capacity":10000,"empty":172,"full":0,"on_shipper":9,"on_consignee":246,"shortage":0,"acc_shortage":10,"booking":4,"acc_booking":6700,"fulfillment":4,"acc_fulfillment":6690,"transfer_cost":4.0,"port_name":"Durban","position":{"lat":-29.8579,"lng":31.0292},"status":"surplus"},{"frame_index":790,"name":"ports_2","capacity":10000,"empty":506,"full":76,"on_shipper":6,"on_consignee":0,"shortage":0,"acc_shortage":298,"booking":4,"acc_booking":6677,"fulfillment":4,"acc_fulfillment":6379,"transfer_cost":0.0,"port_name":"Itagual","position":{"lat":-22.85222,"lng":-43.77528},"status":"surplus"},{"frame_index":790,"name":"ports_3","capacity":10000,"empty":3200,"full":74,"on_shipper":23,"on_consignee":850,"shortage":0,"acc_shortage":0,"booking":20,"acc_booking":38156,"fulfillment":20,"acc_fulfillment":38156,"transfer_cost":1.0,"port_name":"LeHavre","position":{"lat":49.490002,"lng":0.1},"status":"surplus"},{"frame_index":790,"name":"ports_4","capacity":10000,"empty":1483,"full":318,"on_shipper":34,"on_consignee":0,"shortage":0,"acc_shortage":290,"booking":18,"acc_booking":31938,"fulfillment":18,"acc_fulfillment":31648,"transfer_cost":0.0,"port_name":"Los Angeles","position":{"lat":34.052235,"lng":-118.243683},"status":"surplus"},{"frame_index":790,"name":"ports_5","capacity":10000,"empty":1847,"full":12,"on_shipper":26,"on_consignee":418,"shortage":0,"acc_shortage":123,"booking":16,"acc_booking":32057,"fulfillment":16,"acc_fulfillment":31934,"transfer_cost":0.0,"port_name":"Manzanillo","position":{"lat":19.11695,"lng":-104.34214},"status":"surplus"},{"frame_index":790,"name":"ports_6","capacity":10000,"empty":277,"full":164,"on_shipper":10,"on_consignee":0,"shortage":0,"acc_shortage":1572,"booking":6,"acc_booking":9834,"fulfillment":6,"acc_fulfillment":8262,"transfer_cost":0.0,"port_name":"Melbourne","position":{"lat":-37.840935,"lng":144.946457},"status":"surplus"},{"frame_index":790,"name":"ports_7","capacity":10000,"empty":998,"full":47,"on_shipper":13,"on_consignee":0,"shortage":0,"acc_shortage":0,"booking":6,"acc_booking":9843,"fulfillment":6,"acc_fulfillment":9843,"transfer_cost":0.0,"port_name":"Montreal","position":{"lat":45.516136,"lng":-73.65683},"status":"surplus"},{"frame_index":790,"name":"ports_8","capacity":10000,"empty":4048,"full":198,"on_shipper":11,"on_consignee":0,"shortage":0,"acc_shortage":136,"booking":11,"acc_booking":19227,"fulfillment":11,"acc_fulfillment":19091,"transfer_cost":0.0,"port_name":"New York","position":{"lat":40.73061,"lng":-73.935242},"status":"surplus"},{"frame_index":790,"name":"ports_9","capacity":10000,"empty":65,"full":875,"on_shipper":16,"on_consignee":0,"shortage":0,"acc_shortage":45,"booking":9,"acc_booking":19265,"fulfillment":9,"acc_fulfillment":19220,"transfer_cost":0.0,"port_name":"Oakland","position":{"lat":37.804363,"lng":-122.271111},"status":"balance"},{"frame_index":790,"name":"ports_10","capacity":10000,"empty":979,"full":229,"on_shipper":9,"on_consignee":0,"shortage":0,"acc_shortage":314,"booking":5,"acc_booking":9854,"fulfillment":5,"acc_fulfillment":9540,"transfer_cost":0.0,"port_name":"Prince Rupert","position":{"lat":54.312519,"lng":-130.305405},"status":"surplus"},{"frame_index":790,"name":"ports_11","capacity":10000,"empty":3127,"full":228,"on_shipper":35,"on_consignee":27,"shortage":0,"acc_shortage":204,"booking":21,"acc_booking":38106,"fulfillment":21,"acc_fulfillment":37902,"transfer_cost":0.0,"port_name":"Pusan","position":{"lat":35.166668,"lng":129.066666},"status":"surplus"},{"frame_index":790,"name":"ports_12","capacity":10000,"empty":3079,"full":1334,"on_shipper":39,"on_consignee":0,"shortage":0,"acc_shortage":0,"booking":26,"acc_booking":50927,"fulfillment":26,"acc_fulfillment":50927,"transfer_cost":0.0,"port_name":"Qingdao","position":{"lat":36.066898,"lng":120.382698},"status":"surplus"},{"frame_index":790,"name":"ports_13","capacity":10000,"empty":232,"full":3,"on_shipper":6,"on_consignee":533,"shortage":0,"acc_shortage":449,"booking":3,"acc_booking":6684,"fulfillment":3,"acc_fulfillment":6235,"transfer_cost":0.0,"port_name":"San Antonio","position":{"lat":29.424349,"lng":-98.491142},"status":"surplus"},{"frame_index":790,"name":"ports_14","capacity":10000,"empty":253,"full":36,"on_shipper":6,"on_consignee":0,"shortage":0,"acc_shortage":762,"booking":4,"acc_booking":6723,"fulfillment":4,"acc_fulfillment":5961,"transfer_cost":0.0,"port_name":"Santos","position":{"lat":-23.96083,"lng":-46.33361},"status":"surplus"},{"frame_index":790,"name":"ports_15","capacity":10000,"empty":1317,"full":510,"on_shipper":45,"on_consignee":0,"shortage":0,"acc_shortage":0,"booking":24,"acc_booking":44505,"fulfillment":24,"acc_fulfillment":44505,"transfer_cost":0.0,"port_name":"Seattle","position":{"lat":47.608013,"lng":-122.335167},"status":"surplus"},{"frame_index":790,"name":"ports_16","capacity":10000,"empty":2596,"full":121,"on_shipper":50,"on_consignee":452,"shortage":0,"acc_shortage":760,"booking":32,"acc_booking":63327,"fulfillment":32,"acc_fulfillment":62567,"transfer_cost":53.0,"port_name":"Shanghai","position":{"lat":31.224361,"lng":121.46917},"status":"surplus"},{"frame_index":790,"name":"ports_17","capacity":10000,"empty":1511,"full":130,"on_shipper":22,"on_consignee":0,"shortage":0,"acc_shortage":283,"booking":14,"acc_booking":25637,"fulfillment":14,"acc_fulfillment":25354,"transfer_cost":0.0,"port_name":"Singapore","position":{"lat":1.29027,"lng":103.851959},"status":"surplus"},{"frame_index":790,"name":"ports_18","capacity":10000,"empty":0,"full":411,"on_shipper":0,"on_consignee":0,"shortage":6,"acc_shortage":1363,"booking":6,"acc_booking":9845,"fulfillment":0,"acc_fulfillment":8482,"transfer_cost":0.0,"port_name":"Sydney","position":{"lat":-33.865143,"lng":151.2099},"status":"balance"},{"frame_index":790,"name":"ports_19","capacity":10000,"empty":890,"full":470,"on_shipper":10,"on_consignee":0,"shortage":0,"acc_shortage":0,"booking":7,"acc_booking":13049,"fulfillment":7,"acc_fulfillment":13049,"transfer_cost":0.0,"port_name":"Vancouver","position":{"lat":49.246292,"lng":-123.116226},"status":"surplus"},{"frame_index":790,"name":"ports_20","capacity":10000,"empty":1239,"full":291,"on_shipper":44,"on_consignee":0,"shortage":0,"acc_shortage":942,"booking":26,"acc_booking":44206,"fulfillment":26,"acc_fulfillment":43264,"transfer_cost":0.0,"port_name":"Yantian","position":{"lat":26.8533,"lng":119.8575},"status":"surplus"},{"frame_index":790,"name":"ports_21","capacity":10000,"empty":0,"full":383,"on_shipper":0,"on_consignee":0,"shortage":17,"acc_shortage":6157,"booking":17,"acc_booking":42118,"fulfillment":0,"acc_fulfillment":35961,"transfer_cost":0.0,"port_name":"Yokohama","position":{"lat":35.443707,"lng":139.638031},"status":"demand"}]