[{"frame_index":80,"name":"ports_0","capacity":10000,"empty":6104,"full":3064,"on_shipper":156,"on_consignee":0,"shortage":0,"acc_shortage":0,"booking":128,"acc_booking":11273,"fulfillment":128,"acc_fulfillment":11273,"transfer_cost":0.0,"port_name":"Bremerhaven","position":{"lat":53.549999,"lng":8.583333},"status":"surplus"},{"frame_index":80,"name":"ports_1","capacity":10000,"empty":315,"full":527,"on_shipper":8,"on_consignee":0,"shortage":0,"acc_shortage":0,"booking":7,"acc_booking":757,"fulfillment":7,"acc_fulfillment":757,"transfer_cost":0.0,"port_name":"Durban","position":{"lat":-29.8579,"lng":31.0292},"status":"surplus"},{"frame_index":80,"name":"ports_2","capacity":10000,"empty":330,"full":382,"on_shipper":8,"on_consignee":0,"shortage":0,"acc_shortage":0,"booking":7,"acc_booking":750,"fulfillment":7,"acc_fulfillment":750,"transfer_cost":0.0,"port_name":"Itagual","position":{"lat":-22.85222,"lng":-43.77528},"status":"surplus"},{"frame_index":80,"name":"ports_3","capacity":10000,"empty":1822,"full":1134,"on_shipper":52,"on_consignee":0,"shortage":0,"acc_shortage":0,"booking":41,"acc_booking":4328,"fulfillment":41,"acc_fulfillment":4328,"transfer_cost":0.0,"port_name":"LeHavre","position":{"lat":49.490002,"lng":0.1},"status":"surplus"},{"frame_index":80,"name":"ports_4","capacity":10000,"empty":2438,"full":220,"on_shipper":45,"on_consignee":0,"shortage":0,"acc_shortage":0,"booking":34,"acc_booking":3612,"fulfillment":34,"acc_fulfillment":3612,"transfer_cost":0.0,"port_name":"Los Angeles","position":{"lat":34.052235,"lng":-118.243683},"status":"surplus"},{"frame_index":80,"name":"ports_5","capacity":10000,"empty":2483,"full":202,"on_shipper":41,"on_consignee":0,"shortage":0,"acc_shortage":0,"booking":36,"acc_booking":3595,"fulfillment":36,"acc_fulfillment":3595,"transfer_cost":0.0,"port_name":"Manzanillo","position":{"lat":19.11695,"lng":-104.34214},"status":"surplus"},{"frame_index":80,"name":"ports_6","capacity":10000,"empty":566,"full":141,"on_shipper":16,"on_consignee":0,"shortage":0,"acc_shortage":0,"booking":11,"acc_booking":1110,"fulfillment":11,"acc_fulfillment":1110,"transfer_cost":0.0,"port_name":"Melbourne","position":{"lat":-37.840935,"lng":144.946457},"status":"surplus"},{"frame_index":80,"name":"ports_7","capacity":10000,"empty":1209,"full":341,"on_shipper":13,"on_consignee":0,"shortage":0,"acc_shortage":0,"booking":11,"acc_booking":1107,"fulfillment":11,"acc_fulfillment":1107,"transfer_cost":0.0,"port_name":"Montreal","position":{"lat":45.516136,"lng":-73.65683},"status":"surplus"},{"frame_index":80,"name":"ports_8","capacity":10000,"empty":1792,"full":1048,"on_shipper":30,"on_consignee":0,"shortage":0,"acc_shortage":0,"booking":19,"acc_booking":2169,"fulfillment":19,"acc_fulfillment":2169,"transfer_cost":0.0,"port_name":"New York","position":{"lat":40.73061,"lng":-73.935242},"status":"surplus"},{"frame_index":80,"name":"ports_9","capacity":10000,"empty":1035,"full":1427,"on_shipper":27,"on_consignee":0,"shortage":0,"acc_shortage":0,"booking":22,"acc_booking":2141,"fulfillment":22,"acc_fulfillment":2141,"transfer_cost":0.0,"port_name":"Oakland","position":{"lat":37.804363,"lng":-122.271111},"status":"surplus"},{"frame_index":80,"name":"ports_10","capacity":10000,"empty":401,"full":563,"on_shipper":16,"on_consignee":0,"shortage":0,"acc_shortage":0,"booking":10,"acc_booking":1112,"fulfillment":10,"acc_fulfillment":1112,"transfer_cost":0.0,"port_name":"Prince Rupert","position":{"lat":54.312519,"lng":-130.305405},"status":"surplus"},{"frame_index":80,"name":"ports_11","capacity":10000,"empty":1943,"full":2243,"on_shipper":51,"on_consignee":0,"shortage":0,"acc_shortage":0,"booking":41,"acc_booking":4310,"fulfillment":41,"acc_fulfillment":4310,"transfer_cost":0.0,"port_name":"Pusan","position":{"lat":35.166668,"lng":129.066666},"status":"surplus"},{"frame_index":80,"name":"ports_12","capacity":10000,"empty":2830,"full":1852,"on_shipper":72,"on_consignee":235,"shortage":0,"acc_shortage":0,"booking":52,"acc_booking":5772,"fulfillment":52,"acc_fulfillment":5772,"transfer_cost":0.0,"port_name":"Qingdao","position":{"lat":36.066898,"lng":120.382698},"status":"surplus"},{"frame_index":80,"name":"ports_13","capacity":10000,"empty":394,"full":59,"on_shipper":8,"on_consignee":0,"shortage":0,"acc_shortage":0,"booking":7,"acc_booking":755,"fulfillment":7,"acc_fulfillment":755,"transfer_cost":0.0,"port_name":"San Antonio","position":{"lat":29.424349,"lng":-98.491142},"status":"surplus"},{"frame_index":80,"name":"ports_14","capacity":10000,"empty":275,"full":46,"on_shipper":10,"on_consignee":0,"shortage":0,"acc_shortage":0,"booking":7,"acc_booking":761,"fulfillment":7,"acc_fulfillment":761,"transfer_cost":0.0,"port_name":"Santos","position":{"lat":-23.96083,"lng":-46.33361},"status":"surplus"},{"frame_index":80,"name":"ports_15","capacity":10000,"empty":2195,"full":3272,"on_shipper":62,"on_consignee":0,"shortage":0,"acc_shortage":0,"booking":50,"acc_booking":5037,"fulfillment":50,"acc_fulfillment":5037,"transfer_cost":0.0,"port_name":"Seattle","position":{"lat":47.608013,"lng":-122.335167},"status":"surplus"},{"frame_index":80,"name":"ports_16","capacity":10000,"empty":2896,"full":2666,"on_shipper":71,"on_consignee":61,"shortage":0,"acc_shortage":0,"booking":62,"acc_booking":7262,"fulfillment":62,"acc_fulfillment":7262,"transfer_cost":0.0,"port_name":"Shanghai","position":{"lat":31.224361,"lng":121.46917},"status":"surplus"},{"frame_index":80,"name":"ports_17","capacity":10000,"empty":2067,"full":467,"on_shipper":35,"on_consignee":40,"shortage":0,"acc_shortage":0,"booking":27,"acc_booking":2899,"fulfillment":27,"acc_fulfillment":2899,"transfer_cost":0.0,"port_name":"Singapore","position":{"lat":1.29027,"lng":103.851959},"status":"surplus"},{"frame_index":80,"name":"ports_18","capacity":10000,"empty":410,"full":220,"on_shipper":19,"on_consignee":141,"shortage":0,"acc_shortage":0,"booking":12,"acc_booking":1093,"fulfillment":12,"acc_fulfillment":1093,"transfer_cost":0.0,"port_name":"Sydney","position":{"lat":-33.865143,"lng":151.2099},"status":"surplus"},{"frame_index":80,"name":"ports_19","capacity":10000,"empty":746,"full":286,"on_shipper":22,"on_consignee":0,"shortage":0,"acc_shortage":0,"booking":15,"acc_booking":1477,"fulfillment":15,"acc_fulfillment":1477,"transfer_cost":0.0,"port_name":"Vancouver","position":{"lat":49.246292,"lng":-123.116226},"status":"surplus"},{"frame_index":80,"name":"ports_20","capacity":10000,"empty":2406,"full":2520,"on_shipper":61,"on_consignee":0,"shortage":0,"acc_shortage":0,"booking":43,"acc_booking":4959,"fulfillment":43,"acc_fulfillment":4959,"transfer_cost":0.0,"port_name":"Yantian","position":{"lat":26.8533,"lng":119.8575},"status":"surplus"},{"frame_index":80,"name":"ports_21","capacity":10000,"empty":3406,"full":317,"on_shipper":54,"on_consignee":0,"shortage":0,"acc_shortage":0,"booking":44,"acc_booking":4876,"fulfillment":44,"acc_fulfillment":4876,"transfer_cost":0.0,"port_name":"Yokohama","position":{"lat":35.443707,"lng":139.638031},"status":"surplus"}]