[{"frame_index":893,"name":"ports_0","capacity":10000,"empty":1135,"full":1198,"on_shipper":54,"on_consignee":0,"shortage":0,"acc_shortage":522,"booking":43,"acc_booking":115000,"fulfillment":43,"acc_fulfillment":114478,"transfer_cost":0.0,"port_name":"Bremerhaven","position":{"lat":53.549999,"lng":8.583333},"status":"surplus"},{"frame_index":893,"name":"ports_1","capacity":10000,"empty":428,"full":16,"on_shipper":5,"on_consignee":0,"shortage":0,"acc_shortage":113,"booking":3,"acc_booking":7643,"fulfillment":3,"acc_fulfillment":7530,"transfer_cost":0.0,"port_name":"Durban","position":{"lat":-29.8579,"lng":31.0292},"status":"surplus"},{"frame_index":893,"name":"ports_2","capacity":10000,"empty":269,"full":434,"on_shipper":5,"on_consignee":0,"shortage":0,"acc_shortage":298,"booking":4,"acc_booking":7604,"fulfillment":4,"acc_fulfillment":7306,"transfer_cost":0.0,"port_name":"Itagual","position":{"lat":-22.85222,"lng":-43.77528},"status":"surplus"},{"frame_index":893,"name":"ports_3","capacity":10000,"empty":3248,"full":1479,"on_shipper":33,"on_consignee":0,"shortage":0,"acc_shortage":0,"booking":19,"acc_booking":43507,"fulfillment":19,"acc_fulfillment":43507,"transfer_cost":0.0,"port_name":"LeHavre","position":{"lat":49.490002,"lng":0.1},"status":"surplus"},{"frame_index":893,"name":"ports_4","capacity":10000,"empty":449,"full":384,"on_shipper":20,"on_consignee":0,"shortage":0,"acc_shortage":290,"booking":16,"acc_booking":36438,"fulfillment":16,"acc_fulfillment":36148,"transfer_cost":0.0,"port_name":"Los Angeles","position":{"lat":34.052235,"lng":-118.243683},"status":"surplus"},{"frame_index":893,"name":"ports_5","capacity":10000,"empty":1361,"full":212,"on_shipper":19,"on_consignee":0,"shortage":0,"acc_shortage":163,"booking":15,"acc_booking":36543,"fulfillment":15,"acc_fulfillment":36380,"transfer_cost":0.0,"port_name":"Manzanillo","position":{"lat":19.11695,"lng":-104.34214},"status":"surplus"},{"frame_index":893,"name":"ports_6","capacity":10000,"empty":0,"full":506,"on_shipper":0,"on_consignee":0,"shortage":5,"acc_shortage":1836,"booking":5,"acc_booking":11212,"fulfillment":0,"acc_fulfillment":9376,"transfer_cost":0.0,"port_name":"Melbourne","position":{"lat":-37.840935,"lng":144.946457},"status":"balance"},{"frame_index":893,"name":"ports_7","capacity":10000,"empty":1050,"full":18,"on_shipper":7,"on_consignee":0,"shortage":0,"acc_shortage":0,"booking":5,"acc_booking":11223,"fulfillment":5,"acc_fulfillment":11223,"transfer_cost":0.0,"port_name":"Montreal","position":{"lat":45.516136,"lng":-73.65683},"status":"surplus"},{"frame_index":893,"name":"ports_8","capacity":10000,"empty":4486,"full":114,"on_shipper":10,"on_consignee":0,"shortage":0,"acc_shortage":136,"booking":10,"acc_booking":21930,"fulfillment":10,"acc_fulfillment":21794,"transfer_cost":0.0,"port_name":"New York","position":{"lat":40.73061,"lng":-73.935242},"status":"surplus"},{"frame_index":893,"name":"ports_9","capacity":10000,"empty":1749,"full":74,"on_shipper":17,"on_consignee":0,"shortage":0,"acc_shortage":45,"booking":11,"acc_booking":21951,"fulfillment":11,"acc_fulfillment":21906,"transfer_cost":0.0,"port_name":"Oakland","position":{"lat":37.804363,"lng":-122.271111},"status":"surplus"},{"frame_index":893,"name":"ports_10","capacity":10000,"empty":1145,"full":39,"on_shipper":9,"on_consignee":0,"shortage":0,"acc_shortage":314,"booking":5,"acc_booking":11256,"fulfillment":5,"acc_fulfillment":10942,"transfer_cost":0.0,"port_name":"Prince Rupert","position":{"lat":54.312519,"lng":-130.305405},"status":"surplus"},{"frame_index":893,"name":"ports_11","capacity":10000,"empty":351,"full":2364,"on_shipper":28,"on_consignee":0,"shortage":0,"acc_shortage":204,"booking":19,"acc_booking":43460,"fulfillment":19,"acc_fulfillment":43256,"transfer_cost":0.0,"port_name":"Pusan","position":{"lat":35.166668,"lng":129.066666},"status":"surplus"},{"frame_index":893,"name":"ports_12","capacity":10000,"empty":603,"full":615,"on_shipper":36,"on_consignee":264,"shortage":0,"acc_shortage":0,"booking":24,"acc_booking":58112,"fulfillment":24,"acc_fulfillment":58112,"transfer_cost":0.0,"port_name":"Qingdao","position":{"lat":36.066898,"lng":120.382698},"status":"surplus"},{"frame_index":893,"name":"ports_13","capacity":10000,"empty":280,"full":82,"on_shipper":6,"on_consignee":0,"shortage":0,"acc_shortage":449,"booking":4,"acc_booking":7612,"fulfillment":4,"acc_fulfillment":7163,"transfer_cost":0.0,"port_name":"San Antonio","position":{"lat":29.424349,"lng":-98.491142},"status":"surplus"},{"frame_index":893,"name":"ports_14","capacity":10000,"empty":470,"full":22,"on_shipper":5,"on_consignee":0,"shortage":0,"acc_shortage":819,"booking":3,"acc_booking":7664,"fulfillment":3,"acc_fulfillment":6845,"transfer_cost":0.0,"port_name":"Santos","position":{"lat":-23.96083,"lng":-46.33361},"status":"surplus"},{"frame_index":893,"name":"ports_15","capacity":10000,"empty":402,"full":2092,"on_shipper":36,"on_consignee":0,"shortage":0,"acc_shortage":0,"booking":23,"acc_booking":50758,"fulfillment":23,"acc_fulfillment":50758,"transfer_cost":0.0,"port_name":"Seattle","position":{"lat":47.608013,"lng":-122.335167},"status":"surplus"},{"frame_index":893,"name":"ports_16","capacity":10000,"empty":1069,"full":2807,"on_shipper":41,"on_consignee":40,"shortage":0,"acc_shortage":817,"booking":30,"acc_booking":72285,"fulfillment":30,"acc_fulfillment":71468,"transfer_cost":0.0,"port_name":"Shanghai","position":{"lat":31.224361,"lng":121.46917},"status":"surplus"},{"frame_index":893,"name":"ports_17","capacity":10000,"empty":1460,"full":371,"on_shipper":17,"on_consignee":0,"shortage":0,"acc_shortage":283,"booking":13,"acc_booking":29219,"fulfillment":13,"acc_fulfillment":28936,"transfer_cost":0.0,"port_name":"Singapore","position":{"lat":1.29027,"lng":103.851959},"status":"surplus"},{"frame_index":893,"name":"ports_18","capacity":10000,"empty":1140,"full":56,"on_shipper":10,"on_consignee":0,"shortage":0,"acc_shortage":1374,"booking":6,"acc_booking":11230,"fulfillment":6,"acc_fulfillment":9856,"transfer_cost":0.0,"port_name":"Sydney","position":{"lat":-33.865143,"lng":151.2099},"status":"surplus"},{"frame_index":893,"name":"ports_19","capacity":10000,"empty":1112,"full":304,"on_shipper":10,"on_consignee":0,"shortage":0,"acc_shortage":0,"booking":6,"acc_booking":14864,"fulfillment":6,"acc_fulfillment":14864,"transfer_cost":0.0,"port_name":"Vancouver","position":{"lat":49.246292,"lng":-123.116226},"status":"surplus"},{"frame_index":893,"name":"ports_20","capacity":10000,"empty":249,"full":1909,"on_shipper":33,"on_consignee":0,"shortage":0,"acc_shortage":1292,"booking":24,"acc_booking":50488,"fulfillment":24,"acc_fulfillment":49196,"transfer_cost":0.0,"port_name":"Yantian","position":{"lat":26.8533,"lng":119.8575},"status":"surplus"},{"frame_index":893,"name":"ports_21","capacity":10000,"empty":752,"full":128,"on_shipper":22,"on_consignee":0,"shortage":0,"acc_shortage":7235,"booking":14,"acc_booking":48139,"fulfillment":14,"acc_fulfillment":40904,"transfer_cost":0.0,"port_name":"Yokohama","position":{"lat":35.443707,"lng":139.638031},"status":"surplus"}]