[{"frame_index":489,"name":"ports_0","capacity":10000,"empty":2274,"full":2567,"on_shipper":395,"on_consignee":0,"shortage":0,"acc_shortage":522,"booking":228,"acc_booking":61025,"fulfillment":228,"acc_fulfillment":60503,"transfer_cost":0.0,"port_name":"Bremerhaven","position":{"lat":53.549999,"lng":8.583333},"status":"surplus"},{"frame_index":489,"name":"ports_1","capacity":10000,"empty":72,"full":0,"on_shipper":23,"on_consignee":441,"shortage":0,"acc_shortage":0,"booking":13,"acc_booking":4088,"fulfillment":13,"acc_fulfillment":4088,"transfer_cost":9.0,"port_name":"Durban","position":{"lat":-29.8579,"lng":31.0292},"status":"balance"},{"frame_index":489,"name":"ports_2","capacity":10000,"empty":777,"full":198,"on_shipper":18,"on_consignee":0,"shortage":0,"acc_shortage":233,"booking":15,"acc_booking":4064,"fulfillment":15,"acc_fulfillment":3831,"transfer_cost":0.0,"port_name":"Itagual","position":{"lat":-22.85222,"lng":-43.77528},"status":"surplus"},{"frame_index":489,"name":"ports_3","capacity":10000,"empty":1293,"full":729,"on_shipper":111,"on_consignee":0,"shortage":0,"acc_shortage":0,"booking":82,"acc_booking":23195,"fulfillment":82,"acc_fulfillment":23195,"transfer_cost":0.0,"port_name":"LeHavre","position":{"lat":49.490002,"lng":0.1},"status":"surplus"},{"frame_index":489,"name":"ports_4","capacity":10000,"empty":2856,"full":704,"on_shipper":93,"on_consignee":0,"shortage":0,"acc_shortage":0,"booking":68,"acc_booking":19386,"fulfillment":68,"acc_fulfillment":19386,"transfer_cost":0.0,"port_name":"Los Angeles","position":{"lat":34.052235,"lng":-118.243683},"status":"surplus"},{"frame_index":489,"name":"ports_5","capacity":10000,"empty":2472,"full":149,"on_shipper":85,"on_consignee":0,"shortage":0,"acc_shortage":123,"booking":64,"acc_booking":19455,"fulfillment":64,"acc_fulfillment":19332,"transfer_cost":0.0,"port_name":"Manzanillo","position":{"lat":19.11695,"lng":-104.34214},"status":"surplus"},{"frame_index":489,"name":"ports_6","capacity":10000,"empty":289,"full":24,"on_shipper":30,"on_consignee":40,"shortage":0,"acc_shortage":837,"booking":20,"acc_booking":5973,"fulfillment":20,"acc_fulfillment":5136,"transfer_cost":77.0,"port_name":"Melbourne","position":{"lat":-37.840935,"lng":144.946457},"status":"surplus"},{"frame_index":489,"name":"ports_7","capacity":10000,"empty":2163,"full":58,"on_shipper":29,"on_consignee":0,"shortage":0,"acc_shortage":0,"booking":20,"acc_booking":5975,"fulfillment":20,"acc_fulfillment":5975,"transfer_cost":0.0,"port_name":"Montreal","position":{"lat":45.516136,"lng":-73.65683},"status":"surplus"},{"frame_index":489,"name":"ports_8","capacity":10000,"empty":1991,"full":327,"on_shipper":55,"on_consignee":0,"shortage":0,"acc_shortage":0,"booking":38,"acc_booking":11661,"fulfillment":38,"acc_fulfillment":11661,"transfer_cost":0.0,"port_name":"New York","position":{"lat":40.73061,"lng":-73.935242},"status":"surplus"},{"frame_index":489,"name":"ports_9","capacity":10000,"empty":2227,"full":536,"on_shipper":71,"on_consignee":0,"shortage":0,"acc_shortage":45,"booking":43,"acc_booking":11684,"fulfillment":43,"acc_fulfillment":11639,"transfer_cost":0.0,"port_name":"Oakland","position":{"lat":37.804363,"lng":-122.271111},"status":"surplus"},{"frame_index":489,"name":"ports_10","capacity":10000,"empty":53,"full":411,"on_shipper":28,"on_consignee":0,"shortage":0,"acc_shortage":0,"booking":17,"acc_booking":5984,"fulfillment":17,"acc_fulfillment":5984,"transfer_cost":0.0,"port_name":"Prince Rupert","position":{"lat":54.312519,"lng":-130.305405},"status":"balance"},{"frame_index":489,"name":"ports_11","capacity":10000,"empty":3215,"full":432,"on_shipper":113,"on_consignee":210,"shortage":0,"acc_shortage":204,"booking":81,"acc_booking":23124,"fulfillment":81,"acc_fulfillment":22920,"transfer_cost":0.0,"port_name":"Pusan","position":{"lat":35.166668,"lng":129.066666},"status":"surplus"},{"frame_index":489,"name":"ports_12","capacity":10000,"empty":4569,"full":1194,"on_shipper":124,"on_consignee":0,"shortage":0,"acc_shortage":0,"booking":116,"acc_booking":30915,"fulfillment":116,"acc_fulfillment":30915,"transfer_cost":0.0,"port_name":"Qingdao","position":{"lat":36.066898,"lng":120.382698},"status":"surplus"},{"frame_index":489,"name":"ports_13","capacity":10000,"empty":591,"full":59,"on_shipper":21,"on_consignee":0,"shortage":0,"acc_shortage":286,"booking":15,"acc_booking":4055,"fulfillment":15,"acc_fulfillment":3769,"transfer_cost":0.0,"port_name":"San Antonio","position":{"lat":29.424349,"lng":-98.491142},"status":"surplus"},{"frame_index":489,"name":"ports_14","capacity":10000,"empty":164,"full":246,"on_shipper":20,"on_consignee":0,"shortage":0,"acc_shortage":697,"booking":12,"acc_booking":4092,"fulfillment":12,"acc_fulfillment":3395,"transfer_cost":0.0,"port_name":"Santos","position":{"lat":-23.96083,"lng":-46.33361},"status":"surplus"},{"frame_index":489,"name":"ports_15","capacity":10000,"empty":4310,"full":361,"on_shipper":138,"on_consignee":0,"shortage":0,"acc_shortage":0,"booking":94,"acc_booking":26997,"fulfillment":94,"acc_fulfillment":26997,"transfer_cost":0.0,"port_name":"Seattle","position":{"lat":47.608013,"lng":-122.335167},"status":"surplus"},{"frame_index":489,"name":"ports_16","capacity":10000,"empty":851,"full":1624,"on_shipper":172,"on_consignee":0,"shortage":0,"acc_shortage":0,"booking":137,"acc_booking":38511,"fulfillment":137,"acc_fulfillment":38511,"transfer_cost":0.0,"port_name":"Shanghai","position":{"lat":31.224361,"lng":121.46917},"status":"surplus"},{"frame_index":489,"name":"ports_17","capacity":10000,"empty":3006,"full":443,"on_shipper":80,"on_consignee":0,"shortage":0,"acc_shortage":40,"booking":55,"acc_booking":15555,"fulfillment":55,"acc_fulfillment":15515,"transfer_cost":0.0,"port_name":"Singapore","position":{"lat":1.29027,"lng":103.851959},"status":"surplus"},{"frame_index":489,"name":"ports_18","capacity":10000,"empty":520,"full":281,"on_shipper":28,"on_consignee":0,"shortage":0,"acc_shortage":774,"booking":22,"acc_booking":5944,"fulfillment":22,"acc_fulfillment":5170,"transfer_cost":0.0,"port_name":"Sydney","position":{"lat":-33.865143,"lng":151.2099},"status":"surplus"},{"frame_index":489,"name":"ports_19","capacity":10000,"empty":783,"full":309,"on_shipper":41,"on_consignee":0,"shortage":0,"acc_shortage":0,"booking":29,"acc_booking":7938,"fulfillment":29,"acc_fulfillment":7938,"transfer_cost":0.0,"port_name":"Vancouver","position":{"lat":49.246292,"lng":-123.116226},"status":"surplus"},{"frame_index":489,"name":"ports_20","capacity":10000,"empty":1906,"full":651,"on_shipper":142,"on_consignee":26,"shortage":0,"acc_shortage":350,"booking":104,"acc_booking":26758,"fulfillment":104,"acc_fulfillment":26408,"transfer_cost":0.0,"port_name":"Yantian","position":{"lat":26.8533,"lng":119.8575},"status":"surplus"},{"frame_index":489,"name":"ports_21","capacity":10000,"empty":1428,"full":748,"on_shipper":136,"on_consignee":0,"shortage":0,"acc_shortage":2740,"booking":96,"acc_booking":25455,"fulfillment":96,"acc_fulfillment":22715,"transfer_cost":0.0,"port_name":"Yokohama","position":{"lat":35.443707,"lng":139.638031},"status":"surplus"}]