[{"frame_index":972,"name":"ports_0","capacity":10000,"empty":1483,"full":4069,"on_shipper":206,"on_consignee":165,"shortage":0,"acc_shortage":737,"booking":116,"acc_booking":126378,"fulfillment":116,"acc_fulfillment":125641,"transfer_cost":0.0,"port_name":"Bremerhaven","position":{"lat":53.549999,"lng":8.583333},"status":"surplus"},{"frame_index":972,"name":"ports_1","capacity":10000,"empty":269,"full":246,"on_shipper":9,"on_consignee":0,"shortage":0,"acc_shortage":113,"booking":9,"acc_booking":8398,"fulfillment":9,"acc_fulfillment":8285,"transfer_cost":0.0,"port_name":"Durban","position":{"lat":-29.8579,"lng":31.0292},"status":"surplus"},{"frame_index":972,"name":"ports_2","capacity":10000,"empty":552,"full":65,"on_shipper":19,"on_consignee":0,"shortage":0,"acc_shortage":298,"booking":9,"acc_booking":8360,"fulfillment":9,"acc_fulfillment":8062,"transfer_cost":0.0,"port_name":"Itagual","position":{"lat":-22.85222,"lng":-43.77528},"status":"surplus"},{"frame_index":972,"name":"ports_3","capacity":10000,"empty":2876,"full":371,"on_shipper":63,"on_consignee":1019,"shortage":0,"acc_shortage":0,"booking":52,"acc_booking":47824,"fulfillment":52,"acc_fulfillment":47824,"transfer_cost":0.0,"port_name":"LeHavre","position":{"lat":49.490002,"lng":0.1},"status":"surplus"},{"frame_index":972,"name":"ports_4","capacity":10000,"empty":1331,"full":1390,"on_shipper":65,"on_consignee":0,"shortage":0,"acc_shortage":290,"booking":44,"acc_booking":40051,"fulfillment":44,"acc_fulfillment":39761,"transfer_cost":0.0,"port_name":"Los Angeles","position":{"lat":34.052235,"lng":-118.243683},"status":"surplus"},{"frame_index":972,"name":"ports_5","capacity":10000,"empty":5,"full":0,"on_shipper":59,"on_consignee":697,"shortage":0,"acc_shortage":163,"booking":47,"acc_booking":40081,"fulfillment":47,"acc_fulfillment":39918,"transfer_cost":0.0,"port_name":"Manzanillo","position":{"lat":19.11695,"lng":-104.34214},"status":"demand"},{"frame_index":972,"name":"ports_6","capacity":10000,"empty":355,"full":212,"on_shipper":14,"on_consignee":0,"shortage":0,"acc_shortage":2108,"booking":14,"acc_booking":12325,"fulfillment":14,"acc_fulfillment":10217,"transfer_cost":0.0,"port_name":"Melbourne","position":{"lat":-37.840935,"lng":144.946457},"status":"surplus"},{"frame_index":972,"name":"ports_7","capacity":10000,"empty":1252,"full":249,"on_shipper":13,"on_consignee":0,"shortage":0,"acc_shortage":0,"booking":13,"acc_booking":12334,"fulfillment":13,"acc_fulfillment":12334,"transfer_cost":0.0,"port_name":"Montreal","position":{"lat":45.516136,"lng":-73.65683},"status":"surplus"},{"frame_index":972,"name":"ports_8","capacity":10000,"empty":2461,"full":268,"on_shipper":25,"on_consignee":0,"shortage":0,"acc_shortage":136,"booking":25,"acc_booking":24102,"fulfillment":25,"acc_fulfillment":23966,"transfer_cost":0.0,"port_name":"New York","position":{"lat":40.73061,"lng":-73.935242},"status":"surplus"},{"frame_index":972,"name":"ports_9","capacity":10000,"empty":1567,"full":63,"on_shipper":51,"on_consignee":0,"shortage":0,"acc_shortage":45,"booking":29,"acc_booking":24124,"fulfillment":29,"acc_fulfillment":24079,"transfer_cost":0.0,"port_name":"Oakland","position":{"lat":37.804363,"lng":-122.271111},"status":"surplus"},{"frame_index":972,"name":"ports_10","capacity":10000,"empty":1259,"full":343,"on_shipper":18,"on_consignee":0,"shortage":0,"acc_shortage":314,"booking":13,"acc_booking":12334,"fulfillment":13,"acc_fulfillment":12020,"transfer_cost":0.0,"port_name":"Prince Rupert","position":{"lat":54.312519,"lng":-130.305405},"status":"surplus"},{"frame_index":972,"name":"ports_11","capacity":10000,"empty":2737,"full":586,"on_shipper":76,"on_consignee":0,"shortage":0,"acc_shortage":204,"booking":53,"acc_booking":47773,"fulfillment":53,"acc_fulfillment":47569,"transfer_cost":0.0,"port_name":"Pusan","position":{"lat":35.166668,"lng":129.066666},"status":"surplus"},{"frame_index":972,"name":"ports_12","capacity":10000,"empty":2655,"full":2442,"on_shipper":95,"on_consignee":0,"shortage":0,"acc_shortage":0,"booking":70,"acc_booking":63870,"fulfillment":70,"acc_fulfillment":63870,"transfer_cost":0.0,"port_name":"Qingdao","position":{"lat":36.066898,"lng":120.382698},"status":"surplus"},{"frame_index":972,"name":"ports_13","capacity":10000,"empty":232,"full":84,"on_shipper":13,"on_consignee":0,"shortage":0,"acc_shortage":459,"booking":8,"acc_booking":8359,"fulfillment":8,"acc_fulfillment":7900,"transfer_cost":0.0,"port_name":"San Antonio","position":{"lat":29.424349,"lng":-98.491142},"status":"surplus"},{"frame_index":972,"name":"ports_14","capacity":10000,"empty":436,"full":259,"on_shipper":16,"on_consignee":0,"shortage":0,"acc_shortage":876,"booking":9,"acc_booking":8419,"fulfillment":9,"acc_fulfillment":7543,"transfer_cost":0.0,"port_name":"Santos","position":{"lat":-23.96083,"lng":-46.33361},"status":"surplus"},{"frame_index":972,"name":"ports_15","capacity":10000,"empty":178,"full":1027,"on_shipper":110,"on_consignee":0,"shortage":0,"acc_shortage":859,"booking":58,"acc_booking":55794,"fulfillment":58,"acc_fulfillment":54935,"transfer_cost":0.0,"port_name":"Seattle","position":{"lat":47.608013,"lng":-122.335167},"status":"demand"},{"frame_index":972,"name":"ports_16","capacity":10000,"empty":1468,"full":1161,"on_shipper":147,"on_consignee":171,"shortage":0,"acc_shortage":817,"booking":89,"acc_booking":79544,"fulfillment":89,"acc_fulfillment":78727,"transfer_cost":6.0,"port_name":"Shanghai","position":{"lat":31.224361,"lng":121.46917},"status":"surplus"},{"frame_index":972,"name":"ports_17","capacity":10000,"empty":223,"full":623,"on_shipper":42,"on_consignee":0,"shortage":0,"acc_shortage":516,"booking":34,"acc_booking":32112,"fulfillment":34,"acc_fulfillment":31596,"transfer_cost":0.0,"port_name":"Singapore","position":{"lat":1.29027,"lng":103.851959},"status":"surplus"},{"frame_index":972,"name":"ports_18","capacity":10000,"empty":403,"full":429,"on_shipper":13,"on_consignee":0,"shortage":0,"acc_shortage":1374,"booking":13,"acc_booking":12337,"fulfillment":13,"acc_fulfillment":10963,"transfer_cost":0.0,"port_name":"Sydney","position":{"lat":-33.865143,"lng":151.2099},"status":"surplus"},{"frame_index":972,"name":"ports_19","capacity":10000,"empty":592,"full":1082,"on_shipper":28,"on_consignee":0,"shortage":0,"acc_shortage":0,"booking":17,"acc_booking":16324,"fulfillment":17,"acc_fulfillment":16324,"transfer_cost":0.0,"port_name":"Vancouver","position":{"lat":49.246292,"lng":-123.116226},"status":"surplus"},{"frame_index":972,"name":"ports_20","capacity":10000,"empty":576,"full":791,"on_shipper":91,"on_consignee":84,"shortage":0,"acc_shortage":1425,"booking":63,"acc_booking":55474,"fulfillment":63,"acc_fulfillment":54049,"transfer_cost":0.0,"port_name":"Yantian","position":{"lat":26.8533,"lng":119.8575},"status":"surplus"},{"frame_index":972,"name":"ports_21","capacity":10000,"empty":634,"full":470,"on_shipper":97,"on_consignee":0,"shortage":0,"acc_shortage":7238,"booking":57,"acc_booking":52989,"fulfillment":57,"acc_fulfillment":45751,"transfer_cost":0.0,"port_name":"Yokohama","position":{"lat":35.443707,"lng":139.638031},"status":"surplus"}]