[{"frame_index":992,"name":"ports_0","capacity":10000,"empty":4600,"full":243,"on_shipper":114,"on_consignee":0,"shortage":0,"acc_shortage":861,"booking":88,"acc_booking":128619,"fulfillment":88,"acc_fulfillment":127758,"transfer_cost":0.0,"port_name":"Bremerhaven","position":{"lat":53.549999,"lng":8.583333},"status":"surplus"},{"frame_index":992,"name":"ports_1","capacity":10000,"empty":402,"full":23,"on_shipper":11,"on_consignee":0,"shortage":0,"acc_shortage":113,"booking":7,"acc_booking":8550,"fulfillment":7,"acc_fulfillment":8437,"transfer_cost":0.0,"port_name":"Durban","position":{"lat":-29.8579,"lng":31.0292},"status":"surplus"},{"frame_index":992,"name":"ports_2","capacity":10000,"empty":399,"full":229,"on_shipper":8,"on_consignee":0,"shortage":0,"acc_shortage":298,"booking":7,"acc_booking":8513,"fulfillment":7,"acc_fulfillment":8215,"transfer_cost":0.0,"port_name":"Itagual","position":{"lat":-22.85222,"lng":-43.77528},"status":"surplus"},{"frame_index":992,"name":"ports_3","capacity":10000,"empty":3467,"full":771,"on_shipper":53,"on_consignee":0,"shortage":0,"acc_shortage":0,"booking":38,"acc_booking":48686,"fulfillment":38,"acc_fulfillment":48686,"transfer_cost":0.0,"port_name":"LeHavre","position":{"lat":49.490002,"lng":0.1},"status":"surplus"},{"frame_index":992,"name":"ports_4","capacity":10000,"empty":903,"full":204,"on_shipper":53,"on_consignee":0,"shortage":0,"acc_shortage":290,"booking":33,"acc_booking":40772,"fulfillment":33,"acc_fulfillment":40482,"transfer_cost":0.0,"port_name":"Los Angeles","position":{"lat":34.052235,"lng":-118.243683},"status":"surplus"},{"frame_index":992,"name":"ports_5","capacity":10000,"empty":93,"full":380,"on_shipper":41,"on_consignee":0,"shortage":0,"acc_shortage":163,"booking":37,"acc_booking":40812,"fulfillment":37,"acc_fulfillment":40649,"transfer_cost":0.0,"port_name":"Manzanillo","position":{"lat":19.11695,"lng":-104.34214},"status":"demand"},{"frame_index":992,"name":"ports_6","capacity":10000,"empty":333,"full":160,"on_shipper":14,"on_consignee":0,"shortage":0,"acc_shortage":2108,"booking":10,"acc_booking":12550,"fulfillment":10,"acc_fulfillment":10442,"transfer_cost":0.0,"port_name":"Melbourne","position":{"lat":-37.840935,"lng":144.946457},"status":"surplus"},{"frame_index":992,"name":"ports_7","capacity":10000,"empty":1028,"full":476,"on_shipper":10,"on_consignee":0,"shortage":0,"acc_shortage":0,"booking":10,"acc_booking":12558,"fulfillment":10,"acc_fulfillment":12558,"transfer_cost":0.0,"port_name":"Montreal","position":{"lat":45.516136,"lng":-73.65683},"status":"surplus"},{"frame_index":992,"name":"ports_8","capacity":10000,"empty":2024,"full":711,"on_shipper":19,"on_consignee":0,"shortage":0,"acc_shortage":136,"booking":19,"acc_booking":24539,"fulfillment":19,"acc_fulfillment":24403,"transfer_cost":0.0,"port_name":"New York","position":{"lat":40.73061,"lng":-73.935242},"status":"surplus"},{"frame_index":992,"name":"ports_9","capacity":10000,"empty":1124,"full":531,"on_shipper":26,"on_consignee":0,"shortage":0,"acc_shortage":45,"booking":17,"acc_booking":24567,"fulfillment":17,"acc_fulfillment":24522,"transfer_cost":0.0,"port_name":"Oakland","position":{"lat":37.804363,"lng":-122.271111},"status":"surplus"},{"frame_index":992,"name":"ports_10","capacity":10000,"empty":984,"full":172,"on_shipper":15,"on_consignee":0,"shortage":0,"acc_shortage":314,"booking":10,"acc_booking":12562,"fulfillment":10,"acc_fulfillment":12248,"transfer_cost":0.0,"port_name":"Prince Rupert","position":{"lat":54.312519,"lng":-130.305405},"status":"surplus"},{"frame_index":992,"name":"ports_11","capacity":10000,"empty":1872,"full":1477,"on_shipper":50,"on_consignee":0,"shortage":0,"acc_shortage":204,"booking":39,"acc_booking":48638,"fulfillment":39,"acc_fulfillment":48434,"transfer_cost":0.0,"port_name":"Pusan","position":{"lat":35.166668,"lng":129.066666},"status":"surplus"},{"frame_index":992,"name":"ports_12","capacity":10000,"empty":2784,"full":2045,"on_shipper":84,"on_consignee":0,"shortage":0,"acc_shortage":0,"booking":49,"acc_booking":65025,"fulfillment":49,"acc_fulfillment":65025,"transfer_cost":0.0,"port_name":"Qingdao","position":{"lat":36.066898,"lng":120.382698},"status":"surplus"},{"frame_index":992,"name":"ports_13","capacity":10000,"empty":260,"full":131,"on_shipper":11,"on_consignee":0,"shortage":0,"acc_shortage":459,"booking":7,"acc_booking":8519,"fulfillment":7,"acc_fulfillment":8060,"transfer_cost":0.0,"port_name":"San Antonio","position":{"lat":29.424349,"lng":-98.491142},"status":"surplus"},{"frame_index":992,"name":"ports_14","capacity":10000,"empty":172,"full":65,"on_shipper":10,"on_consignee":0,"shortage":0,"acc_shortage":876,"booking":6,"acc_booking":8570,"fulfillment":6,"acc_fulfillment":7694,"transfer_cost":0.0,"port_name":"Santos","position":{"lat":-23.96083,"lng":-46.33361},"status":"surplus"},{"frame_index":992,"name":"ports_15","capacity":10000,"empty":0,"full":1260,"on_shipper":0,"on_consignee":0,"shortage":45,"acc_shortage":1189,"booking":45,"acc_booking":56789,"fulfillment":0,"acc_fulfillment":55600,"transfer_cost":0.0,"port_name":"Seattle","position":{"lat":47.608013,"lng":-122.335167},"status":"demand"},{"frame_index":992,"name":"ports_16","capacity":10000,"empty":1837,"full":860,"on_shipper":87,"on_consignee":11,"shortage":0,"acc_shortage":817,"booking":69,"acc_booking":81040,"fulfillment":69,"acc_fulfillment":80223,"transfer_cost":0.0,"port_name":"Shanghai","position":{"lat":31.224361,"lng":121.46917},"status":"surplus"},{"frame_index":992,"name":"ports_17","capacity":10000,"empty":712,"full":292,"on_shipper":35,"on_consignee":4,"shortage":0,"acc_shortage":619,"booking":26,"acc_booking":32694,"fulfillment":26,"acc_fulfillment":32075,"transfer_cost":0.0,"port_name":"Singapore","position":{"lat":1.29027,"lng":103.851959},"status":"surplus"},{"frame_index":992,"name":"ports_18","capacity":10000,"empty":539,"full":327,"on_shipper":13,"on_consignee":0,"shortage":0,"acc_shortage":1374,"booking":9,"acc_booking":12558,"fulfillment":9,"acc_fulfillment":11184,"transfer_cost":0.0,"port_name":"Sydney","position":{"lat":-33.865143,"lng":151.2099},"status":"surplus"},{"frame_index":992,"name":"ports_19","capacity":10000,"empty":965,"full":507,"on_shipper":15,"on_consignee":0,"shortage":0,"acc_shortage":0,"booking":13,"acc_booking":16620,"fulfillment":13,"acc_fulfillment":16620,"transfer_cost":0.0,"port_name":"Vancouver","position":{"lat":49.246292,"lng":-123.116226},"status":"surplus"},{"frame_index":992,"name":"ports_20","capacity":10000,"empty":1617,"full":495,"on_shipper":56,"on_consignee":0,"shortage":0,"acc_shortage":1425,"booking":45,"acc_booking":56504,"fulfillment":45,"acc_fulfillment":55079,"transfer_cost":0.0,"port_name":"Yantian","position":{"lat":26.8533,"lng":119.8575},"status":"surplus"},{"frame_index":992,"name":"ports_21","capacity":10000,"empty":0,"full":1201,"on_shipper":0,"on_consignee":0,"shortage":40,"acc_shortage":7529,"booking":40,"acc_booking":53914,"fulfillment":0,"acc_fulfillment":46385,"transfer_cost":0.0,"port_name":"Yokohama","position":{"lat":35.443707,"lng":139.638031},"status":"demand"}]