[{"frame_index":251,"name":"ports_0","capacity":10000,"empty":5944,"full":223,"on_shipper":207,"on_consignee":91,"shortage":0,"acc_shortage":0,"booking":111,"acc_booking":30404,"fulfillment":111,"acc_fulfillment":30404,"transfer_cost":704.0,"port_name":"Bremerhaven","position":{"lat":53.549999,"lng":8.583333},"status":"surplus"},{"frame_index":251,"name":"ports_1","capacity":10000,"empty":826,"full":99,"on_shipper":12,"on_consignee":0,"shortage":0,"acc_shortage":0,"booking":8,"acc_booking":2042,"fulfillment":8,"acc_fulfillment":2042,"transfer_cost":0.0,"port_name":"Durban","position":{"lat":-29.8579,"lng":31.0292},"status":"surplus"},{"frame_index":251,"name":"ports_2","capacity":10000,"empty":670,"full":196,"on_shipper":11,"on_consignee":0,"shortage":0,"acc_shortage":233,"booking":8,"acc_booking":2031,"fulfillment":8,"acc_fulfillment":1798,"transfer_cost":0.0,"port_name":"Itagual","position":{"lat":-22.85222,"lng":-43.77528},"status":"surplus"},{"frame_index":251,"name":"ports_3","capacity":10000,"empty":1799,"full":460,"on_shipper":58,"on_consignee":438,"shortage":0,"acc_shortage":0,"booking":46,"acc_booking":11553,"fulfillment":46,"acc_fulfillment":11553,"transfer_cost":472.0,"port_name":"LeHavre","position":{"lat":49.490002,"lng":0.1},"status":"surplus"},{"frame_index":251,"name":"ports_4","capacity":10000,"empty":853,"full":1124,"on_shipper":48,"on_consignee":0,"shortage":0,"acc_shortage":0,"booking":39,"acc_booking":9654,"fulfillment":39,"acc_fulfillment":9654,"transfer_cost":0.0,"port_name":"Los Angeles","position":{"lat":34.052235,"lng":-118.243683},"status":"surplus"},{"frame_index":251,"name":"ports_5","capacity":10000,"empty":1224,"full":560,"on_shipper":51,"on_consignee":0,"shortage":0,"acc_shortage":0,"booking":39,"acc_booking":9674,"fulfillment":39,"acc_fulfillment":9674,"transfer_cost":0.0,"port_name":"Manzanillo","position":{"lat":19.11695,"lng":-104.34214},"status":"surplus"},{"frame_index":251,"name":"ports_6","capacity":10000,"empty":222,"full":153,"on_shipper":18,"on_consignee":0,"shortage":0,"acc_shortage":0,"booking":12,"acc_booking":2974,"fulfillment":12,"acc_fulfillment":2974,"transfer_cost":0.0,"port_name":"Melbourne","position":{"lat":-37.840935,"lng":144.946457},"status":"surplus"},{"frame_index":251,"name":"ports_7","capacity":10000,"empty":2337,"full":92,"on_shipper":23,"on_consignee":0,"shortage":0,"acc_shortage":0,"booking":12,"acc_booking":2976,"fulfillment":12,"acc_fulfillment":2976,"transfer_cost":0.0,"port_name":"Montreal","position":{"lat":45.516136,"lng":-73.65683},"status":"surplus"},{"frame_index":251,"name":"ports_8","capacity":10000,"empty":4652,"full":286,"on_shipper":22,"on_consignee":0,"shortage":0,"acc_shortage":0,"booking":22,"acc_booking":5809,"fulfillment":22,"acc_fulfillment":5809,"transfer_cost":0.0,"port_name":"New York","position":{"lat":40.73061,"lng":-73.935242},"status":"surplus"},{"frame_index":251,"name":"ports_9","capacity":10000,"empty":1405,"full":522,"on_shipper":24,"on_consignee":0,"shortage":0,"acc_shortage":0,"booking":24,"acc_booking":5796,"fulfillment":24,"acc_fulfillment":5796,"transfer_cost":0.0,"port_name":"Oakland","position":{"lat":37.804363,"lng":-122.271111},"status":"surplus"},{"frame_index":251,"name":"ports_10","capacity":10000,"empty":1394,"full":27,"on_shipper":14,"on_consignee":0,"shortage":0,"acc_shortage":0,"booking":10,"acc_booking":2960,"fulfillment":10,"acc_fulfillment":2960,"transfer_cost":0.0,"port_name":"Prince Rupert","position":{"lat":54.312519,"lng":-130.305405},"status":"surplus"},{"frame_index":251,"name":"ports_11","capacity":10000,"empty":2184,"full":298,"on_shipper":65,"on_consignee":0,"shortage":0,"acc_shortage":0,"booking":49,"acc_booking":11513,"fulfillment":49,"acc_fulfillment":11513,"transfer_cost":0.0,"port_name":"Pusan","position":{"lat":35.166668,"lng":129.066666},"status":"surplus"},{"frame_index":251,"name":"ports_12","capacity":10000,"empty":1457,"full":783,"on_shipper":94,"on_consignee":160,"shortage":0,"acc_shortage":0,"booking":71,"acc_booking":15372,"fulfillment":71,"acc_fulfillment":15372,"transfer_cost":0.0,"port_name":"Qingdao","position":{"lat":36.066898,"lng":120.382698},"status":"surplus"},{"frame_index":251,"name":"ports_13","capacity":10000,"empty":585,"full":71,"on_shipper":10,"on_consignee":0,"shortage":0,"acc_shortage":55,"booking":8,"acc_booking":2028,"fulfillment":8,"acc_fulfillment":1973,"transfer_cost":0.0,"port_name":"San Antonio","position":{"lat":29.424349,"lng":-98.491142},"status":"surplus"},{"frame_index":251,"name":"ports_14","capacity":10000,"empty":1098,"full":43,"on_shipper":13,"on_consignee":0,"shortage":0,"acc_shortage":697,"booking":9,"acc_booking":2051,"fulfillment":9,"acc_fulfillment":1354,"transfer_cost":0.0,"port_name":"Santos","position":{"lat":-23.96083,"lng":-46.33361},"status":"surplus"},{"frame_index":251,"name":"ports_15","capacity":10000,"empty":4907,"full":118,"on_shipper":82,"on_consignee":238,"shortage":0,"acc_shortage":0,"booking":56,"acc_booking":13447,"fulfillment":56,"acc_fulfillment":13447,"transfer_cost":1135.0,"port_name":"Seattle","position":{"lat":47.608013,"lng":-122.335167},"status":"surplus"},{"frame_index":251,"name":"ports_16","capacity":10000,"empty":3079,"full":1154,"on_shipper":98,"on_consignee":105,"shortage":0,"acc_shortage":0,"booking":73,"acc_booking":19123,"fulfillment":73,"acc_fulfillment":19123,"transfer_cost":4.0,"port_name":"Shanghai","position":{"lat":31.224361,"lng":121.46917},"status":"surplus"},{"frame_index":251,"name":"ports_17","capacity":10000,"empty":786,"full":177,"on_shipper":48,"on_consignee":335,"shortage":0,"acc_shortage":40,"booking":33,"acc_booking":7751,"fulfillment":33,"acc_fulfillment":7711,"transfer_cost":24.0,"port_name":"Singapore","position":{"lat":1.29027,"lng":103.851959},"status":"surplus"},{"frame_index":251,"name":"ports_18","capacity":10000,"empty":345,"full":149,"on_shipper":17,"on_consignee":0,"shortage":0,"acc_shortage":5,"booking":11,"acc_booking":2947,"fulfillment":11,"acc_fulfillment":2942,"transfer_cost":0.0,"port_name":"Sydney","position":{"lat":-33.865143,"lng":151.2099},"status":"surplus"},{"frame_index":251,"name":"ports_19","capacity":10000,"empty":816,"full":231,"on_shipper":21,"on_consignee":295,"shortage":0,"acc_shortage":0,"booking":15,"acc_booking":3949,"fulfillment":15,"acc_fulfillment":3949,"transfer_cost":0.0,"port_name":"Vancouver","position":{"lat":49.246292,"lng":-123.116226},"status":"surplus"},{"frame_index":251,"name":"ports_20","capacity":10000,"empty":2157,"full":779,"on_shipper":83,"on_consignee":0,"shortage":0,"acc_shortage":0,"booking":59,"acc_booking":13267,"fulfillment":59,"acc_fulfillment":13267,"transfer_cost":0.0,"port_name":"Yantian","position":{"lat":26.8533,"lng":119.8575},"status":"surplus"},{"frame_index":251,"name":"ports_21","capacity":10000,"empty":1940,"full":195,"on_shipper":63,"on_consignee":0,"shortage":0,"acc_shortage":492,"booking":51,"acc_booking":12560,"fulfillment":51,"acc_fulfillment":12068,"transfer_cost":0.0,"port_name":"Yokohama","position":{"lat":35.443707,"lng":139.638031},"status":"surplus"}]