[{"frame_index":100,"name":"ports_0","capacity":10000,"empty":5210,"full":2117,"on_shipper":134,"on_consignee":348,"shortage":0,"acc_shortage":0,"booking":112,"acc_booking":13488,"fulfillment":112,"acc_fulfillment":13488,"transfer_cost":0.0,"port_name":"Bremerhaven","position":{"lat":53.549999,"lng":8.583333},"status":"surplus"},{"frame_index":100,"name":"ports_1","capacity":10000,"empty":601,"full":98,"on_shipper":8,"on_consignee":0,"shortage":0,"acc_shortage":0,"booking":7,"acc_booking":904,"fulfillment":7,"acc_fulfillment":904,"transfer_cost":0.0,"port_name":"Durban","position":{"lat":-29.8579,"lng":31.0292},"status":"surplus"},{"frame_index":100,"name":"ports_2","capacity":10000,"empty":187,"full":523,"on_shipper":10,"on_consignee":0,"shortage":0,"acc_shortage":0,"booking":7,"acc_booking":893,"fulfillment":7,"acc_fulfillment":893,"transfer_cost":0.0,"port_name":"Itagual","position":{"lat":-22.85222,"lng":-43.77528},"status":"surplus"},{"frame_index":100,"name":"ports_3","capacity":10000,"empty":1692,"full":1107,"on_shipper":60,"on_consignee":0,"shortage":0,"acc_shortage":0,"booking":41,"acc_booking":5141,"fulfillment":41,"acc_fulfillment":5141,"transfer_cost":0.0,"port_name":"LeHavre","position":{"lat":49.490002,"lng":0.1},"status":"surplus"},{"frame_index":100,"name":"ports_4","capacity":10000,"empty":1762,"full":891,"on_shipper":50,"on_consignee":0,"shortage":0,"acc_shortage":0,"booking":34,"acc_booking":4288,"fulfillment":34,"acc_fulfillment":4288,"transfer_cost":0.0,"port_name":"Los Angeles","position":{"lat":34.052235,"lng":-118.243683},"status":"surplus"},{"frame_index":100,"name":"ports_5","capacity":10000,"empty":1046,"full":191,"on_shipper":42,"on_consignee":0,"shortage":0,"acc_shortage":0,"booking":30,"acc_booking":4246,"fulfillment":30,"acc_fulfillment":4246,"transfer_cost":0.0,"port_name":"Manzanillo","position":{"lat":19.11695,"lng":-104.34214},"status":"surplus"},{"frame_index":100,"name":"ports_6","capacity":10000,"empty":354,"full":354,"on_shipper":15,"on_consignee":0,"shortage":0,"acc_shortage":0,"booking":11,"acc_booking":1322,"fulfillment":11,"acc_fulfillment":1322,"transfer_cost":0.0,"port_name":"Melbourne","position":{"lat":-37.840935,"lng":144.946457},"status":"surplus"},{"frame_index":100,"name":"ports_7","capacity":10000,"empty":1543,"full":176,"on_shipper":18,"on_consignee":0,"shortage":0,"acc_shortage":0,"booking":11,"acc_booking":1316,"fulfillment":11,"acc_fulfillment":1316,"transfer_cost":0.0,"port_name":"Montreal","position":{"lat":45.516136,"lng":-73.65683},"status":"surplus"},{"frame_index":100,"name":"ports_8","capacity":10000,"empty":1374,"full":0,"on_shipper":35,"on_consignee":3745,"shortage":0,"acc_shortage":0,"booking":22,"acc_booking":2587,"fulfillment":22,"acc_fulfillment":2587,"transfer_cost":0.0,"port_name":"New York","position":{"lat":40.73061,"lng":-73.935242},"status":"surplus"},{"frame_index":100,"name":"ports_9","capacity":10000,"empty":1582,"full":86,"on_shipper":31,"on_consignee":0,"shortage":0,"acc_shortage":0,"booking":21,"acc_booking":2561,"fulfillment":21,"acc_fulfillment":2561,"transfer_cost":0.0,"port_name":"Oakland","position":{"lat":37.804363,"lng":-122.271111},"status":"surplus"},{"frame_index":100,"name":"ports_10","capacity":10000,"empty":526,"full":156,"on_shipper":17,"on_consignee":0,"shortage":0,"acc_shortage":0,"booking":11,"acc_booking":1315,"fulfillment":11,"acc_fulfillment":1315,"transfer_cost":0.0,"port_name":"Prince Rupert","position":{"lat":54.312519,"lng":-130.305405},"status":"surplus"},{"frame_index":100,"name":"ports_11","capacity":10000,"empty":1188,"full":1440,"on_shipper":47,"on_consignee":0,"shortage":0,"acc_shortage":0,"booking":39,"acc_booking":5126,"fulfillment":39,"acc_fulfillment":5126,"transfer_cost":0.0,"port_name":"Pusan","position":{"lat":35.166668,"lng":129.066666},"status":"surplus"},{"frame_index":100,"name":"ports_12","capacity":10000,"empty":2037,"full":2815,"on_shipper":65,"on_consignee":0,"shortage":0,"acc_shortage":0,"booking":51,"acc_booking":6825,"fulfillment":51,"acc_fulfillment":6825,"transfer_cost":0.0,"port_name":"Qingdao","position":{"lat":36.066898,"lng":120.382698},"status":"surplus"},{"frame_index":100,"name":"ports_13","capacity":10000,"empty":249,"full":204,"on_shipper":8,"on_consignee":0,"shortage":0,"acc_shortage":0,"booking":6,"acc_booking":900,"fulfillment":6,"acc_fulfillment":900,"transfer_cost":0.0,"port_name":"San Antonio","position":{"lat":29.424349,"lng":-98.491142},"status":"surplus"},{"frame_index":100,"name":"ports_14","capacity":10000,"empty":182,"full":23,"on_shipper":11,"on_consignee":0,"shortage":0,"acc_shortage":0,"booking":8,"acc_booking":904,"fulfillment":8,"acc_fulfillment":904,"transfer_cost":0.0,"port_name":"Santos","position":{"lat":-23.96083,"lng":-46.33361},"status":"surplus"},{"frame_index":100,"name":"ports_15","capacity":10000,"empty":1829,"full":2769,"on_shipper":60,"on_consignee":0,"shortage":0,"acc_shortage":0,"booking":47,"acc_booking":5993,"fulfillment":47,"acc_fulfillment":5993,"transfer_cost":0.0,"port_name":"Seattle","position":{"lat":47.608013,"lng":-122.335167},"status":"surplus"},{"frame_index":100,"name":"ports_16","capacity":10000,"empty":2352,"full":594,"on_shipper":82,"on_consignee":397,"shortage":0,"acc_shortage":0,"booking":67,"acc_booking":8567,"fulfillment":67,"acc_fulfillment":8567,"transfer_cost":0.0,"port_name":"Shanghai","position":{"lat":31.224361,"lng":121.46917},"status":"surplus"},{"frame_index":100,"name":"ports_17","capacity":10000,"empty":1823,"full":245,"on_shipper":36,"on_consignee":56,"shortage":0,"acc_shortage":0,"booking":28,"acc_booking":3445,"fulfillment":28,"acc_fulfillment":3445,"transfer_cost":0.0,"port_name":"Singapore","position":{"lat":1.29027,"lng":103.851959},"status":"surplus"},{"frame_index":100,"name":"ports_18","capacity":10000,"empty":344,"full":432,"on_shipper":14,"on_consignee":0,"shortage":0,"acc_shortage":0,"booking":11,"acc_booking":1300,"fulfillment":11,"acc_fulfillment":1300,"transfer_cost":0.0,"port_name":"Sydney","position":{"lat":-33.865143,"lng":151.2099},"status":"surplus"},{"frame_index":100,"name":"ports_19","capacity":10000,"empty":761,"full":289,"on_shipper":20,"on_consignee":0,"shortage":0,"acc_shortage":0,"booking":14,"acc_booking":1756,"fulfillment":14,"acc_fulfillment":1756,"transfer_cost":0.0,"port_name":"Vancouver","position":{"lat":49.246292,"lng":-123.116226},"status":"surplus"},{"frame_index":100,"name":"ports_20","capacity":10000,"empty":1860,"full":1933,"on_shipper":63,"on_consignee":0,"shortage":0,"acc_shortage":0,"booking":50,"acc_booking":5858,"fulfillment":50,"acc_fulfillment":5858,"transfer_cost":0.0,"port_name":"Yantian","position":{"lat":26.8533,"lng":119.8575},"status":"surplus"},{"frame_index":100,"name":"ports_21","capacity":10000,"empty":2565,"full":1159,"on_shipper":53,"on_consignee":0,"shortage":0,"acc_shortage":0,"booking":43,"acc_booking":5717,"fulfillment":43,"acc_fulfillment":5717,"transfer_cost":0.0,"port_name":"Yokohama","position":{"lat":35.443707,"lng":139.638031},"status":"surplus"}]