[{"frame_index":98,"name":"ports_0","capacity":10000,"empty":4870,"full":2291,"on_shipper":70,"on_consignee":0,"shortage":0,"acc_shortage":0,"booking":70,"acc_booking":13296,"fulfillment":70,"acc_fulfillment":13296,"transfer_cost":0.0,"port_name":"Bremerhaven","position":{"lat":53.549999,"lng":8.583333},"status":"surplus"},{"frame_index":98,"name":"ports_1","capacity":10000,"empty":613,"full":85,"on_shipper":9,"on_consignee":0,"shortage":0,"acc_shortage":0,"booking":5,"acc_booking":892,"fulfillment":5,"acc_fulfillment":892,"transfer_cost":0.0,"port_name":"Durban","position":{"lat":-29.8579,"lng":31.0292},"status":"surplus"},{"frame_index":98,"name":"ports_2","capacity":10000,"empty":199,"full":513,"on_shipper":8,"on_consignee":0,"shortage":0,"acc_shortage":0,"booking":4,"acc_booking":881,"fulfillment":4,"acc_fulfillment":881,"transfer_cost":0.0,"port_name":"Itagual","position":{"lat":-22.85222,"lng":-43.77528},"status":"surplus"},{"frame_index":98,"name":"ports_3","capacity":10000,"empty":1761,"full":1054,"on_shipper":44,"on_consignee":0,"shortage":0,"acc_shortage":0,"booking":24,"acc_booking":5072,"fulfillment":24,"acc_fulfillment":5072,"transfer_cost":0.0,"port_name":"LeHavre","position":{"lat":49.490002,"lng":0.1},"status":"surplus"},{"frame_index":98,"name":"ports_4","capacity":10000,"empty":1820,"full":853,"on_shipper":30,"on_consignee":0,"shortage":0,"acc_shortage":0,"booking":20,"acc_booking":4230,"fulfillment":20,"acc_fulfillment":4230,"transfer_cost":0.0,"port_name":"Los Angeles","position":{"lat":34.052235,"lng":-118.243683},"status":"surplus"},{"frame_index":98,"name":"ports_5","capacity":10000,"empty":1097,"full":151,"on_shipper":31,"on_consignee":0,"shortage":0,"acc_shortage":0,"booking":18,"acc_booking":4195,"fulfillment":18,"acc_fulfillment":4195,"transfer_cost":0.0,"port_name":"Manzanillo","position":{"lat":19.11695,"lng":-104.34214},"status":"surplus"},{"frame_index":98,"name":"ports_6","capacity":10000,"empty":372,"full":341,"on_shipper":10,"on_consignee":0,"shortage":0,"acc_shortage":0,"booking":7,"acc_booking":1304,"fulfillment":7,"acc_fulfillment":1304,"transfer_cost":0.0,"port_name":"Melbourne","position":{"lat":-37.840935,"lng":144.946457},"status":"surplus"},{"frame_index":98,"name":"ports_7","capacity":10000,"empty":1561,"full":165,"on_shipper":11,"on_consignee":0,"shortage":0,"acc_shortage":0,"booking":6,"acc_booking":1298,"fulfillment":6,"acc_fulfillment":1298,"transfer_cost":0.0,"port_name":"Montreal","position":{"lat":45.516136,"lng":-73.65683},"status":"surplus"},{"frame_index":98,"name":"ports_8","capacity":10000,"empty":1409,"full":1448,"on_shipper":13,"on_consignee":0,"shortage":0,"acc_shortage":0,"booking":13,"acc_booking":2552,"fulfillment":13,"acc_fulfillment":2552,"transfer_cost":0.0,"port_name":"New York","position":{"lat":40.73061,"lng":-73.935242},"status":"surplus"},{"frame_index":98,"name":"ports_9","capacity":10000,"empty":1619,"full":49,"on_shipper":31,"on_consignee":0,"shortage":0,"acc_shortage":0,"booking":13,"acc_booking":2524,"fulfillment":13,"acc_fulfillment":2524,"transfer_cost":0.0,"port_name":"Oakland","position":{"lat":37.804363,"lng":-122.271111},"status":"surplus"},{"frame_index":98,"name":"ports_10","capacity":10000,"empty":545,"full":148,"on_shipper":6,"on_consignee":0,"shortage":0,"acc_shortage":0,"booking":6,"acc_booking":1296,"fulfillment":6,"acc_fulfillment":1296,"transfer_cost":0.0,"port_name":"Prince Rupert","position":{"lat":54.312519,"lng":-130.305405},"status":"surplus"},{"frame_index":98,"name":"ports_11","capacity":10000,"empty":1254,"full":1370,"on_shipper":51,"on_consignee":0,"shortage":0,"acc_shortage":0,"booking":25,"acc_booking":5060,"fulfillment":25,"acc_fulfillment":5060,"transfer_cost":0.0,"port_name":"Pusan","position":{"lat":35.166668,"lng":129.066666},"status":"surplus"},{"frame_index":98,"name":"ports_12","capacity":10000,"empty":2127,"full":2738,"on_shipper":52,"on_consignee":0,"shortage":0,"acc_shortage":0,"booking":29,"acc_booking":6735,"fulfillment":29,"acc_fulfillment":6735,"transfer_cost":0.0,"port_name":"Qingdao","position":{"lat":36.066898,"lng":120.382698},"status":"surplus"},{"frame_index":98,"name":"ports_13","capacity":10000,"empty":260,"full":192,"on_shipper":9,"on_consignee":0,"shortage":0,"acc_shortage":0,"booking":4,"acc_booking":889,"fulfillment":4,"acc_fulfillment":889,"transfer_cost":0.0,"port_name":"San Antonio","position":{"lat":29.424349,"lng":-98.491142},"status":"surplus"},{"frame_index":98,"name":"ports_14","capacity":10000,"empty":195,"full":10,"on_shipper":11,"on_consignee":0,"shortage":0,"acc_shortage":0,"booking":5,"acc_booking":891,"fulfillment":5,"acc_fulfillment":891,"transfer_cost":0.0,"port_name":"Santos","position":{"lat":-23.96083,"lng":-46.33361},"status":"surplus"},{"frame_index":98,"name":"ports_15","capacity":10000,"empty":1907,"full":2700,"on_shipper":51,"on_consignee":0,"shortage":0,"acc_shortage":0,"booking":29,"acc_booking":5915,"fulfillment":29,"acc_fulfillment":5915,"transfer_cost":0.0,"port_name":"Seattle","position":{"lat":47.608013,"lng":-122.335167},"status":"surplus"},{"frame_index":98,"name":"ports_16","capacity":10000,"empty":2405,"full":581,"on_shipper":78,"on_consignee":17,"shortage":0,"acc_shortage":0,"booking":40,"acc_booking":8451,"fulfillment":40,"acc_fulfillment":8451,"transfer_cost":0.0,"port_name":"Shanghai","position":{"lat":31.224361,"lng":121.46917},"status":"surplus"},{"frame_index":98,"name":"ports_17","capacity":10000,"empty":1791,"full":296,"on_shipper":31,"on_consignee":79,"shortage":0,"acc_shortage":0,"booking":16,"acc_booking":3398,"fulfillment":16,"acc_fulfillment":3398,"transfer_cost":0.0,"port_name":"Singapore","position":{"lat":1.29027,"lng":103.851959},"status":"surplus"},{"frame_index":98,"name":"ports_18","capacity":10000,"empty":363,"full":417,"on_shipper":10,"on_consignee":0,"shortage":0,"acc_shortage":0,"booking":6,"acc_booking":1281,"fulfillment":6,"acc_fulfillment":1281,"transfer_cost":0.0,"port_name":"Sydney","position":{"lat":-33.865143,"lng":151.2099},"status":"surplus"},{"frame_index":98,"name":"ports_19","capacity":10000,"empty":785,"full":274,"on_shipper":11,"on_consignee":0,"shortage":0,"acc_shortage":0,"booking":8,"acc_booking":1732,"fulfillment":8,"acc_fulfillment":1732,"transfer_cost":0.0,"port_name":"Vancouver","position":{"lat":49.246292,"lng":-123.116226},"status":"surplus"},{"frame_index":98,"name":"ports_20","capacity":10000,"empty":1910,"full":1863,"on_shipper":53,"on_consignee":30,"shortage":0,"acc_shortage":0,"booking":26,"acc_booking":5778,"fulfillment":26,"acc_fulfillment":5778,"transfer_cost":0.0,"port_name":"Yantian","position":{"lat":26.8533,"lng":119.8575},"status":"surplus"},{"frame_index":98,"name":"ports_21","capacity":10000,"empty":2632,"full":1097,"on_shipper":48,"on_consignee":0,"shortage":0,"acc_shortage":0,"booking":21,"acc_booking":5650,"fulfillment":21,"acc_fulfillment":5650,"transfer_cost":0.0,"port_name":"Yokohama","position":{"lat":35.443707,"lng":139.638031},"status":"surplus"}]