[{"frame_index":178,"name":"ports_0","capacity":10000,"empty":5326,"full":4713,"on_shipper":200,"on_consignee":0,"shortage":0,"acc_shortage":0,"booking":137,"acc_booking":23142,"fulfillment":137,"acc_fulfillment":23142,"transfer_cost":0.0,"port_name":"Bremerhaven","position":{"lat":53.549999,"lng":8.583333},"status":"surplus"},{"frame_index":178,"name":"ports_1","capacity":10000,"empty":537,"full":368,"on_shipper":12,"on_consignee":0,"shortage":0,"acc_shortage":0,"booking":10,"acc_booking":1552,"fulfillment":10,"acc_fulfillment":1552,"transfer_cost":0.0,"port_name":"Durban","position":{"lat":-29.8579,"lng":31.0292},"status":"surplus"},{"frame_index":178,"name":"ports_2","capacity":10000,"empty":361,"full":345,"on_shipper":14,"on_consignee":0,"shortage":0,"acc_shortage":233,"booking":10,"acc_booking":1538,"fulfillment":10,"acc_fulfillment":1305,"transfer_cost":0.0,"port_name":"Itagual","position":{"lat":-22.85222,"lng":-43.77528},"status":"surplus"},{"frame_index":178,"name":"ports_3","capacity":10000,"empty":3472,"full":745,"on_shipper":64,"on_consignee":0,"shortage":0,"acc_shortage":0,"booking":53,"acc_booking":8796,"fulfillment":53,"acc_fulfillment":8796,"transfer_cost":0.0,"port_name":"LeHavre","position":{"lat":49.490002,"lng":0.1},"status":"surplus"},{"frame_index":178,"name":"ports_4","capacity":10000,"empty":2962,"full":225,"on_shipper":54,"on_consignee":170,"shortage":0,"acc_shortage":0,"booking":46,"acc_booking":7355,"fulfillment":46,"acc_fulfillment":7355,"transfer_cost":0.0,"port_name":"Los Angeles","position":{"lat":34.052235,"lng":-118.243683},"status":"surplus"},{"frame_index":178,"name":"ports_5","capacity":10000,"empty":1083,"full":950,"on_shipper":55,"on_consignee":0,"shortage":0,"acc_shortage":0,"booking":46,"acc_booking":7343,"fulfillment":46,"acc_fulfillment":7343,"transfer_cost":0.0,"port_name":"Manzanillo","position":{"lat":19.11695,"lng":-104.34214},"status":"surplus"},{"frame_index":178,"name":"ports_6","capacity":10000,"empty":176,"full":154,"on_shipper":17,"on_consignee":210,"shortage":0,"acc_shortage":0,"booking":14,"acc_booking":2263,"fulfillment":14,"acc_fulfillment":2263,"transfer_cost":0.0,"port_name":"Melbourne","position":{"lat":-37.840935,"lng":144.946457},"status":"surplus"},{"frame_index":178,"name":"ports_7","capacity":10000,"empty":2068,"full":0,"on_shipper":21,"on_consignee":541,"shortage":0,"acc_shortage":0,"booking":14,"acc_booking":2260,"fulfillment":14,"acc_fulfillment":2260,"transfer_cost":5.0,"port_name":"Montreal","position":{"lat":45.516136,"lng":-73.65683},"status":"surplus"},{"frame_index":178,"name":"ports_8","capacity":10000,"empty":3887,"full":526,"on_shipper":36,"on_consignee":0,"shortage":0,"acc_shortage":0,"booking":27,"acc_booking":4422,"fulfillment":27,"acc_fulfillment":4422,"transfer_cost":0.0,"port_name":"New York","position":{"lat":40.73061,"lng":-73.935242},"status":"surplus"},{"frame_index":178,"name":"ports_9","capacity":10000,"empty":825,"full":1561,"on_shipper":30,"on_consignee":0,"shortage":0,"acc_shortage":0,"booking":30,"acc_booking":4413,"fulfillment":30,"acc_fulfillment":4413,"transfer_cost":0.0,"port_name":"Oakland","position":{"lat":37.804363,"lng":-122.271111},"status":"surplus"},{"frame_index":178,"name":"ports_10","capacity":10000,"empty":932,"full":146,"on_shipper":15,"on_consignee":0,"shortage":0,"acc_shortage":0,"booking":12,"acc_booking":2252,"fulfillment":12,"acc_fulfillment":2252,"transfer_cost":0.0,"port_name":"Prince Rupert","position":{"lat":54.312519,"lng":-130.305405},"status":"surplus"},{"frame_index":178,"name":"ports_11","capacity":10000,"empty":2124,"full":229,"on_shipper":66,"on_consignee":0,"shortage":0,"acc_shortage":0,"booking":56,"acc_booking":8770,"fulfillment":56,"acc_fulfillment":8770,"transfer_cost":0.0,"port_name":"Pusan","position":{"lat":35.166668,"lng":129.066666},"status":"surplus"},{"frame_index":178,"name":"ports_12","capacity":10000,"empty":1891,"full":1935,"on_shipper":89,"on_consignee":0,"shortage":0,"acc_shortage":0,"booking":74,"acc_booking":11704,"fulfillment":74,"acc_fulfillment":11704,"transfer_cost":0.0,"port_name":"Qingdao","position":{"lat":36.066898,"lng":120.382698},"status":"surplus"},{"frame_index":178,"name":"ports_13","capacity":10000,"empty":443,"full":16,"on_shipper":12,"on_consignee":0,"shortage":0,"acc_shortage":55,"booking":9,"acc_booking":1539,"fulfillment":9,"acc_fulfillment":1484,"transfer_cost":0.0,"port_name":"San Antonio","position":{"lat":29.424349,"lng":-98.491142},"status":"surplus"},{"frame_index":178,"name":"ports_14","capacity":10000,"empty":0,"full":224,"on_shipper":0,"on_consignee":0,"shortage":10,"acc_shortage":380,"booking":10,"acc_booking":1556,"fulfillment":0,"acc_fulfillment":1176,"transfer_cost":0.0,"port_name":"Santos","position":{"lat":-23.96083,"lng":-46.33361},"status":"balance"},{"frame_index":178,"name":"ports_15","capacity":10000,"empty":2507,"full":1432,"on_shipper":74,"on_consignee":0,"shortage":0,"acc_shortage":0,"booking":66,"acc_booking":10240,"fulfillment":66,"acc_fulfillment":10240,"transfer_cost":0.0,"port_name":"Seattle","position":{"lat":47.608013,"lng":-122.335167},"status":"surplus"},{"frame_index":178,"name":"ports_16","capacity":10000,"empty":2437,"full":2183,"on_shipper":108,"on_consignee":0,"shortage":0,"acc_shortage":0,"booking":88,"acc_booking":14614,"fulfillment":88,"acc_fulfillment":14614,"transfer_cost":0.0,"port_name":"Shanghai","position":{"lat":31.224361,"lng":121.46917},"status":"surplus"},{"frame_index":178,"name":"ports_17","capacity":10000,"empty":360,"full":550,"on_shipper":46,"on_consignee":5,"shortage":0,"acc_shortage":0,"booking":36,"acc_booking":5905,"fulfillment":36,"acc_fulfillment":5905,"transfer_cost":44.0,"port_name":"Singapore","position":{"lat":1.29027,"lng":103.851959},"status":"surplus"},{"frame_index":178,"name":"ports_18","capacity":10000,"empty":318,"full":322,"on_shipper":20,"on_consignee":0,"shortage":0,"acc_shortage":0,"booking":15,"acc_booking":2239,"fulfillment":15,"acc_fulfillment":2239,"transfer_cost":0.0,"port_name":"Sydney","position":{"lat":-33.865143,"lng":151.2099},"status":"surplus"},{"frame_index":178,"name":"ports_19","capacity":10000,"empty":747,"full":196,"on_shipper":22,"on_consignee":0,"shortage":0,"acc_shortage":0,"booking":18,"acc_booking":2992,"fulfillment":18,"acc_fulfillment":2992,"transfer_cost":0.0,"port_name":"Vancouver","position":{"lat":49.246292,"lng":-123.116226},"status":"surplus"},{"frame_index":178,"name":"ports_20","capacity":10000,"empty":1167,"full":1627,"on_shipper":77,"on_consignee":0,"shortage":0,"acc_shortage":0,"booking":58,"acc_booking":10057,"fulfillment":58,"acc_fulfillment":10057,"transfer_cost":0.0,"port_name":"Yantian","position":{"lat":26.8533,"lng":119.8575},"status":"surplus"},{"frame_index":178,"name":"ports_21","capacity":10000,"empty":963,"full":2648,"on_shipper":65,"on_consignee":0,"shortage":0,"acc_shortage":0,"booking":61,"acc_booking":9733,"fulfillment":61,"acc_fulfillment":9733,"transfer_cost":0.0,"port_name":"Yokohama","position":{"lat":35.443707,"lng":139.638031},"status":"surplus"}]