[{"frame_index":1015,"name":"ports_0","capacity":10000,"empty":3288,"full":929,"on_shipper":46,"on_consignee":426,"shortage":0,"acc_shortage":861,"booking":43,"acc_booking":129971,"fulfillment":43,"acc_fulfillment":129110,"transfer_cost":0.0,"port_name":"Bremerhaven","position":{"lat":53.549999,"lng":8.583333},"status":"surplus"},{"frame_index":1015,"name":"ports_1","capacity":10000,"empty":308,"full":123,"on_shipper":5,"on_consignee":0,"shortage":0,"acc_shortage":113,"booking":3,"acc_booking":8644,"fulfillment":3,"acc_fulfillment":8531,"transfer_cost":0.0,"port_name":"Durban","position":{"lat":-29.8579,"lng":31.0292},"status":"surplus"},{"frame_index":1015,"name":"ports_2","capacity":10000,"empty":301,"full":331,"on_shipper":4,"on_consignee":0,"shortage":0,"acc_shortage":298,"booking":3,"acc_booking":8611,"fulfillment":3,"acc_fulfillment":8313,"transfer_cost":0.0,"port_name":"Itagual","position":{"lat":-22.85222,"lng":-43.77528},"status":"surplus"},{"frame_index":1015,"name":"ports_3","capacity":10000,"empty":6063,"full":307,"on_shipper":19,"on_consignee":0,"shortage":0,"acc_shortage":0,"booking":17,"acc_booking":49201,"fulfillment":17,"acc_fulfillment":49201,"transfer_cost":0.0,"port_name":"LeHavre","position":{"lat":49.490002,"lng":0.1},"status":"surplus"},{"frame_index":1015,"name":"ports_4","capacity":10000,"empty":2538,"full":192,"on_shipper":19,"on_consignee":0,"shortage":0,"acc_shortage":290,"booking":14,"acc_booking":41205,"fulfillment":14,"acc_fulfillment":40915,"transfer_cost":0.0,"port_name":"Los Angeles","position":{"lat":34.052235,"lng":-118.243683},"status":"surplus"},{"frame_index":1015,"name":"ports_5","capacity":10000,"empty":1153,"full":58,"on_shipper":19,"on_consignee":0,"shortage":0,"acc_shortage":194,"booking":16,"acc_booking":41225,"fulfillment":16,"acc_fulfillment":41031,"transfer_cost":0.0,"port_name":"Manzanillo","position":{"lat":19.11695,"lng":-104.34214},"status":"surplus"},{"frame_index":1015,"name":"ports_6","capacity":10000,"empty":224,"full":65,"on_shipper":7,"on_consignee":194,"shortage":0,"acc_shortage":2108,"booking":5,"acc_booking":12688,"fulfillment":5,"acc_fulfillment":10580,"transfer_cost":29.0,"port_name":"Melbourne","position":{"lat":-37.840935,"lng":144.946457},"status":"surplus"},{"frame_index":1015,"name":"ports_7","capacity":10000,"empty":1436,"full":82,"on_shipper":5,"on_consignee":0,"shortage":0,"acc_shortage":0,"booking":5,"acc_booking":12695,"fulfillment":5,"acc_fulfillment":12695,"transfer_cost":0.0,"port_name":"Montreal","position":{"lat":45.516136,"lng":-73.65683},"status":"surplus"},{"frame_index":1015,"name":"ports_8","capacity":10000,"empty":3355,"full":133,"on_shipper":9,"on_consignee":0,"shortage":0,"acc_shortage":136,"booking":9,"acc_booking":24804,"fulfillment":9,"acc_fulfillment":24668,"transfer_cost":0.0,"port_name":"New York","position":{"lat":40.73061,"lng":-73.935242},"status":"surplus"},{"frame_index":1015,"name":"ports_9","capacity":10000,"empty":1223,"full":122,"on_shipper":11,"on_consignee":0,"shortage":0,"acc_shortage":45,"booking":9,"acc_booking":24844,"fulfillment":9,"acc_fulfillment":24799,"transfer_cost":0.0,"port_name":"Oakland","position":{"lat":37.804363,"lng":-122.271111},"status":"surplus"},{"frame_index":1015,"name":"ports_10","capacity":10000,"empty":846,"full":319,"on_shipper":6,"on_consignee":0,"shortage":0,"acc_shortage":314,"booking":4,"acc_booking":12700,"fulfillment":4,"acc_fulfillment":12386,"transfer_cost":0.0,"port_name":"Prince Rupert","position":{"lat":54.312519,"lng":-130.305405},"status":"surplus"},{"frame_index":1015,"name":"ports_11","capacity":10000,"empty":2927,"full":849,"on_shipper":22,"on_consignee":0,"shortage":0,"acc_shortage":204,"booking":17,"acc_booking":49149,"fulfillment":17,"acc_fulfillment":48945,"transfer_cost":0.0,"port_name":"Pusan","position":{"lat":35.166668,"lng":129.066666},"status":"surplus"},{"frame_index":1015,"name":"ports_12","capacity":10000,"empty":2676,"full":1928,"on_shipper":30,"on_consignee":0,"shortage":0,"acc_shortage":0,"booking":22,"acc_booking":65719,"fulfillment":22,"acc_fulfillment":65719,"transfer_cost":0.0,"port_name":"Qingdao","position":{"lat":36.066898,"lng":120.382698},"status":"surplus"},{"frame_index":1015,"name":"ports_13","capacity":10000,"empty":316,"full":44,"on_shipper":4,"on_consignee":0,"shortage":0,"acc_shortage":459,"booking":3,"acc_booking":8616,"fulfillment":3,"acc_fulfillment":8157,"transfer_cost":0.0,"port_name":"San Antonio","position":{"lat":29.424349,"lng":-98.491142},"status":"surplus"},{"frame_index":1015,"name":"ports_14","capacity":10000,"empty":78,"full":164,"on_shipper":5,"on_consignee":0,"shortage":0,"acc_shortage":876,"booking":4,"acc_booking":8664,"fulfillment":4,"acc_fulfillment":7788,"transfer_cost":0.0,"port_name":"Santos","position":{"lat":-23.96083,"lng":-46.33361},"status":"surplus"},{"frame_index":1015,"name":"ports_15","capacity":10000,"empty":2120,"full":645,"on_shipper":27,"on_consignee":0,"shortage":0,"acc_shortage":1489,"booking":20,"acc_booking":57384,"fulfillment":20,"acc_fulfillment":55895,"transfer_cost":0.0,"port_name":"Seattle","position":{"lat":47.608013,"lng":-122.335167},"status":"surplus"},{"frame_index":1015,"name":"ports_16","capacity":10000,"empty":3282,"full":775,"on_shipper":32,"on_consignee":0,"shortage":0,"acc_shortage":817,"booking":28,"acc_booking":81875,"fulfillment":28,"acc_fulfillment":81058,"transfer_cost":0.0,"port_name":"Shanghai","position":{"lat":31.224361,"lng":121.46917},"status":"surplus"},{"frame_index":1015,"name":"ports_17","capacity":10000,"empty":907,"full":574,"on_shipper":16,"on_consignee":0,"shortage":0,"acc_shortage":619,"booking":12,"acc_booking":33045,"fulfillment":12,"acc_fulfillment":32426,"transfer_cost":0.0,"port_name":"Singapore","position":{"lat":1.29027,"lng":103.851959},"status":"surplus"},{"frame_index":1015,"name":"ports_18","capacity":10000,"empty":399,"full":474,"on_shipper":6,"on_consignee":0,"shortage":0,"acc_shortage":1374,"booking":5,"acc_booking":12698,"fulfillment":5,"acc_fulfillment":11324,"transfer_cost":0.0,"port_name":"Sydney","position":{"lat":-33.865143,"lng":151.2099},"status":"surplus"},{"frame_index":1015,"name":"ports_19","capacity":10000,"empty":1175,"full":303,"on_shipper":9,"on_consignee":0,"shortage":0,"acc_shortage":0,"booking":6,"acc_booking":16798,"fulfillment":6,"acc_fulfillment":16798,"transfer_cost":0.0,"port_name":"Vancouver","position":{"lat":49.246292,"lng":-123.116226},"status":"surplus"},{"frame_index":1015,"name":"ports_20","capacity":10000,"empty":981,"full":471,"on_shipper":21,"on_consignee":45,"shortage":0,"acc_shortage":1425,"booking":18,"acc_booking":57087,"fulfillment":18,"acc_fulfillment":55662,"transfer_cost":1.0,"port_name":"Yantian","position":{"lat":26.8533,"lng":119.8575},"status":"surplus"},{"frame_index":1015,"name":"ports_21","capacity":10000,"empty":945,"full":19,"on_shipper":11,"on_consignee":120,"shortage":0,"acc_shortage":7747,"booking":11,"acc_booking":54337,"fulfillment":11,"acc_fulfillment":46590,"transfer_cost":0.0,"port_name":"Yokohama","position":{"lat":35.443707,"lng":139.638031},"status":"surplus"}]