[{"frame_index":405,"name":"ports_0","capacity":10000,"empty":3457,"full":3139,"on_shipper":458,"on_consignee":0,"shortage":0,"acc_shortage":522,"booking":267,"acc_booking":52088,"fulfillment":267,"acc_fulfillment":51566,"transfer_cost":0.0,"port_name":"Bremerhaven","position":{"lat":53.549999,"lng":8.583333},"status":"surplus"},{"frame_index":405,"name":"ports_1","capacity":10000,"empty":289,"full":175,"on_shipper":30,"on_consignee":0,"shortage":0,"acc_shortage":0,"booking":17,"acc_booking":3487,"fulfillment":17,"acc_fulfillment":3487,"transfer_cost":0.0,"port_name":"Durban","position":{"lat":-29.8579,"lng":31.0292},"status":"surplus"},{"frame_index":405,"name":"ports_2","capacity":10000,"empty":678,"full":272,"on_shipper":26,"on_consignee":0,"shortage":0,"acc_shortage":233,"booking":16,"acc_booking":3462,"fulfillment":16,"acc_fulfillment":3229,"transfer_cost":0.0,"port_name":"Itagual","position":{"lat":-22.85222,"lng":-43.77528},"status":"surplus"},{"frame_index":405,"name":"ports_3","capacity":10000,"empty":1106,"full":2181,"on_shipper":121,"on_consignee":0,"shortage":0,"acc_shortage":0,"booking":95,"acc_booking":19807,"fulfillment":95,"acc_fulfillment":19807,"transfer_cost":0.0,"port_name":"LeHavre","position":{"lat":49.490002,"lng":0.1},"status":"surplus"},{"frame_index":405,"name":"ports_4","capacity":10000,"empty":1566,"full":1799,"on_shipper":118,"on_consignee":0,"shortage":0,"acc_shortage":0,"booking":80,"acc_booking":16554,"fulfillment":80,"acc_fulfillment":16554,"transfer_cost":0.0,"port_name":"Los Angeles","position":{"lat":34.052235,"lng":-118.243683},"status":"surplus"},{"frame_index":405,"name":"ports_5","capacity":10000,"empty":512,"full":819,"on_shipper":121,"on_consignee":0,"shortage":0,"acc_shortage":123,"booking":88,"acc_booking":16642,"fulfillment":88,"acc_fulfillment":16519,"transfer_cost":0.0,"port_name":"Manzanillo","position":{"lat":19.11695,"lng":-104.34214},"status":"surplus"},{"frame_index":405,"name":"ports_6","capacity":10000,"empty":0,"full":447,"on_shipper":0,"on_consignee":0,"shortage":25,"acc_shortage":767,"booking":25,"acc_booking":5095,"fulfillment":0,"acc_fulfillment":4328,"transfer_cost":0.0,"port_name":"Melbourne","position":{"lat":-37.840935,"lng":144.946457},"status":"demand"},{"frame_index":405,"name":"ports_7","capacity":10000,"empty":1987,"full":726,"on_shipper":25,"on_consignee":0,"shortage":0,"acc_shortage":0,"booking":25,"acc_booking":5098,"fulfillment":25,"acc_fulfillment":5098,"transfer_cost":0.0,"port_name":"Montreal","position":{"lat":45.516136,"lng":-73.65683},"status":"surplus"},{"frame_index":405,"name":"ports_8","capacity":10000,"empty":1571,"full":393,"on_shipper":77,"on_consignee":0,"shortage":0,"acc_shortage":0,"booking":50,"acc_booking":9954,"fulfillment":50,"acc_fulfillment":9954,"transfer_cost":0.0,"port_name":"New York","position":{"lat":40.73061,"lng":-73.935242},"status":"surplus"},{"frame_index":405,"name":"ports_9","capacity":10000,"empty":1085,"full":534,"on_shipper":78,"on_consignee":0,"shortage":0,"acc_shortage":0,"booking":57,"acc_booking":9941,"fulfillment":57,"acc_fulfillment":9941,"transfer_cost":0.0,"port_name":"Oakland","position":{"lat":37.804363,"lng":-122.271111},"status":"surplus"},{"frame_index":405,"name":"ports_10","capacity":10000,"empty":618,"full":850,"on_shipper":47,"on_consignee":0,"shortage":0,"acc_shortage":0,"booking":26,"acc_booking":5085,"fulfillment":26,"acc_fulfillment":5085,"transfer_cost":0.0,"port_name":"Prince Rupert","position":{"lat":54.312519,"lng":-130.305405},"status":"surplus"},{"frame_index":405,"name":"ports_11","capacity":10000,"empty":86,"full":1696,"on_shipper":144,"on_consignee":0,"shortage":0,"acc_shortage":0,"booking":98,"acc_booking":19757,"fulfillment":98,"acc_fulfillment":19757,"transfer_cost":0.0,"port_name":"Pusan","position":{"lat":35.166668,"lng":129.066666},"status":"demand"},{"frame_index":405,"name":"ports_12","capacity":10000,"empty":2312,"full":789,"on_shipper":202,"on_consignee":91,"shortage":0,"acc_shortage":0,"booking":133,"acc_booking":26425,"fulfillment":133,"acc_fulfillment":26425,"transfer_cost":0.0,"port_name":"Qingdao","position":{"lat":36.066898,"lng":120.382698},"status":"surplus"},{"frame_index":405,"name":"ports_13","capacity":10000,"empty":151,"full":382,"on_shipper":27,"on_consignee":0,"shortage":0,"acc_shortage":123,"booking":17,"acc_booking":3455,"fulfillment":17,"acc_fulfillment":3332,"transfer_cost":0.0,"port_name":"San Antonio","position":{"lat":29.424349,"lng":-98.491142},"status":"surplus"},{"frame_index":405,"name":"ports_14","capacity":10000,"empty":263,"full":605,"on_shipper":35,"on_consignee":0,"shortage":0,"acc_shortage":697,"booking":19,"acc_booking":3501,"fulfillment":19,"acc_fulfillment":2804,"transfer_cost":0.0,"port_name":"Santos","position":{"lat":-23.96083,"lng":-46.33361},"status":"surplus"},{"frame_index":405,"name":"ports_15","capacity":10000,"empty":2856,"full":2159,"on_shipper":147,"on_consignee":0,"shortage":0,"acc_shortage":0,"booking":111,"acc_booking":23053,"fulfillment":111,"acc_fulfillment":23053,"transfer_cost":0.0,"port_name":"Seattle","position":{"lat":47.608013,"lng":-122.335167},"status":"surplus"},{"frame_index":405,"name":"ports_16","capacity":10000,"empty":231,"full":2863,"on_shipper":203,"on_consignee":256,"shortage":0,"acc_shortage":0,"booking":159,"acc_booking":32940,"fulfillment":159,"acc_fulfillment":32940,"transfer_cost":0.0,"port_name":"Shanghai","position":{"lat":31.224361,"lng":121.46917},"status":"demand"},{"frame_index":405,"name":"ports_17","capacity":10000,"empty":2360,"full":774,"on_shipper":103,"on_consignee":78,"shortage":0,"acc_shortage":40,"booking":64,"acc_booking":13286,"fulfillment":64,"acc_fulfillment":13246,"transfer_cost":173.0,"port_name":"Singapore","position":{"lat":1.29027,"lng":103.851959},"status":"surplus"},{"frame_index":405,"name":"ports_18","capacity":10000,"empty":156,"full":185,"on_shipper":41,"on_consignee":0,"shortage":0,"acc_shortage":419,"booking":26,"acc_booking":5066,"fulfillment":26,"acc_fulfillment":4647,"transfer_cost":0.0,"port_name":"Sydney","position":{"lat":-33.865143,"lng":151.2099},"status":"balance"},{"frame_index":405,"name":"ports_19","capacity":10000,"empty":542,"full":494,"on_shipper":51,"on_consignee":0,"shortage":0,"acc_shortage":0,"booking":33,"acc_booking":6775,"fulfillment":33,"acc_fulfillment":6775,"transfer_cost":0.0,"port_name":"Vancouver","position":{"lat":49.246292,"lng":-123.116226},"status":"surplus"},{"frame_index":405,"name":"ports_20","capacity":10000,"empty":69,"full":1575,"on_shipper":204,"on_consignee":0,"shortage":0,"acc_shortage":0,"booking":124,"acc_booking":22811,"fulfillment":124,"acc_fulfillment":22811,"transfer_cost":0.0,"port_name":"Yantian","position":{"lat":26.8533,"lng":119.8575},"status":"demand"},{"frame_index":405,"name":"ports_21","capacity":10000,"empty":0,"full":1448,"on_shipper":0,"on_consignee":0,"shortage":120,"acc_shortage":2197,"booking":120,"acc_booking":21872,"fulfillment":0,"acc_fulfillment":19675,"transfer_cost":0.0,"port_name":"Yokohama","position":{"lat":35.443707,"lng":139.638031},"status":"demand"}]