[{"frame_index":511,"name":"ports_0","capacity":10000,"empty":1067,"full":3168,"on_shipper":250,"on_consignee":0,"shortage":0,"acc_shortage":522,"booking":113,"acc_booking":65712,"fulfillment":113,"acc_fulfillment":65190,"transfer_cost":0.0,"port_name":"Bremerhaven","position":{"lat":53.549999,"lng":8.583333},"status":"surplus"},{"frame_index":511,"name":"ports_1","capacity":10000,"empty":378,"full":46,"on_shipper":11,"on_consignee":0,"shortage":0,"acc_shortage":0,"booking":8,"acc_booking":4385,"fulfillment":8,"acc_fulfillment":4385,"transfer_cost":0.0,"port_name":"Durban","position":{"lat":-29.8579,"lng":31.0292},"status":"surplus"},{"frame_index":511,"name":"ports_2","capacity":10000,"empty":822,"full":185,"on_shipper":20,"on_consignee":0,"shortage":0,"acc_shortage":233,"booking":8,"acc_booking":4353,"fulfillment":8,"acc_fulfillment":4120,"transfer_cost":0.0,"port_name":"Itagual","position":{"lat":-22.85222,"lng":-43.77528},"status":"surplus"},{"frame_index":511,"name":"ports_3","capacity":10000,"empty":1695,"full":950,"on_shipper":84,"on_consignee":0,"shortage":0,"acc_shortage":0,"booking":42,"acc_booking":24895,"fulfillment":42,"acc_fulfillment":24895,"transfer_cost":0.0,"port_name":"LeHavre","position":{"lat":49.490002,"lng":0.1},"status":"surplus"},{"frame_index":511,"name":"ports_4","capacity":10000,"empty":1431,"full":2168,"on_shipper":54,"on_consignee":0,"shortage":0,"acc_shortage":0,"booking":35,"acc_booking":20811,"fulfillment":35,"acc_fulfillment":20811,"transfer_cost":0.0,"port_name":"Los Angeles","position":{"lat":34.052235,"lng":-118.243683},"status":"surplus"},{"frame_index":511,"name":"ports_5","capacity":10000,"empty":1377,"full":802,"on_shipper":64,"on_consignee":0,"shortage":0,"acc_shortage":123,"booking":34,"acc_booking":20892,"fulfillment":34,"acc_fulfillment":20769,"transfer_cost":0.0,"port_name":"Manzanillo","position":{"lat":19.11695,"lng":-104.34214},"status":"surplus"},{"frame_index":511,"name":"ports_6","capacity":10000,"empty":104,"full":306,"on_shipper":10,"on_consignee":0,"shortage":0,"acc_shortage":837,"booking":10,"acc_booking":6407,"fulfillment":10,"acc_fulfillment":5570,"transfer_cost":0.0,"port_name":"Melbourne","position":{"lat":-37.840935,"lng":144.946457},"status":"surplus"},{"frame_index":511,"name":"ports_7","capacity":10000,"empty":1728,"full":501,"on_shipper":21,"on_consignee":0,"shortage":0,"acc_shortage":0,"booking":11,"acc_booking":6410,"fulfillment":11,"acc_fulfillment":6410,"transfer_cost":0.0,"port_name":"Montreal","position":{"lat":45.516136,"lng":-73.65683},"status":"surplus"},{"frame_index":511,"name":"ports_8","capacity":10000,"empty":866,"full":461,"on_shipper":19,"on_consignee":0,"shortage":0,"acc_shortage":0,"booking":19,"acc_booking":12524,"fulfillment":19,"acc_fulfillment":12524,"transfer_cost":0.0,"port_name":"New York","position":{"lat":40.73061,"lng":-73.935242},"status":"surplus"},{"frame_index":511,"name":"ports_9","capacity":10000,"empty":1026,"full":767,"on_shipper":46,"on_consignee":0,"shortage":0,"acc_shortage":45,"booking":23,"acc_booking":12530,"fulfillment":23,"acc_fulfillment":12485,"transfer_cost":0.0,"port_name":"Oakland","position":{"lat":37.804363,"lng":-122.271111},"status":"surplus"},{"frame_index":511,"name":"ports_10","capacity":10000,"empty":1103,"full":53,"on_shipper":17,"on_consignee":0,"shortage":0,"acc_shortage":314,"booking":10,"acc_booking":6421,"fulfillment":10,"acc_fulfillment":6107,"transfer_cost":0.0,"port_name":"Prince Rupert","position":{"lat":54.312519,"lng":-130.305405},"status":"surplus"},{"frame_index":511,"name":"ports_11","capacity":10000,"empty":1719,"full":2190,"on_shipper":61,"on_consignee":0,"shortage":0,"acc_shortage":204,"booking":43,"acc_booking":24830,"fulfillment":43,"acc_fulfillment":24626,"transfer_cost":0.0,"port_name":"Pusan","position":{"lat":35.166668,"lng":129.066666},"status":"surplus"},{"frame_index":511,"name":"ports_12","capacity":10000,"empty":3119,"full":2116,"on_shipper":93,"on_consignee":43,"shortage":0,"acc_shortage":0,"booking":50,"acc_booking":33183,"fulfillment":50,"acc_fulfillment":33183,"transfer_cost":666.0,"port_name":"Qingdao","position":{"lat":36.066898,"lng":120.382698},"status":"surplus"},{"frame_index":511,"name":"ports_13","capacity":10000,"empty":479,"full":61,"on_shipper":12,"on_consignee":0,"shortage":0,"acc_shortage":286,"booking":7,"acc_booking":4348,"fulfillment":7,"acc_fulfillment":4062,"transfer_cost":0.0,"port_name":"San Antonio","position":{"lat":29.424349,"lng":-98.491142},"status":"surplus"},{"frame_index":511,"name":"ports_14","capacity":10000,"empty":545,"full":51,"on_shipper":17,"on_consignee":0,"shortage":0,"acc_shortage":762,"booking":8,"acc_booking":4389,"fulfillment":8,"acc_fulfillment":3627,"transfer_cost":0.0,"port_name":"Santos","position":{"lat":-23.96083,"lng":-46.33361},"status":"surplus"},{"frame_index":511,"name":"ports_15","capacity":10000,"empty":3719,"full":626,"on_shipper":64,"on_consignee":476,"shortage":0,"acc_shortage":0,"booking":46,"acc_booking":28975,"fulfillment":46,"acc_fulfillment":28975,"transfer_cost":0.0,"port_name":"Seattle","position":{"lat":47.608013,"lng":-122.335167},"status":"surplus"},{"frame_index":511,"name":"ports_16","capacity":10000,"empty":613,"full":1733,"on_shipper":136,"on_consignee":0,"shortage":0,"acc_shortage":70,"booking":65,"acc_booking":41367,"fulfillment":65,"acc_fulfillment":41297,"transfer_cost":0.0,"port_name":"Shanghai","position":{"lat":31.224361,"lng":121.46917},"status":"surplus"},{"frame_index":511,"name":"ports_17","capacity":10000,"empty":1296,"full":772,"on_shipper":44,"on_consignee":213,"shortage":0,"acc_shortage":40,"booking":28,"acc_booking":16704,"fulfillment":28,"acc_fulfillment":16664,"transfer_cost":0.0,"port_name":"Singapore","position":{"lat":1.29027,"lng":103.851959},"status":"surplus"},{"frame_index":511,"name":"ports_18","capacity":10000,"empty":83,"full":730,"on_shipper":16,"on_consignee":0,"shortage":0,"acc_shortage":774,"booking":12,"acc_booking":6381,"fulfillment":12,"acc_fulfillment":5607,"transfer_cost":0.0,"port_name":"Sydney","position":{"lat":-33.865143,"lng":151.2099},"status":"balance"},{"frame_index":511,"name":"ports_19","capacity":10000,"empty":484,"full":366,"on_shipper":28,"on_consignee":0,"shortage":0,"acc_shortage":0,"booking":14,"acc_booking":8524,"fulfillment":14,"acc_fulfillment":8524,"transfer_cost":0.0,"port_name":"Vancouver","position":{"lat":49.246292,"lng":-123.116226},"status":"surplus"},{"frame_index":511,"name":"ports_20","capacity":10000,"empty":353,"full":1744,"on_shipper":94,"on_consignee":46,"shortage":0,"acc_shortage":350,"booking":45,"acc_booking":28782,"fulfillment":45,"acc_fulfillment":28432,"transfer_cost":24.0,"port_name":"Yantian","position":{"lat":26.8533,"lng":119.8575},"status":"surplus"},{"frame_index":511,"name":"ports_21","capacity":10000,"empty":378,"full":2535,"on_shipper":101,"on_consignee":0,"shortage":0,"acc_shortage":2740,"booking":44,"acc_booking":27481,"fulfillment":44,"acc_fulfillment":24741,"transfer_cost":0.0,"port_name":"Yokohama","position":{"lat":35.443707,"lng":139.638031},"status":"surplus"}]