[{"frame_index":257,"name":"ports_0","capacity":10000,"empty":5018,"full":1291,"on_shipper":156,"on_consignee":0,"shortage":0,"acc_shortage":0,"booking":147,"acc_booking":31421,"fulfillment":147,"acc_fulfillment":31421,"transfer_cost":0.0,"port_name":"Bremerhaven","position":{"lat":53.549999,"lng":8.583333},"status":"surplus"},{"frame_index":257,"name":"ports_1","capacity":10000,"empty":755,"full":161,"on_shipper":21,"on_consignee":0,"shortage":0,"acc_shortage":0,"booking":12,"acc_booking":2113,"fulfillment":12,"acc_fulfillment":2113,"transfer_cost":0.0,"port_name":"Durban","position":{"lat":-29.8579,"lng":31.0292},"status":"surplus"},{"frame_index":257,"name":"ports_2","capacity":10000,"empty":613,"full":0,"on_shipper":20,"on_consignee":320,"shortage":0,"acc_shortage":233,"booking":10,"acc_booking":2096,"fulfillment":10,"acc_fulfillment":1863,"transfer_cost":8.0,"port_name":"Itagual","position":{"lat":-22.85222,"lng":-43.77528},"status":"surplus"},{"frame_index":257,"name":"ports_3","capacity":10000,"empty":1849,"full":802,"on_shipper":104,"on_consignee":0,"shortage":0,"acc_shortage":0,"booking":66,"acc_booking":11941,"fulfillment":66,"acc_fulfillment":11941,"transfer_cost":0.0,"port_name":"LeHavre","position":{"lat":49.490002,"lng":0.1},"status":"surplus"},{"frame_index":257,"name":"ports_4","capacity":10000,"empty":525,"full":1412,"on_shipper":88,"on_consignee":0,"shortage":0,"acc_shortage":0,"booking":55,"acc_booking":9982,"fulfillment":55,"acc_fulfillment":9982,"transfer_cost":0.0,"port_name":"Los Angeles","position":{"lat":34.052235,"lng":-118.243683},"status":"surplus"},{"frame_index":257,"name":"ports_5","capacity":10000,"empty":1053,"full":178,"on_shipper":83,"on_consignee":0,"shortage":0,"acc_shortage":0,"booking":55,"acc_booking":10004,"fulfillment":55,"acc_fulfillment":10004,"transfer_cost":0.0,"port_name":"Manzanillo","position":{"lat":19.11695,"lng":-104.34214},"status":"surplus"},{"frame_index":257,"name":"ports_6","capacity":10000,"empty":123,"full":237,"on_shipper":33,"on_consignee":0,"shortage":0,"acc_shortage":0,"booking":17,"acc_booking":3073,"fulfillment":17,"acc_fulfillment":3073,"transfer_cost":0.0,"port_name":"Melbourne","position":{"lat":-37.840935,"lng":144.946457},"status":"balance"},{"frame_index":257,"name":"ports_7","capacity":10000,"empty":2235,"full":193,"on_shipper":24,"on_consignee":0,"shortage":0,"acc_shortage":0,"booking":17,"acc_booking":3078,"fulfillment":17,"acc_fulfillment":3078,"transfer_cost":0.0,"port_name":"Montreal","position":{"lat":45.516136,"lng":-73.65683},"status":"surplus"},{"frame_index":257,"name":"ports_8","capacity":10000,"empty":4453,"full":456,"on_shipper":51,"on_consignee":0,"shortage":0,"acc_shortage":0,"booking":34,"acc_booking":6008,"fulfillment":34,"acc_fulfillment":6008,"transfer_cost":0.0,"port_name":"New York","position":{"lat":40.73061,"lng":-73.935242},"status":"surplus"},{"frame_index":257,"name":"ports_9","capacity":10000,"empty":1218,"full":691,"on_shipper":42,"on_consignee":0,"shortage":0,"acc_shortage":0,"booking":29,"acc_booking":5983,"fulfillment":29,"acc_fulfillment":5983,"transfer_cost":0.0,"port_name":"Oakland","position":{"lat":37.804363,"lng":-122.271111},"status":"surplus"},{"frame_index":257,"name":"ports_10","capacity":10000,"empty":1525,"full":75,"on_shipper":29,"on_consignee":0,"shortage":0,"acc_shortage":0,"booking":19,"acc_booking":3064,"fulfillment":19,"acc_fulfillment":3064,"transfer_cost":0.0,"port_name":"Prince Rupert","position":{"lat":54.312519,"lng":-130.305405},"status":"surplus"},{"frame_index":257,"name":"ports_11","capacity":10000,"empty":1788,"full":660,"on_shipper":99,"on_consignee":0,"shortage":0,"acc_shortage":0,"booking":62,"acc_booking":11909,"fulfillment":62,"acc_fulfillment":11909,"transfer_cost":0.0,"port_name":"Pusan","position":{"lat":35.166668,"lng":129.066666},"status":"surplus"},{"frame_index":257,"name":"ports_12","capacity":10000,"empty":1110,"full":1260,"on_shipper":124,"on_consignee":0,"shortage":0,"acc_shortage":0,"booking":88,"acc_booking":15879,"fulfillment":88,"acc_fulfillment":15879,"transfer_cost":0.0,"port_name":"Qingdao","position":{"lat":36.066898,"lng":120.382698},"status":"surplus"},{"frame_index":257,"name":"ports_13","capacity":10000,"empty":519,"full":129,"on_shipper":18,"on_consignee":0,"shortage":0,"acc_shortage":55,"booking":11,"acc_booking":2094,"fulfillment":11,"acc_fulfillment":2039,"transfer_cost":0.0,"port_name":"San Antonio","position":{"lat":29.424349,"lng":-98.491142},"status":"surplus"},{"frame_index":257,"name":"ports_14","capacity":10000,"empty":1082,"full":14,"on_shipper":15,"on_consignee":178,"shortage":0,"acc_shortage":697,"booking":10,"acc_booking":2116,"fulfillment":10,"acc_fulfillment":1419,"transfer_cost":0.0,"port_name":"Santos","position":{"lat":-23.96083,"lng":-46.33361},"status":"surplus"},{"frame_index":257,"name":"ports_15","capacity":10000,"empty":4693,"full":552,"on_shipper":100,"on_consignee":0,"shortage":0,"acc_shortage":0,"booking":77,"acc_booking":13899,"fulfillment":77,"acc_fulfillment":13899,"transfer_cost":0.0,"port_name":"Seattle","position":{"lat":47.608013,"lng":-122.335167},"status":"surplus"},{"frame_index":257,"name":"ports_16","capacity":10000,"empty":3143,"full":1500,"on_shipper":217,"on_consignee":2,"shortage":0,"acc_shortage":0,"booking":124,"acc_booking":19823,"fulfillment":124,"acc_fulfillment":19823,"transfer_cost":8.0,"port_name":"Shanghai","position":{"lat":31.224361,"lng":121.46917},"status":"surplus"},{"frame_index":257,"name":"ports_17","capacity":10000,"empty":2444,"full":161,"on_shipper":51,"on_consignee":72,"shortage":0,"acc_shortage":40,"booking":44,"acc_booking":8010,"fulfillment":44,"acc_fulfillment":7970,"transfer_cost":18.0,"port_name":"Singapore","position":{"lat":1.29027,"lng":103.851959},"status":"surplus"},{"frame_index":257,"name":"ports_18","capacity":10000,"empty":351,"full":62,"on_shipper":20,"on_consignee":0,"shortage":0,"acc_shortage":5,"booking":17,"acc_booking":3053,"fulfillment":17,"acc_fulfillment":3048,"transfer_cost":0.0,"port_name":"Sydney","position":{"lat":-33.865143,"lng":151.2099},"status":"surplus"},{"frame_index":257,"name":"ports_19","capacity":10000,"empty":975,"full":356,"on_shipper":32,"on_consignee":0,"shortage":0,"acc_shortage":0,"booking":23,"acc_booking":4085,"fulfillment":23,"acc_fulfillment":4085,"transfer_cost":0.0,"port_name":"Vancouver","position":{"lat":49.246292,"lng":-123.116226},"status":"surplus"},{"frame_index":257,"name":"ports_20","capacity":10000,"empty":2548,"full":1114,"on_shipper":123,"on_consignee":4,"shortage":0,"acc_shortage":0,"booking":77,"acc_booking":13722,"fulfillment":77,"acc_fulfillment":13722,"transfer_cost":0.0,"port_name":"Yantian","position":{"lat":26.8533,"lng":119.8575},"status":"surplus"},{"frame_index":257,"name":"ports_21","capacity":10000,"empty":1491,"full":565,"on_shipper":142,"on_consignee":0,"shortage":0,"acc_shortage":492,"booking":78,"acc_booking":13009,"fulfillment":78,"acc_fulfillment":12517,"transfer_cost":0.0,"port_name":"Yokohama","position":{"lat":35.443707,"lng":139.638031},"status":"surplus"}]