[{"frame_index":1078,"name":"ports_0","capacity":10000,"empty":1321,"full":2434,"on_shipper":279,"on_consignee":0,"shortage":0,"acc_shortage":861,"booking":235,"acc_booking":139525,"fulfillment":235,"acc_fulfillment":138664,"transfer_cost":0.0,"port_name":"Bremerhaven","position":{"lat":53.549999,"lng":8.583333},"status":"surplus"},{"frame_index":1078,"name":"ports_1","capacity":10000,"empty":260,"full":344,"on_shipper":20,"on_consignee":0,"shortage":0,"acc_shortage":113,"booking":16,"acc_booking":9271,"fulfillment":16,"acc_fulfillment":9158,"transfer_cost":0.0,"port_name":"Durban","position":{"lat":-29.8579,"lng":31.0292},"status":"surplus"},{"frame_index":1078,"name":"ports_2","capacity":10000,"empty":662,"full":209,"on_shipper":19,"on_consignee":155,"shortage":0,"acc_shortage":298,"booking":15,"acc_booking":9233,"fulfillment":15,"acc_fulfillment":8935,"transfer_cost":0.0,"port_name":"Itagual","position":{"lat":-22.85222,"lng":-43.77528},"status":"surplus"},{"frame_index":1078,"name":"ports_3","capacity":10000,"empty":3363,"full":1758,"on_shipper":114,"on_consignee":555,"shortage":0,"acc_shortage":0,"booking":94,"acc_booking":52754,"fulfillment":94,"acc_fulfillment":52754,"transfer_cost":904.0,"port_name":"LeHavre","position":{"lat":49.490002,"lng":0.1},"status":"surplus"},{"frame_index":1078,"name":"ports_4","capacity":10000,"empty":830,"full":2265,"on_shipper":117,"on_consignee":0,"shortage":0,"acc_shortage":290,"booking":80,"acc_booking":44183,"fulfillment":80,"acc_fulfillment":43893,"transfer_cost":0.0,"port_name":"Los Angeles","position":{"lat":34.052235,"lng":-118.243683},"status":"surplus"},{"frame_index":1078,"name":"ports_5","capacity":10000,"empty":211,"full":265,"on_shipper":107,"on_consignee":1019,"shortage":0,"acc_shortage":194,"booking":75,"acc_booking":44250,"fulfillment":75,"acc_fulfillment":44056,"transfer_cost":0.0,"port_name":"Manzanillo","position":{"lat":19.11695,"lng":-104.34214},"status":"demand"},{"frame_index":1078,"name":"ports_6","capacity":10000,"empty":33,"full":536,"on_shipper":39,"on_consignee":0,"shortage":0,"acc_shortage":2108,"booking":24,"acc_booking":13603,"fulfillment":24,"acc_fulfillment":11495,"transfer_cost":0.0,"port_name":"Melbourne","position":{"lat":-37.840935,"lng":144.946457},"status":"demand"},{"frame_index":1078,"name":"ports_7","capacity":10000,"empty":1169,"full":517,"on_shipper":34,"on_consignee":0,"shortage":0,"acc_shortage":0,"booking":24,"acc_booking":13605,"fulfillment":24,"acc_fulfillment":13605,"transfer_cost":0.0,"port_name":"Montreal","position":{"lat":45.516136,"lng":-73.65683},"status":"surplus"},{"frame_index":1078,"name":"ports_8","capacity":10000,"empty":5016,"full":851,"on_shipper":85,"on_consignee":0,"shortage":0,"acc_shortage":136,"booking":46,"acc_booking":26598,"fulfillment":46,"acc_fulfillment":26462,"transfer_cost":0.0,"port_name":"New York","position":{"lat":40.73061,"lng":-73.935242},"status":"surplus"},{"frame_index":1078,"name":"ports_9","capacity":10000,"empty":1419,"full":752,"on_shipper":67,"on_consignee":0,"shortage":0,"acc_shortage":45,"booking":46,"acc_booking":26655,"fulfillment":46,"acc_fulfillment":26610,"transfer_cost":0.0,"port_name":"Oakland","position":{"lat":37.804363,"lng":-122.271111},"status":"surplus"},{"frame_index":1078,"name":"ports_10","capacity":10000,"empty":1526,"full":132,"on_shipper":41,"on_consignee":0,"shortage":0,"acc_shortage":314,"booking":23,"acc_booking":13602,"fulfillment":23,"acc_fulfillment":13288,"transfer_cost":0.0,"port_name":"Prince Rupert","position":{"lat":54.312519,"lng":-130.305405},"status":"surplus"},{"frame_index":1078,"name":"ports_11","capacity":10000,"empty":2555,"full":969,"on_shipper":146,"on_consignee":0,"shortage":0,"acc_shortage":204,"booking":96,"acc_booking":52725,"fulfillment":96,"acc_fulfillment":52521,"transfer_cost":0.0,"port_name":"Pusan","position":{"lat":35.166668,"lng":129.066666},"status":"surplus"},{"frame_index":1078,"name":"ports_12","capacity":10000,"empty":3472,"full":751,"on_shipper":193,"on_consignee":0,"shortage":0,"acc_shortage":0,"booking":140,"acc_booking":70416,"fulfillment":140,"acc_fulfillment":70416,"transfer_cost":0.0,"port_name":"Qingdao","position":{"lat":36.066898,"lng":120.382698},"status":"surplus"},{"frame_index":1078,"name":"ports_13","capacity":10000,"empty":20,"full":153,"on_shipper":26,"on_consignee":356,"shortage":0,"acc_shortage":459,"booking":17,"acc_booking":9234,"fulfillment":17,"acc_fulfillment":8775,"transfer_cost":0.0,"port_name":"San Antonio","position":{"lat":29.424349,"lng":-98.491142},"status":"demand"},{"frame_index":1078,"name":"ports_14","capacity":10000,"empty":0,"full":378,"on_shipper":0,"on_consignee":0,"shortage":14,"acc_shortage":1129,"booking":14,"acc_booking":9291,"fulfillment":0,"acc_fulfillment":8162,"transfer_cost":0.0,"port_name":"Santos","position":{"lat":-23.96083,"lng":-46.33361},"status":"demand"},{"frame_index":1078,"name":"ports_15","capacity":10000,"empty":834,"full":2350,"on_shipper":139,"on_consignee":0,"shortage":0,"acc_shortage":1489,"booking":106,"acc_booking":61521,"fulfillment":106,"acc_fulfillment":60032,"transfer_cost":0.0,"port_name":"Seattle","position":{"lat":47.608013,"lng":-122.335167},"status":"surplus"},{"frame_index":1078,"name":"ports_16","capacity":10000,"empty":2539,"full":1693,"on_shipper":228,"on_consignee":0,"shortage":0,"acc_shortage":817,"booking":175,"acc_booking":87737,"fulfillment":175,"acc_fulfillment":86920,"transfer_cost":0.0,"port_name":"Shanghai","position":{"lat":31.224361,"lng":121.46917},"status":"surplus"},{"frame_index":1078,"name":"ports_17","capacity":10000,"empty":2099,"full":899,"on_shipper":86,"on_consignee":0,"shortage":0,"acc_shortage":619,"booking":61,"acc_booking":35428,"fulfillment":61,"acc_fulfillment":34809,"transfer_cost":0.0,"port_name":"Singapore","position":{"lat":1.29027,"lng":103.851959},"status":"surplus"},{"frame_index":1078,"name":"ports_18","capacity":10000,"empty":253,"full":370,"on_shipper":37,"on_consignee":0,"shortage":0,"acc_shortage":1374,"booking":23,"acc_booking":13590,"fulfillment":23,"acc_fulfillment":12216,"transfer_cost":0.0,"port_name":"Sydney","position":{"lat":-33.865143,"lng":151.2099},"status":"surplus"},{"frame_index":1078,"name":"ports_19","capacity":10000,"empty":897,"full":550,"on_shipper":49,"on_consignee":0,"shortage":0,"acc_shortage":0,"booking":33,"acc_booking":18013,"fulfillment":33,"acc_fulfillment":18013,"transfer_cost":0.0,"port_name":"Vancouver","position":{"lat":49.246292,"lng":-123.116226},"status":"surplus"},{"frame_index":1078,"name":"ports_20","capacity":10000,"empty":0,"full":2178,"on_shipper":70,"on_consignee":0,"shortage":51,"acc_shortage":2104,"booking":121,"acc_booking":61303,"fulfillment":70,"acc_fulfillment":59199,"transfer_cost":0.0,"port_name":"Yantian","position":{"lat":26.8533,"lng":119.8575},"status":"demand"},{"frame_index":1078,"name":"ports_21","capacity":10000,"empty":0,"full":1139,"on_shipper":0,"on_consignee":0,"shortage":117,"acc_shortage":9630,"booking":117,"acc_booking":58396,"fulfillment":0,"acc_fulfillment":48766,"transfer_cost":0.0,"port_name":"Yokohama","position":{"lat":35.443707,"lng":139.638031},"status":"demand"}]