[{"frame_index":523,"name":"ports_0","capacity":10000,"empty":4906,"full":1477,"on_shipper":282,"on_consignee":0,"shortage":0,"acc_shortage":522,"booking":151,"acc_booking":67988,"fulfillment":151,"acc_fulfillment":67466,"transfer_cost":0.0,"port_name":"Bremerhaven","position":{"lat":53.549999,"lng":8.583333},"status":"surplus"},{"frame_index":523,"name":"ports_1","capacity":10000,"empty":225,"full":196,"on_shipper":14,"on_consignee":0,"shortage":0,"acc_shortage":0,"booking":9,"acc_booking":4538,"fulfillment":9,"acc_fulfillment":4538,"transfer_cost":0.0,"port_name":"Durban","position":{"lat":-29.8579,"lng":31.0292},"status":"surplus"},{"frame_index":523,"name":"ports_2","capacity":10000,"empty":669,"full":341,"on_shipper":17,"on_consignee":0,"shortage":0,"acc_shortage":233,"booking":10,"acc_booking":4506,"fulfillment":10,"acc_fulfillment":4273,"transfer_cost":0.0,"port_name":"Itagual","position":{"lat":-22.85222,"lng":-43.77528},"status":"surplus"},{"frame_index":523,"name":"ports_3","capacity":10000,"empty":791,"full":1132,"on_shipper":113,"on_consignee":1010,"shortage":0,"acc_shortage":0,"booking":56,"acc_booking":25799,"fulfillment":56,"acc_fulfillment":25799,"transfer_cost":0.0,"port_name":"LeHavre","position":{"lat":49.490002,"lng":0.1},"status":"surplus"},{"frame_index":523,"name":"ports_4","capacity":10000,"empty":676,"full":2906,"on_shipper":71,"on_consignee":0,"shortage":0,"acc_shortage":0,"booking":47,"acc_booking":21566,"fulfillment":47,"acc_fulfillment":21566,"transfer_cost":0.0,"port_name":"Los Angeles","position":{"lat":34.052235,"lng":-118.243683},"status":"surplus"},{"frame_index":523,"name":"ports_5","capacity":10000,"empty":629,"full":1528,"on_shipper":86,"on_consignee":0,"shortage":0,"acc_shortage":123,"booking":44,"acc_booking":21640,"fulfillment":44,"acc_fulfillment":21517,"transfer_cost":0.0,"port_name":"Manzanillo","position":{"lat":19.11695,"lng":-104.34214},"status":"surplus"},{"frame_index":523,"name":"ports_6","capacity":10000,"empty":0,"full":420,"on_shipper":0,"on_consignee":0,"shortage":14,"acc_shortage":964,"booking":14,"acc_booking":6638,"fulfillment":0,"acc_fulfillment":5674,"transfer_cost":0.0,"port_name":"Melbourne","position":{"lat":-37.840935,"lng":144.946457},"status":"demand"},{"frame_index":523,"name":"ports_7","capacity":10000,"empty":1499,"full":728,"on_shipper":23,"on_consignee":0,"shortage":0,"acc_shortage":0,"booking":14,"acc_booking":6639,"fulfillment":14,"acc_fulfillment":6639,"transfer_cost":0.0,"port_name":"Montreal","position":{"lat":45.516136,"lng":-73.65683},"status":"surplus"},{"frame_index":523,"name":"ports_8","capacity":10000,"empty":407,"full":893,"on_shipper":46,"on_consignee":0,"shortage":0,"acc_shortage":0,"booking":28,"acc_booking":12983,"fulfillment":28,"acc_fulfillment":12983,"transfer_cost":0.0,"port_name":"New York","position":{"lat":40.73061,"lng":-73.935242},"status":"surplus"},{"frame_index":523,"name":"ports_9","capacity":10000,"empty":547,"full":1251,"on_shipper":41,"on_consignee":0,"shortage":0,"acc_shortage":45,"booking":28,"acc_booking":13009,"fulfillment":28,"acc_fulfillment":12964,"transfer_cost":0.0,"port_name":"Oakland","position":{"lat":37.804363,"lng":-122.271111},"status":"surplus"},{"frame_index":523,"name":"ports_10","capacity":10000,"empty":920,"full":198,"on_shipper":30,"on_consignee":0,"shortage":0,"acc_shortage":314,"booking":15,"acc_booking":6651,"fulfillment":15,"acc_fulfillment":6337,"transfer_cost":0.0,"port_name":"Prince Rupert","position":{"lat":54.312519,"lng":-130.305405},"status":"surplus"},{"frame_index":523,"name":"ports_11","capacity":10000,"empty":1085,"full":2390,"on_shipper":87,"on_consignee":0,"shortage":0,"acc_shortage":204,"booking":56,"acc_booking":25735,"fulfillment":56,"acc_fulfillment":25531,"transfer_cost":0.0,"port_name":"Pusan","position":{"lat":35.166668,"lng":129.066666},"status":"surplus"},{"frame_index":523,"name":"ports_12","capacity":10000,"empty":2174,"full":2847,"on_shipper":117,"on_consignee":0,"shortage":0,"acc_shortage":0,"booking":75,"acc_booking":34426,"fulfillment":75,"acc_fulfillment":34426,"transfer_cost":0.0,"port_name":"Qingdao","position":{"lat":36.066898,"lng":120.382698},"status":"surplus"},{"frame_index":523,"name":"ports_13","capacity":10000,"empty":342,"full":0,"on_shipper":17,"on_consignee":32,"shortage":0,"acc_shortage":286,"booking":9,"acc_booking":4498,"fulfillment":9,"acc_fulfillment":4212,"transfer_cost":146.0,"port_name":"San Antonio","position":{"lat":29.424349,"lng":-98.491142},"status":"surplus"},{"frame_index":523,"name":"ports_14","capacity":10000,"empty":387,"full":209,"on_shipper":17,"on_consignee":0,"shortage":0,"acc_shortage":762,"booking":10,"acc_booking":4547,"fulfillment":10,"acc_fulfillment":3785,"transfer_cost":0.0,"port_name":"Santos","position":{"lat":-23.96083,"lng":-46.33361},"status":"surplus"},{"frame_index":523,"name":"ports_15","capacity":10000,"empty":3135,"full":1634,"on_shipper":116,"on_consignee":0,"shortage":0,"acc_shortage":0,"booking":68,"acc_booking":30035,"fulfillment":68,"acc_fulfillment":30035,"transfer_cost":0.0,"port_name":"Seattle","position":{"lat":47.608013,"lng":-122.335167},"status":"surplus"},{"frame_index":523,"name":"ports_16","capacity":10000,"empty":752,"full":2359,"on_shipper":187,"on_consignee":0,"shortage":0,"acc_shortage":165,"booking":98,"acc_booking":42800,"fulfillment":98,"acc_fulfillment":42635,"transfer_cost":0.0,"port_name":"Shanghai","position":{"lat":31.224361,"lng":121.46917},"status":"surplus"},{"frame_index":523,"name":"ports_17","capacity":10000,"empty":725,"full":950,"on_shipper":71,"on_consignee":0,"shortage":0,"acc_shortage":40,"booking":37,"acc_booking":17306,"fulfillment":37,"acc_fulfillment":17266,"transfer_cost":0.0,"port_name":"Singapore","position":{"lat":1.29027,"lng":103.851959},"status":"surplus"},{"frame_index":523,"name":"ports_18","capacity":10000,"empty":0,"full":829,"on_shipper":0,"on_consignee":0,"shortage":15,"acc_shortage":917,"booking":15,"acc_booking":6607,"fulfillment":0,"acc_fulfillment":5690,"transfer_cost":0.0,"port_name":"Sydney","position":{"lat":-33.865143,"lng":151.2099},"status":"demand"},{"frame_index":523,"name":"ports_19","capacity":10000,"empty":180,"full":663,"on_shipper":35,"on_consignee":0,"shortage":0,"acc_shortage":0,"booking":19,"acc_booking":8828,"fulfillment":19,"acc_fulfillment":8828,"transfer_cost":0.0,"port_name":"Vancouver","position":{"lat":49.246292,"lng":-123.116226},"status":"surplus"},{"frame_index":523,"name":"ports_20","capacity":10000,"empty":771,"full":1870,"on_shipper":105,"on_consignee":2,"shortage":0,"acc_shortage":350,"booking":64,"acc_booking":29855,"fulfillment":64,"acc_fulfillment":29505,"transfer_cost":0.0,"port_name":"Yantian","position":{"lat":26.8533,"lng":119.8575},"status":"surplus"},{"frame_index":523,"name":"ports_21","capacity":10000,"empty":567,"full":320,"on_shipper":114,"on_consignee":0,"shortage":0,"acc_shortage":3190,"booking":65,"acc_booking":28551,"fulfillment":65,"acc_fulfillment":25361,"transfer_cost":0.0,"port_name":"Yokohama","position":{"lat":35.443707,"lng":139.638031},"status":"surplus"}]