[{"frame_index":111,"name":"ports_0","capacity":10000,"empty":4991,"full":2748,"on_shipper":70,"on_consignee":0,"shortage":0,"acc_shortage":0,"booking":58,"acc_booking":14055,"fulfillment":58,"acc_fulfillment":14055,"transfer_cost":0.0,"port_name":"Bremerhaven","position":{"lat":53.549999,"lng":8.583333},"status":"surplus"},{"frame_index":111,"name":"ports_1","capacity":10000,"empty":560,"full":142,"on_shipper":5,"on_consignee":0,"shortage":0,"acc_shortage":0,"booking":4,"acc_booking":945,"fulfillment":4,"acc_fulfillment":945,"transfer_cost":0.0,"port_name":"Durban","position":{"lat":-29.8579,"lng":31.0292},"status":"surplus"},{"frame_index":111,"name":"ports_2","capacity":10000,"empty":148,"full":566,"on_shipper":6,"on_consignee":0,"shortage":0,"acc_shortage":0,"booking":4,"acc_booking":932,"fulfillment":4,"acc_fulfillment":932,"transfer_cost":0.0,"port_name":"Itagual","position":{"lat":-22.85222,"lng":-43.77528},"status":"surplus"},{"frame_index":111,"name":"ports_3","capacity":10000,"empty":1950,"full":1200,"on_shipper":29,"on_consignee":0,"shortage":0,"acc_shortage":0,"booking":22,"acc_booking":5353,"fulfillment":22,"acc_fulfillment":5353,"transfer_cost":0.0,"port_name":"LeHavre","position":{"lat":49.490002,"lng":0.1},"status":"surplus"},{"frame_index":111,"name":"ports_4","capacity":10000,"empty":2499,"full":474,"on_shipper":32,"on_consignee":0,"shortage":0,"acc_shortage":0,"booking":20,"acc_booking":4469,"fulfillment":20,"acc_fulfillment":4469,"transfer_cost":0.0,"port_name":"Los Angeles","position":{"lat":34.052235,"lng":-118.243683},"status":"surplus"},{"frame_index":111,"name":"ports_5","capacity":10000,"empty":868,"full":388,"on_shipper":23,"on_consignee":0,"shortage":0,"acc_shortage":0,"booking":17,"acc_booking":4424,"fulfillment":17,"acc_fulfillment":4424,"transfer_cost":0.0,"port_name":"Manzanillo","position":{"lat":19.11695,"lng":-104.34214},"status":"surplus"},{"frame_index":111,"name":"ports_6","capacity":10000,"empty":602,"full":148,"on_shipper":6,"on_consignee":0,"shortage":0,"acc_shortage":0,"booking":6,"acc_booking":1380,"fulfillment":6,"acc_fulfillment":1380,"transfer_cost":0.0,"port_name":"Melbourne","position":{"lat":-37.840935,"lng":144.946457},"status":"surplus"},{"frame_index":111,"name":"ports_7","capacity":10000,"empty":1485,"full":242,"on_shipper":10,"on_consignee":0,"shortage":0,"acc_shortage":0,"booking":6,"acc_booking":1374,"fulfillment":6,"acc_fulfillment":1374,"transfer_cost":0.0,"port_name":"Montreal","position":{"lat":45.516136,"lng":-73.65683},"status":"surplus"},{"frame_index":111,"name":"ports_8","capacity":10000,"empty":1001,"full":0,"on_shipper":15,"on_consignee":869,"shortage":0,"acc_shortage":0,"booking":12,"acc_booking":2699,"fulfillment":12,"acc_fulfillment":2699,"transfer_cost":4006.0,"port_name":"New York","position":{"lat":40.73061,"lng":-73.935242},"status":"surplus"},{"frame_index":111,"name":"ports_9","capacity":10000,"empty":1473,"full":211,"on_shipper":15,"on_consignee":0,"shortage":0,"acc_shortage":0,"booking":12,"acc_booking":2670,"fulfillment":12,"acc_fulfillment":2670,"transfer_cost":0.0,"port_name":"Oakland","position":{"lat":37.804363,"lng":-122.271111},"status":"surplus"},{"frame_index":111,"name":"ports_10","capacity":10000,"empty":468,"full":223,"on_shipper":8,"on_consignee":0,"shortage":0,"acc_shortage":0,"booking":6,"acc_booking":1373,"fulfillment":6,"acc_fulfillment":1373,"transfer_cost":0.0,"port_name":"Prince Rupert","position":{"lat":54.312519,"lng":-130.305405},"status":"surplus"},{"frame_index":111,"name":"ports_11","capacity":10000,"empty":1712,"full":833,"on_shipper":27,"on_consignee":0,"shortage":0,"acc_shortage":0,"booking":24,"acc_booking":5337,"fulfillment":24,"acc_fulfillment":5337,"transfer_cost":0.0,"port_name":"Pusan","position":{"lat":35.166668,"lng":129.066666},"status":"surplus"},{"frame_index":111,"name":"ports_12","capacity":10000,"empty":3276,"full":1129,"on_shipper":40,"on_consignee":18,"shortage":0,"acc_shortage":0,"booking":29,"acc_booking":7103,"fulfillment":29,"acc_fulfillment":7103,"transfer_cost":0.0,"port_name":"Qingdao","position":{"lat":36.066898,"lng":120.382698},"status":"surplus"},{"frame_index":111,"name":"ports_13","capacity":10000,"empty":464,"full":14,"on_shipper":7,"on_consignee":0,"shortage":0,"acc_shortage":0,"booking":4,"acc_booking":940,"fulfillment":4,"acc_fulfillment":940,"transfer_cost":0.0,"port_name":"San Antonio","position":{"lat":29.424349,"lng":-98.491142},"status":"surplus"},{"frame_index":111,"name":"ports_14","capacity":10000,"empty":140,"full":69,"on_shipper":7,"on_consignee":0,"shortage":0,"acc_shortage":0,"booking":5,"acc_booking":946,"fulfillment":5,"acc_fulfillment":946,"transfer_cost":0.0,"port_name":"Santos","position":{"lat":-23.96083,"lng":-46.33361},"status":"surplus"},{"frame_index":111,"name":"ports_15","capacity":10000,"empty":2441,"full":1394,"on_shipper":38,"on_consignee":0,"shortage":0,"acc_shortage":0,"booking":26,"acc_booking":6239,"fulfillment":26,"acc_fulfillment":6239,"transfer_cost":0.0,"port_name":"Seattle","position":{"lat":47.608013,"lng":-122.335167},"status":"surplus"},{"frame_index":111,"name":"ports_16","capacity":10000,"empty":2611,"full":600,"on_shipper":61,"on_consignee":0,"shortage":0,"acc_shortage":0,"booking":41,"acc_booking":8921,"fulfillment":41,"acc_fulfillment":8921,"transfer_cost":0.0,"port_name":"Shanghai","position":{"lat":31.224361,"lng":121.46917},"status":"surplus"},{"frame_index":111,"name":"ports_17","capacity":10000,"empty":1992,"full":161,"on_shipper":21,"on_consignee":0,"shortage":0,"acc_shortage":0,"booking":16,"acc_booking":3593,"fulfillment":16,"acc_fulfillment":3593,"transfer_cost":0.0,"port_name":"Singapore","position":{"lat":1.29027,"lng":103.851959},"status":"surplus"},{"frame_index":111,"name":"ports_18","capacity":10000,"empty":835,"full":7,"on_shipper":9,"on_consignee":0,"shortage":0,"acc_shortage":0,"booking":7,"acc_booking":1356,"fulfillment":7,"acc_fulfillment":1356,"transfer_cost":0.0,"port_name":"Sydney","position":{"lat":-33.865143,"lng":151.2099},"status":"surplus"},{"frame_index":111,"name":"ports_19","capacity":10000,"empty":685,"full":374,"on_shipper":11,"on_consignee":0,"shortage":0,"acc_shortage":0,"booking":8,"acc_booking":1832,"fulfillment":8,"acc_fulfillment":1832,"transfer_cost":0.0,"port_name":"Vancouver","position":{"lat":49.246292,"lng":-123.116226},"status":"surplus"},{"frame_index":111,"name":"ports_20","capacity":10000,"empty":1941,"full":384,"on_shipper":25,"on_consignee":0,"shortage":0,"acc_shortage":0,"booking":24,"acc_booking":6104,"fulfillment":24,"acc_fulfillment":6104,"transfer_cost":0.0,"port_name":"Yantian","position":{"lat":26.8533,"lng":119.8575},"status":"surplus"},{"frame_index":111,"name":"ports_21","capacity":10000,"empty":3646,"full":7,"on_shipper":24,"on_consignee":56,"shortage":0,"acc_shortage":0,"booking":20,"acc_booking":5882,"fulfillment":20,"acc_fulfillment":5882,"transfer_cost":0.0,"port_name":"Yokohama","position":{"lat":35.443707,"lng":139.638031},"status":"surplus"}]