[{"frame_index":24,"name":"ports_0","capacity":10000,"empty":14516,"full":422,"on_shipper":105,"on_consignee":0,"shortage":0,"acc_shortage":0,"booking":87,"acc_booking":1484,"fulfillment":87,"acc_fulfillment":1484,"transfer_cost":0.0,"port_name":"Bremerhaven","position":{"lat":53.549999,"lng":8.583333},"status":"surplus"},{"frame_index":24,"name":"ports_1","capacity":10000,"empty":908,"full":22,"on_shipper":6,"on_consignee":0,"shortage":0,"acc_shortage":0,"booking":5,"acc_booking":103,"fulfillment":5,"acc_fulfillment":103,"transfer_cost":0.0,"port_name":"Durban","position":{"lat":-29.8579,"lng":31.0292},"status":"surplus"},{"frame_index":24,"name":"ports_2","capacity":10000,"empty":896,"full":0,"on_shipper":10,"on_consignee":7,"shortage":0,"acc_shortage":0,"booking":6,"acc_booking":104,"fulfillment":6,"acc_fulfillment":104,"transfer_cost":0.0,"port_name":"Itagual","position":{"lat":-22.85222,"lng":-43.77528},"status":"surplus"},{"frame_index":24,"name":"ports_3","capacity":10000,"empty":4755,"full":278,"on_shipper":43,"on_consignee":0,"shortage":0,"acc_shortage":0,"booking":31,"acc_booking":577,"fulfillment":31,"acc_fulfillment":577,"transfer_cost":0.0,"port_name":"LeHavre","position":{"lat":49.490002,"lng":0.1},"status":"surplus"},{"frame_index":24,"name":"ports_4","capacity":10000,"empty":4519,"full":374,"on_shipper":45,"on_consignee":0,"shortage":0,"acc_shortage":0,"booking":27,"acc_booking":481,"fulfillment":27,"acc_fulfillment":481,"transfer_cost":0.0,"port_name":"Los Angeles","position":{"lat":34.052235,"lng":-118.243683},"status":"surplus"},{"frame_index":24,"name":"ports_5","capacity":10000,"empty":4519,"full":0,"on_shipper":37,"on_consignee":0,"shortage":0,"acc_shortage":0,"booking":26,"acc_booking":481,"fulfillment":26,"acc_fulfillment":481,"transfer_cost":0.0,"port_name":"Manzanillo","position":{"lat":19.11695,"lng":-104.34214},"status":"surplus"},{"frame_index":24,"name":"ports_6","capacity":10000,"empty":1349,"full":137,"on_shipper":14,"on_consignee":0,"shortage":0,"acc_shortage":0,"booking":8,"acc_booking":151,"fulfillment":8,"acc_fulfillment":151,"transfer_cost":0.0,"port_name":"Melbourne","position":{"lat":-37.840935,"lng":144.946457},"status":"surplus"},{"frame_index":24,"name":"ports_7","capacity":10000,"empty":1351,"full":141,"on_shipper":8,"on_consignee":0,"shortage":0,"acc_shortage":0,"booking":8,"acc_booking":149,"fulfillment":8,"acc_fulfillment":149,"transfer_cost":0.0,"port_name":"Montreal","position":{"lat":45.516136,"lng":-73.65683},"status":"surplus"},{"frame_index":24,"name":"ports_8","capacity":10000,"empty":2708,"full":270,"on_shipper":22,"on_consignee":0,"shortage":0,"acc_shortage":0,"booking":16,"acc_booking":292,"fulfillment":16,"acc_fulfillment":292,"transfer_cost":0.0,"port_name":"New York","position":{"lat":40.73061,"lng":-73.935242},"status":"surplus"},{"frame_index":24,"name":"ports_9","capacity":10000,"empty":2709,"full":266,"on_shipper":25,"on_consignee":0,"shortage":0,"acc_shortage":0,"booking":17,"acc_booking":291,"fulfillment":17,"acc_fulfillment":291,"transfer_cost":0.0,"port_name":"Oakland","position":{"lat":37.804363,"lng":-122.271111},"status":"surplus"},{"frame_index":24,"name":"ports_10","capacity":10000,"empty":1341,"full":148,"on_shipper":11,"on_consignee":0,"shortage":0,"acc_shortage":0,"booking":10,"acc_booking":159,"fulfillment":10,"acc_fulfillment":159,"transfer_cost":0.0,"port_name":"Prince Rupert","position":{"lat":54.312519,"lng":-130.305405},"status":"surplus"},{"frame_index":24,"name":"ports_11","capacity":10000,"empty":5421,"full":181,"on_shipper":46,"on_consignee":0,"shortage":0,"acc_shortage":0,"booking":31,"acc_booking":579,"fulfillment":31,"acc_fulfillment":579,"transfer_cost":0.0,"port_name":"Pusan","position":{"lat":35.166668,"lng":129.066666},"status":"surplus"},{"frame_index":24,"name":"ports_12","capacity":10000,"empty":7233,"full":443,"on_shipper":62,"on_consignee":0,"shortage":0,"acc_shortage":0,"booking":41,"acc_booking":767,"fulfillment":41,"acc_fulfillment":767,"transfer_cost":0.0,"port_name":"Qingdao","position":{"lat":36.066898,"lng":120.382698},"status":"surplus"},{"frame_index":24,"name":"ports_13","capacity":10000,"empty":896,"full":95,"on_shipper":9,"on_consignee":0,"shortage":0,"acc_shortage":0,"booking":6,"acc_booking":104,"fulfillment":6,"acc_fulfillment":104,"transfer_cost":0.0,"port_name":"San Antonio","position":{"lat":29.424349,"lng":-98.491142},"status":"surplus"},{"frame_index":24,"name":"ports_14","capacity":10000,"empty":894,"full":99,"on_shipper":7,"on_consignee":0,"shortage":0,"acc_shortage":0,"booking":7,"acc_booking":106,"fulfillment":7,"acc_fulfillment":106,"transfer_cost":0.0,"port_name":"Santos","position":{"lat":-23.96083,"lng":-46.33361},"status":"surplus"},{"frame_index":24,"name":"ports_15","capacity":10000,"empty":6336,"full":499,"on_shipper":46,"on_consignee":0,"shortage":0,"acc_shortage":0,"booking":37,"acc_booking":664,"fulfillment":37,"acc_fulfillment":664,"transfer_cost":0.0,"port_name":"Seattle","position":{"lat":47.608013,"lng":-122.335167},"status":"surplus"},{"frame_index":24,"name":"ports_16","capacity":10000,"empty":9035,"full":555,"on_shipper":84,"on_consignee":0,"shortage":0,"acc_shortage":0,"booking":51,"acc_booking":965,"fulfillment":51,"acc_fulfillment":965,"transfer_cost":0.0,"port_name":"Shanghai","position":{"lat":31.224361,"lng":121.46917},"status":"surplus"},{"frame_index":24,"name":"ports_17","capacity":10000,"empty":3616,"full":178,"on_shipper":35,"on_consignee":0,"shortage":0,"acc_shortage":0,"booking":21,"acc_booking":388,"fulfillment":21,"acc_fulfillment":388,"transfer_cost":0.0,"port_name":"Singapore","position":{"lat":1.29027,"lng":103.851959},"status":"surplus"},{"frame_index":24,"name":"ports_18","capacity":10000,"empty":1350,"full":139,"on_shipper":11,"on_consignee":0,"shortage":0,"acc_shortage":0,"booking":7,"acc_booking":150,"fulfillment":7,"acc_fulfillment":150,"transfer_cost":0.0,"port_name":"Sydney","position":{"lat":-33.865143,"lng":151.2099},"status":"surplus"},{"frame_index":24,"name":"ports_19","capacity":10000,"empty":1803,"full":154,"on_shipper":16,"on_consignee":0,"shortage":0,"acc_shortage":0,"booking":11,"acc_booking":197,"fulfillment":11,"acc_fulfillment":197,"transfer_cost":0.0,"port_name":"Vancouver","position":{"lat":49.246292,"lng":-123.116226},"status":"surplus"},{"frame_index":24,"name":"ports_20","capacity":10000,"empty":6323,"full":488,"on_shipper":58,"on_consignee":0,"shortage":0,"acc_shortage":0,"booking":37,"acc_booking":680,"fulfillment":37,"acc_fulfillment":680,"transfer_cost":0.0,"port_name":"Yantian","position":{"lat":26.8533,"lng":119.8575},"status":"surplus"},{"frame_index":24,"name":"ports_21","capacity":10000,"empty":7493,"full":469,"on_shipper":38,"on_consignee":0,"shortage":0,"acc_shortage":0,"booking":34,"acc_booking":507,"fulfillment":34,"acc_fulfillment":507,"transfer_cost":0.0,"port_name":"Yokohama","position":{"lat":35.443707,"lng":139.638031},"status":"surplus"}]