[{"frame_index":140,"name":"ports_0","capacity":10000,"empty":7153,"full":1267,"on_shipper":331,"on_consignee":0,"shortage":0,"acc_shortage":0,"booking":172,"acc_booking":16412,"fulfillment":172,"acc_fulfillment":16412,"transfer_cost":0.0,"port_name":"Bremerhaven","position":{"lat":53.549999,"lng":8.583333},"status":"surplus"},{"frame_index":140,"name":"ports_1","capacity":10000,"empty":763,"full":100,"on_shipper":17,"on_consignee":0,"shortage":0,"acc_shortage":0,"booking":9,"acc_booking":1108,"fulfillment":9,"acc_fulfillment":1108,"transfer_cost":0.0,"port_name":"Durban","position":{"lat":-29.8579,"lng":31.0292},"status":"surplus"},{"frame_index":140,"name":"ports_2","capacity":10000,"empty":0,"full":720,"on_shipper":0,"on_consignee":0,"shortage":10,"acc_shortage":18,"booking":10,"acc_booking":1098,"fulfillment":0,"acc_fulfillment":1080,"transfer_cost":0.0,"port_name":"Itagual","position":{"lat":-22.85222,"lng":-43.77528},"status":"balance"},{"frame_index":140,"name":"ports_3","capacity":10000,"empty":2193,"full":458,"on_shipper":83,"on_consignee":0,"shortage":0,"acc_shortage":0,"booking":56,"acc_booking":6255,"fulfillment":56,"acc_fulfillment":6255,"transfer_cost":0.0,"port_name":"LeHavre","position":{"lat":49.490002,"lng":0.1},"status":"surplus"},{"frame_index":140,"name":"ports_4","capacity":10000,"empty":2921,"full":717,"on_shipper":64,"on_consignee":0,"shortage":0,"acc_shortage":0,"booking":48,"acc_booking":5227,"fulfillment":48,"acc_fulfillment":5227,"transfer_cost":0.0,"port_name":"Los Angeles","position":{"lat":34.052235,"lng":-118.243683},"status":"surplus"},{"frame_index":140,"name":"ports_5","capacity":10000,"empty":434,"full":470,"on_shipper":71,"on_consignee":0,"shortage":0,"acc_shortage":0,"booking":41,"acc_booking":5163,"fulfillment":41,"acc_fulfillment":5163,"transfer_cost":0.0,"port_name":"Manzanillo","position":{"lat":19.11695,"lng":-104.34214},"status":"surplus"},{"frame_index":140,"name":"ports_6","capacity":10000,"empty":782,"full":50,"on_shipper":27,"on_consignee":0,"shortage":0,"acc_shortage":0,"booking":14,"acc_booking":1614,"fulfillment":14,"acc_fulfillment":1614,"transfer_cost":0.0,"port_name":"Melbourne","position":{"lat":-37.840935,"lng":144.946457},"status":"surplus"},{"frame_index":140,"name":"ports_7","capacity":10000,"empty":2112,"full":178,"on_shipper":14,"on_consignee":0,"shortage":0,"acc_shortage":0,"booking":14,"acc_booking":1608,"fulfillment":14,"acc_fulfillment":1608,"transfer_cost":0.0,"port_name":"Montreal","position":{"lat":45.516136,"lng":-73.65683},"status":"surplus"},{"frame_index":140,"name":"ports_8","capacity":10000,"empty":1412,"full":423,"on_shipper":50,"on_consignee":0,"shortage":0,"acc_shortage":0,"booking":28,"acc_booking":3157,"fulfillment":28,"acc_fulfillment":3157,"transfer_cost":0.0,"port_name":"New York","position":{"lat":40.73061,"lng":-73.935242},"status":"surplus"},{"frame_index":140,"name":"ports_9","capacity":10000,"empty":2108,"full":266,"on_shipper":42,"on_consignee":0,"shortage":0,"acc_shortage":0,"booking":33,"acc_booking":3130,"fulfillment":33,"acc_fulfillment":3130,"transfer_cost":0.0,"port_name":"Oakland","position":{"lat":37.804363,"lng":-122.271111},"status":"surplus"},{"frame_index":140,"name":"ports_10","capacity":10000,"empty":231,"full":447,"on_shipper":21,"on_consignee":0,"shortage":0,"acc_shortage":0,"booking":13,"acc_booking":1610,"fulfillment":13,"acc_fulfillment":1610,"transfer_cost":0.0,"port_name":"Prince Rupert","position":{"lat":54.312519,"lng":-130.305405},"status":"surplus"},{"frame_index":140,"name":"ports_11","capacity":10000,"empty":2657,"full":238,"on_shipper":93,"on_consignee":3,"shortage":0,"acc_shortage":0,"booking":54,"acc_booking":6227,"fulfillment":54,"acc_fulfillment":6227,"transfer_cost":0.0,"port_name":"Pusan","position":{"lat":35.166668,"lng":129.066666},"status":"surplus"},{"frame_index":140,"name":"ports_12","capacity":10000,"empty":4631,"full":851,"on_shipper":113,"on_consignee":0,"shortage":0,"acc_shortage":0,"booking":74,"acc_booking":8311,"fulfillment":74,"acc_fulfillment":8311,"transfer_cost":0.0,"port_name":"Qingdao","position":{"lat":36.066898,"lng":120.382698},"status":"surplus"},{"frame_index":140,"name":"ports_13","capacity":10000,"empty":299,"full":170,"on_shipper":16,"on_consignee":0,"shortage":0,"acc_shortage":0,"booking":10,"acc_booking":1105,"fulfillment":10,"acc_fulfillment":1105,"transfer_cost":0.0,"port_name":"San Antonio","position":{"lat":29.424349,"lng":-98.491142},"status":"surplus"},{"frame_index":140,"name":"ports_14","capacity":10000,"empty":69,"full":138,"on_shipper":17,"on_consignee":0,"shortage":0,"acc_shortage":0,"booking":10,"acc_booking":1107,"fulfillment":10,"acc_fulfillment":1107,"transfer_cost":0.0,"port_name":"Santos","position":{"lat":-23.96083,"lng":-46.33361},"status":"balance"},{"frame_index":140,"name":"ports_15","capacity":10000,"empty":3131,"full":162,"on_shipper":94,"on_consignee":0,"shortage":0,"acc_shortage":0,"booking":65,"acc_booking":7278,"fulfillment":65,"acc_fulfillment":7278,"transfer_cost":0.0,"port_name":"Seattle","position":{"lat":47.608013,"lng":-122.335167},"status":"surplus"},{"frame_index":140,"name":"ports_16","capacity":10000,"empty":2996,"full":268,"on_shipper":172,"on_consignee":52,"shortage":0,"acc_shortage":0,"booking":87,"acc_booking":10420,"fulfillment":87,"acc_fulfillment":10420,"transfer_cost":37.0,"port_name":"Shanghai","position":{"lat":31.224361,"lng":121.46917},"status":"surplus"},{"frame_index":140,"name":"ports_17","capacity":10000,"empty":1201,"full":451,"on_shipper":71,"on_consignee":24,"shortage":0,"acc_shortage":0,"booking":39,"acc_booking":4202,"fulfillment":39,"acc_fulfillment":4202,"transfer_cost":0.0,"port_name":"Singapore","position":{"lat":1.29027,"lng":103.851959},"status":"surplus"},{"frame_index":140,"name":"ports_18","capacity":10000,"empty":635,"full":167,"on_shipper":20,"on_consignee":0,"shortage":0,"acc_shortage":0,"booking":14,"acc_booking":1589,"fulfillment":14,"acc_fulfillment":1589,"transfer_cost":0.0,"port_name":"Sydney","position":{"lat":-33.865143,"lng":151.2099},"status":"surplus"},{"frame_index":140,"name":"ports_19","capacity":10000,"empty":520,"full":429,"on_shipper":36,"on_consignee":85,"shortage":0,"acc_shortage":0,"booking":18,"acc_booking":2139,"fulfillment":18,"acc_fulfillment":2139,"transfer_cost":0.0,"port_name":"Vancouver","position":{"lat":49.246292,"lng":-123.116226},"status":"surplus"},{"frame_index":140,"name":"ports_20","capacity":10000,"empty":1618,"full":592,"on_shipper":123,"on_consignee":370,"shortage":0,"acc_shortage":0,"booking":70,"acc_booking":7135,"fulfillment":70,"acc_fulfillment":7135,"transfer_cost":0.0,"port_name":"Yantian","position":{"lat":26.8533,"lng":119.8575},"status":"surplus"},{"frame_index":140,"name":"ports_21","capacity":10000,"empty":2841,"full":794,"on_shipper":81,"on_consignee":0,"shortage":0,"acc_shortage":0,"booking":62,"acc_booking":6754,"fulfillment":62,"acc_fulfillment":6754,"transfer_cost":0.0,"port_name":"Yokohama","position":{"lat":35.443707,"lng":139.638031},"status":"surplus"}]