[{"frame_index":577,"name":"ports_0","capacity":10000,"empty":8529,"full":791,"on_shipper":120,"on_consignee":0,"shortage":0,"acc_shortage":522,"booking":79,"acc_booking":72490,"fulfillment":79,"acc_fulfillment":71968,"transfer_cost":0.0,"port_name":"Bremerhaven","position":{"lat":53.549999,"lng":8.583333},"status":"surplus"},{"frame_index":577,"name":"ports_1","capacity":10000,"empty":323,"full":265,"on_shipper":10,"on_consignee":0,"shortage":0,"acc_shortage":0,"booking":6,"acc_booking":4837,"fulfillment":6,"acc_fulfillment":4837,"transfer_cost":0.0,"port_name":"Durban","position":{"lat":-29.8579,"lng":31.0292},"status":"surplus"},{"frame_index":577,"name":"ports_2","capacity":10000,"empty":312,"full":6,"on_shipper":8,"on_consignee":263,"shortage":0,"acc_shortage":233,"booking":7,"acc_booking":4811,"fulfillment":7,"acc_fulfillment":4578,"transfer_cost":0.0,"port_name":"Itagual","position":{"lat":-22.85222,"lng":-43.77528},"status":"surplus"},{"frame_index":577,"name":"ports_3","capacity":10000,"empty":377,"full":1880,"on_shipper":56,"on_consignee":0,"shortage":0,"acc_shortage":0,"booking":36,"acc_booking":27478,"fulfillment":36,"acc_fulfillment":27478,"transfer_cost":0.0,"port_name":"LeHavre","position":{"lat":49.490002,"lng":0.1},"status":"surplus"},{"frame_index":577,"name":"ports_4","capacity":10000,"empty":1450,"full":124,"on_shipper":39,"on_consignee":315,"shortage":0,"acc_shortage":0,"booking":30,"acc_booking":22987,"fulfillment":30,"acc_fulfillment":22987,"transfer_cost":0.0,"port_name":"Los Angeles","position":{"lat":34.052235,"lng":-118.243683},"status":"surplus"},{"frame_index":577,"name":"ports_5","capacity":10000,"empty":1774,"full":619,"on_shipper":40,"on_consignee":0,"shortage":0,"acc_shortage":123,"booking":26,"acc_booking":23029,"fulfillment":26,"acc_fulfillment":22906,"transfer_cost":0.0,"port_name":"Manzanillo","position":{"lat":19.11695,"lng":-104.34214},"status":"surplus"},{"frame_index":577,"name":"ports_6","capacity":10000,"empty":563,"full":67,"on_shipper":14,"on_consignee":0,"shortage":0,"acc_shortage":1259,"booking":10,"acc_booking":7080,"fulfillment":10,"acc_fulfillment":5821,"transfer_cost":0.0,"port_name":"Melbourne","position":{"lat":-37.840935,"lng":144.946457},"status":"surplus"},{"frame_index":577,"name":"ports_7","capacity":10000,"empty":1444,"full":222,"on_shipper":16,"on_consignee":0,"shortage":0,"acc_shortage":0,"booking":9,"acc_booking":7083,"fulfillment":9,"acc_fulfillment":7083,"transfer_cost":0.0,"port_name":"Montreal","position":{"lat":45.516136,"lng":-73.65683},"status":"surplus"},{"frame_index":577,"name":"ports_8","capacity":10000,"empty":1831,"full":291,"on_shipper":26,"on_consignee":0,"shortage":0,"acc_shortage":0,"booking":17,"acc_booking":13836,"fulfillment":17,"acc_fulfillment":13836,"transfer_cost":0.0,"port_name":"New York","position":{"lat":40.73061,"lng":-73.935242},"status":"surplus"},{"frame_index":577,"name":"ports_9","capacity":10000,"empty":524,"full":210,"on_shipper":31,"on_consignee":0,"shortage":0,"acc_shortage":45,"booking":17,"acc_booking":13863,"fulfillment":17,"acc_fulfillment":13818,"transfer_cost":0.0,"port_name":"Oakland","position":{"lat":37.804363,"lng":-122.271111},"status":"surplus"},{"frame_index":577,"name":"ports_10","capacity":10000,"empty":825,"full":223,"on_shipper":17,"on_consignee":0,"shortage":0,"acc_shortage":314,"booking":8,"acc_booking":7099,"fulfillment":8,"acc_fulfillment":6785,"transfer_cost":0.0,"port_name":"Prince Rupert","position":{"lat":54.312519,"lng":-130.305405},"status":"surplus"},{"frame_index":577,"name":"ports_11","capacity":10000,"empty":1480,"full":317,"on_shipper":54,"on_consignee":0,"shortage":0,"acc_shortage":204,"booking":37,"acc_booking":27434,"fulfillment":37,"acc_fulfillment":27230,"transfer_cost":0.0,"port_name":"Pusan","position":{"lat":35.166668,"lng":129.066666},"status":"surplus"},{"frame_index":577,"name":"ports_12","capacity":10000,"empty":4321,"full":517,"on_shipper":77,"on_consignee":0,"shortage":0,"acc_shortage":0,"booking":49,"acc_booking":36677,"fulfillment":49,"acc_fulfillment":36677,"transfer_cost":0.0,"port_name":"Qingdao","position":{"lat":36.066898,"lng":120.382698},"status":"surplus"},{"frame_index":577,"name":"ports_13","capacity":10000,"empty":463,"full":19,"on_shipper":8,"on_consignee":0,"shortage":0,"acc_shortage":286,"booking":7,"acc_booking":4802,"fulfillment":7,"acc_fulfillment":4516,"transfer_cost":0.0,"port_name":"San Antonio","position":{"lat":29.424349,"lng":-98.491142},"status":"surplus"},{"frame_index":577,"name":"ports_14","capacity":10000,"empty":395,"full":100,"on_shipper":7,"on_consignee":0,"shortage":0,"acc_shortage":762,"booking":6,"acc_booking":4852,"fulfillment":6,"acc_fulfillment":4090,"transfer_cost":0.0,"port_name":"Santos","position":{"lat":-23.96083,"lng":-46.33361},"status":"surplus"},{"frame_index":577,"name":"ports_15","capacity":10000,"empty":2158,"full":752,"on_shipper":54,"on_consignee":1422,"shortage":0,"acc_shortage":0,"booking":42,"acc_booking":32009,"fulfillment":42,"acc_fulfillment":32009,"transfer_cost":0.0,"port_name":"Seattle","position":{"lat":47.608013,"lng":-122.335167},"status":"surplus"},{"frame_index":577,"name":"ports_16","capacity":10000,"empty":680,"full":592,"on_shipper":83,"on_consignee":153,"shortage":0,"acc_shortage":470,"booking":61,"acc_booking":45654,"fulfillment":61,"acc_fulfillment":45184,"transfer_cost":0.0,"port_name":"Shanghai","position":{"lat":31.224361,"lng":121.46917},"status":"surplus"},{"frame_index":577,"name":"ports_17","capacity":10000,"empty":359,"full":320,"on_shipper":30,"on_consignee":36,"shortage":0,"acc_shortage":40,"booking":25,"acc_booking":18445,"fulfillment":25,"acc_fulfillment":18405,"transfer_cost":17.0,"port_name":"Singapore","position":{"lat":1.29027,"lng":103.851959},"status":"surplus"},{"frame_index":577,"name":"ports_18","capacity":10000,"empty":616,"full":188,"on_shipper":15,"on_consignee":0,"shortage":0,"acc_shortage":957,"booking":8,"acc_booking":7049,"fulfillment":8,"acc_fulfillment":6092,"transfer_cost":0.0,"port_name":"Sydney","position":{"lat":-33.865143,"lng":151.2099},"status":"surplus"},{"frame_index":577,"name":"ports_19","capacity":10000,"empty":808,"full":363,"on_shipper":16,"on_consignee":0,"shortage":0,"acc_shortage":0,"booking":13,"acc_booking":9415,"fulfillment":13,"acc_fulfillment":9415,"transfer_cost":0.0,"port_name":"Vancouver","position":{"lat":49.246292,"lng":-123.116226},"status":"surplus"},{"frame_index":577,"name":"ports_20","capacity":10000,"empty":481,"full":1924,"on_shipper":63,"on_consignee":14,"shortage":0,"acc_shortage":395,"booking":41,"acc_booking":31808,"fulfillment":41,"acc_fulfillment":31413,"transfer_cost":50.0,"port_name":"Yantian","position":{"lat":26.8533,"lng":119.8575},"status":"surplus"},{"frame_index":577,"name":"ports_21","capacity":10000,"empty":880,"full":95,"on_shipper":45,"on_consignee":1,"shortage":0,"acc_shortage":3258,"booking":37,"acc_booking":30216,"fulfillment":37,"acc_fulfillment":26958,"transfer_cost":0.0,"port_name":"Yokohama","position":{"lat":35.443707,"lng":139.638031},"status":"surplus"}]