[{"frame_index":245,"name":"ports_0","capacity":10000,"empty":4333,"full":376,"on_shipper":100,"on_consignee":1388,"shortage":0,"acc_shortage":0,"booking":37,"acc_booking":29923,"fulfillment":37,"acc_fulfillment":29923,"transfer_cost":1125.0,"port_name":"Bremerhaven","position":{"lat":53.549999,"lng":8.583333},"status":"surplus"},{"frame_index":245,"name":"ports_1","capacity":10000,"empty":859,"full":72,"on_shipper":6,"on_consignee":0,"shortage":0,"acc_shortage":0,"booking":3,"acc_booking":2009,"fulfillment":3,"acc_fulfillment":2009,"transfer_cost":0.0,"port_name":"Durban","position":{"lat":-29.8579,"lng":31.0292},"status":"surplus"},{"frame_index":245,"name":"ports_2","capacity":10000,"empty":703,"full":169,"on_shipper":5,"on_consignee":0,"shortage":0,"acc_shortage":233,"booking":3,"acc_booking":1998,"fulfillment":3,"acc_fulfillment":1765,"transfer_cost":0.0,"port_name":"Itagual","position":{"lat":-22.85222,"lng":-43.77528},"status":"surplus"},{"frame_index":245,"name":"ports_3","capacity":10000,"empty":2456,"full":502,"on_shipper":38,"on_consignee":0,"shortage":0,"acc_shortage":0,"booking":15,"acc_booking":11368,"fulfillment":15,"acc_fulfillment":11368,"transfer_cost":0.0,"port_name":"LeHavre","position":{"lat":49.490002,"lng":0.1},"status":"surplus"},{"frame_index":245,"name":"ports_4","capacity":10000,"empty":1008,"full":994,"on_shipper":23,"on_consignee":0,"shortage":0,"acc_shortage":0,"booking":13,"acc_booking":9499,"fulfillment":13,"acc_fulfillment":9499,"transfer_cost":0.0,"port_name":"Los Angeles","position":{"lat":34.052235,"lng":-118.243683},"status":"surplus"},{"frame_index":245,"name":"ports_5","capacity":10000,"empty":1374,"full":436,"on_shipper":25,"on_consignee":0,"shortage":0,"acc_shortage":0,"booking":13,"acc_booking":9524,"fulfillment":13,"acc_fulfillment":9524,"transfer_cost":0.0,"port_name":"Manzanillo","position":{"lat":19.11695,"lng":-104.34214},"status":"surplus"},{"frame_index":245,"name":"ports_6","capacity":10000,"empty":270,"full":114,"on_shipper":9,"on_consignee":0,"shortage":0,"acc_shortage":0,"booking":4,"acc_booking":2926,"fulfillment":4,"acc_fulfillment":2926,"transfer_cost":0.0,"port_name":"Melbourne","position":{"lat":-37.840935,"lng":144.946457},"status":"surplus"},{"frame_index":245,"name":"ports_7","capacity":10000,"empty":2386,"full":57,"on_shipper":9,"on_consignee":0,"shortage":0,"acc_shortage":0,"booking":4,"acc_booking":2927,"fulfillment":4,"acc_fulfillment":2927,"transfer_cost":0.0,"port_name":"Montreal","position":{"lat":45.516136,"lng":-73.65683},"status":"surplus"},{"frame_index":245,"name":"ports_8","capacity":10000,"empty":4742,"full":210,"on_shipper":8,"on_consignee":0,"shortage":0,"acc_shortage":0,"booking":8,"acc_booking":5719,"fulfillment":8,"acc_fulfillment":5719,"transfer_cost":0.0,"port_name":"New York","position":{"lat":40.73061,"lng":-73.935242},"status":"surplus"},{"frame_index":245,"name":"ports_9","capacity":10000,"empty":1498,"full":433,"on_shipper":20,"on_consignee":0,"shortage":0,"acc_shortage":0,"booking":7,"acc_booking":5703,"fulfillment":7,"acc_fulfillment":5703,"transfer_cost":0.0,"port_name":"Oakland","position":{"lat":37.804363,"lng":-122.271111},"status":"surplus"},{"frame_index":245,"name":"ports_10","capacity":10000,"empty":1329,"full":57,"on_shipper":10,"on_consignee":0,"shortage":0,"acc_shortage":0,"booking":4,"acc_booking":2912,"fulfillment":4,"acc_fulfillment":2912,"transfer_cost":0.0,"port_name":"Prince Rupert","position":{"lat":54.312519,"lng":-130.305405},"status":"surplus"},{"frame_index":245,"name":"ports_11","capacity":10000,"empty":1207,"full":1417,"on_shipper":22,"on_consignee":0,"shortage":0,"acc_shortage":0,"booking":14,"acc_booking":11328,"fulfillment":14,"acc_fulfillment":11328,"transfer_cost":0.0,"port_name":"Pusan","position":{"lat":35.166668,"lng":129.066666},"status":"surplus"},{"frame_index":245,"name":"ports_12","capacity":10000,"empty":1493,"full":849,"on_shipper":25,"on_consignee":0,"shortage":0,"acc_shortage":0,"booking":20,"acc_booking":15117,"fulfillment":20,"acc_fulfillment":15117,"transfer_cost":0.0,"port_name":"Qingdao","position":{"lat":36.066898,"lng":120.382698},"status":"surplus"},{"frame_index":245,"name":"ports_13","capacity":10000,"empty":618,"full":43,"on_shipper":5,"on_consignee":0,"shortage":0,"acc_shortage":55,"booking":3,"acc_booking":1995,"fulfillment":3,"acc_fulfillment":1940,"transfer_cost":0.0,"port_name":"San Antonio","position":{"lat":29.424349,"lng":-98.491142},"status":"surplus"},{"frame_index":245,"name":"ports_14","capacity":10000,"empty":1133,"full":17,"on_shipper":4,"on_consignee":0,"shortage":0,"acc_shortage":697,"booking":3,"acc_booking":2016,"fulfillment":3,"acc_fulfillment":1319,"transfer_cost":0.0,"port_name":"Santos","position":{"lat":-23.96083,"lng":-46.33361},"status":"surplus"},{"frame_index":245,"name":"ports_15","capacity":10000,"empty":3991,"full":183,"on_shipper":41,"on_consignee":0,"shortage":0,"acc_shortage":0,"booking":18,"acc_booking":13228,"fulfillment":18,"acc_fulfillment":13228,"transfer_cost":0.0,"port_name":"Seattle","position":{"lat":47.608013,"lng":-122.335167},"status":"surplus"},{"frame_index":245,"name":"ports_16","capacity":10000,"empty":3146,"full":1092,"on_shipper":43,"on_consignee":0,"shortage":0,"acc_shortage":0,"booking":21,"acc_booking":18830,"fulfillment":21,"acc_fulfillment":18830,"transfer_cost":0.0,"port_name":"Shanghai","position":{"lat":31.224361,"lng":121.46917},"status":"surplus"},{"frame_index":245,"name":"ports_17","capacity":10000,"empty":511,"full":288,"on_shipper":24,"on_consignee":0,"shortage":0,"acc_shortage":40,"booking":10,"acc_booking":7626,"fulfillment":10,"acc_fulfillment":7586,"transfer_cost":0.0,"port_name":"Singapore","position":{"lat":1.29027,"lng":103.851959},"status":"surplus"},{"frame_index":245,"name":"ports_18","capacity":10000,"empty":200,"full":189,"on_shipper":5,"on_consignee":0,"shortage":0,"acc_shortage":5,"booking":4,"acc_booking":2898,"fulfillment":4,"acc_fulfillment":2893,"transfer_cost":0.0,"port_name":"Sydney","position":{"lat":-33.865143,"lng":151.2099},"status":"surplus"},{"frame_index":245,"name":"ports_19","capacity":10000,"empty":881,"full":227,"on_shipper":10,"on_consignee":0,"shortage":0,"acc_shortage":0,"booking":6,"acc_booking":3884,"fulfillment":6,"acc_fulfillment":3884,"transfer_cost":0.0,"port_name":"Vancouver","position":{"lat":49.246292,"lng":-123.116226},"status":"surplus"},{"frame_index":245,"name":"ports_20","capacity":10000,"empty":1914,"full":949,"on_shipper":37,"on_consignee":0,"shortage":0,"acc_shortage":0,"booking":16,"acc_booking":13046,"fulfillment":16,"acc_fulfillment":13046,"transfer_cost":0.0,"port_name":"Yantian","position":{"lat":26.8533,"lng":119.8575},"status":"surplus"},{"frame_index":245,"name":"ports_21","capacity":10000,"empty":2051,"full":182,"on_shipper":13,"on_consignee":0,"shortage":0,"acc_shortage":492,"booking":7,"acc_booking":12391,"fulfillment":7,"acc_fulfillment":11899,"transfer_cost":0.0,"port_name":"Yokohama","position":{"lat":35.443707,"lng":139.638031},"status":"surplus"}]