[{"frame_index":771,"name":"ports_0","capacity":10000,"empty":3233,"full":3970,"on_shipper":161,"on_consignee":0,"shortage":0,"acc_shortage":522,"booking":116,"acc_booking":99656,"fulfillment":116,"acc_fulfillment":99134,"transfer_cost":0.0,"port_name":"Bremerhaven","position":{"lat":53.549999,"lng":8.583333},"status":"surplus"},{"frame_index":771,"name":"ports_1","capacity":10000,"empty":148,"full":8,"on_shipper":10,"on_consignee":102,"shortage":0,"acc_shortage":10,"booking":8,"acc_booking":6618,"fulfillment":8,"acc_fulfillment":6608,"transfer_cost":0.0,"port_name":"Durban","position":{"lat":-29.8579,"lng":31.0292},"status":"surplus"},{"frame_index":771,"name":"ports_2","capacity":10000,"empty":293,"full":393,"on_shipper":11,"on_consignee":0,"shortage":0,"acc_shortage":298,"booking":7,"acc_booking":6596,"fulfillment":7,"acc_fulfillment":6298,"transfer_cost":0.0,"port_name":"Itagual","position":{"lat":-22.85222,"lng":-43.77528},"status":"surplus"},{"frame_index":771,"name":"ports_3","capacity":10000,"empty":1207,"full":2226,"on_shipper":71,"on_consignee":0,"shortage":0,"acc_shortage":0,"booking":40,"acc_booking":37722,"fulfillment":40,"acc_fulfillment":37722,"transfer_cost":0.0,"port_name":"LeHavre","position":{"lat":49.490002,"lng":0.1},"status":"surplus"},{"frame_index":771,"name":"ports_4","capacity":10000,"empty":1310,"full":1278,"on_shipper":49,"on_consignee":0,"shortage":0,"acc_shortage":290,"booking":34,"acc_booking":31572,"fulfillment":34,"acc_fulfillment":31282,"transfer_cost":0.0,"port_name":"Los Angeles","position":{"lat":34.052235,"lng":-118.243683},"status":"surplus"},{"frame_index":771,"name":"ports_5","capacity":10000,"empty":1720,"full":656,"on_shipper":54,"on_consignee":0,"shortage":0,"acc_shortage":123,"booking":38,"acc_booking":31697,"fulfillment":38,"acc_fulfillment":31574,"transfer_cost":0.0,"port_name":"Manzanillo","position":{"lat":19.11695,"lng":-104.34214},"status":"surplus"},{"frame_index":771,"name":"ports_6","capacity":10000,"empty":395,"full":39,"on_shipper":17,"on_consignee":0,"shortage":0,"acc_shortage":1572,"booking":10,"acc_booking":9716,"fulfillment":10,"acc_fulfillment":8144,"transfer_cost":0.0,"port_name":"Melbourne","position":{"lat":-37.840935,"lng":144.946457},"status":"surplus"},{"frame_index":771,"name":"ports_7","capacity":10000,"empty":861,"full":9,"on_shipper":15,"on_consignee":0,"shortage":0,"acc_shortage":0,"booking":10,"acc_booking":9725,"fulfillment":10,"acc_fulfillment":9725,"transfer_cost":0.0,"port_name":"Montreal","position":{"lat":45.516136,"lng":-73.65683},"status":"surplus"},{"frame_index":771,"name":"ports_8","capacity":10000,"empty":0,"full":0,"on_shipper":0,"on_consignee":4257,"shortage":20,"acc_shortage":115,"booking":20,"acc_booking":18997,"fulfillment":0,"acc_fulfillment":18882,"transfer_cost":0.0,"port_name":"New York","position":{"lat":40.73061,"lng":-73.935242},"status":"demand"},{"frame_index":771,"name":"ports_9","capacity":10000,"empty":290,"full":637,"on_shipper":29,"on_consignee":0,"shortage":0,"acc_shortage":45,"booking":22,"acc_booking":19040,"fulfillment":22,"acc_fulfillment":18995,"transfer_cost":0.0,"port_name":"Oakland","position":{"lat":37.804363,"lng":-122.271111},"status":"surplus"},{"frame_index":771,"name":"ports_10","capacity":10000,"empty":1093,"full":114,"on_shipper":10,"on_consignee":0,"shortage":0,"acc_shortage":314,"booking":9,"acc_booking":9740,"fulfillment":9,"acc_fulfillment":9426,"transfer_cost":0.0,"port_name":"Prince Rupert","position":{"lat":54.312519,"lng":-130.305405},"status":"surplus"},{"frame_index":771,"name":"ports_11","capacity":10000,"empty":2562,"full":391,"on_shipper":66,"on_consignee":0,"shortage":0,"acc_shortage":204,"booking":39,"acc_booking":37673,"fulfillment":39,"acc_fulfillment":37469,"transfer_cost":0.0,"port_name":"Pusan","position":{"lat":35.166668,"lng":129.066666},"status":"surplus"},{"frame_index":771,"name":"ports_12","capacity":10000,"empty":2952,"full":1119,"on_shipper":87,"on_consignee":147,"shortage":0,"acc_shortage":0,"booking":48,"acc_booking":50349,"fulfillment":48,"acc_fulfillment":50349,"transfer_cost":0.0,"port_name":"Qingdao","position":{"lat":36.066898,"lng":120.382698},"status":"surplus"},{"frame_index":771,"name":"ports_13","capacity":10000,"empty":0,"full":617,"on_shipper":0,"on_consignee":0,"shortage":8,"acc_shortage":409,"booking":8,"acc_booking":6608,"fulfillment":0,"acc_fulfillment":6199,"transfer_cost":0.0,"port_name":"San Antonio","position":{"lat":29.424349,"lng":-98.491142},"status":"balance"},{"frame_index":771,"name":"ports_14","capacity":10000,"empty":563,"full":13,"on_shipper":9,"on_consignee":0,"shortage":0,"acc_shortage":762,"booking":7,"acc_booking":6648,"fulfillment":7,"acc_fulfillment":5886,"transfer_cost":0.0,"port_name":"Santos","position":{"lat":-23.96083,"lng":-46.33361},"status":"surplus"},{"frame_index":771,"name":"ports_15","capacity":10000,"empty":96,"full":706,"on_shipper":68,"on_consignee":1377,"shortage":0,"acc_shortage":0,"booking":47,"acc_booking":43993,"fulfillment":47,"acc_fulfillment":43993,"transfer_cost":0.0,"port_name":"Seattle","position":{"lat":47.608013,"lng":-122.335167},"status":"demand"},{"frame_index":771,"name":"ports_16","capacity":10000,"empty":1778,"full":740,"on_shipper":97,"on_consignee":290,"shortage":0,"acc_shortage":760,"booking":76,"acc_booking":62612,"fulfillment":76,"acc_fulfillment":61852,"transfer_cost":0.0,"port_name":"Shanghai","position":{"lat":31.224361,"lng":121.46917},"status":"surplus"},{"frame_index":771,"name":"ports_17","capacity":10000,"empty":629,"full":837,"on_shipper":36,"on_consignee":0,"shortage":0,"acc_shortage":283,"booking":26,"acc_booking":25345,"fulfillment":26,"acc_fulfillment":25062,"transfer_cost":0.0,"port_name":"Singapore","position":{"lat":1.29027,"lng":103.851959},"status":"surplus"},{"frame_index":771,"name":"ports_18","capacity":10000,"empty":0,"full":408,"on_shipper":3,"on_consignee":0,"shortage":10,"acc_shortage":1246,"booking":10,"acc_booking":9728,"fulfillment":0,"acc_fulfillment":8482,"transfer_cost":0.0,"port_name":"Sydney","position":{"lat":-33.865143,"lng":151.2099},"status":"balance"},{"frame_index":771,"name":"ports_19","capacity":10000,"empty":674,"full":699,"on_shipper":20,"on_consignee":0,"shortage":0,"acc_shortage":0,"booking":13,"acc_booking":12895,"fulfillment":13,"acc_fulfillment":12895,"transfer_cost":0.0,"port_name":"Vancouver","position":{"lat":49.246292,"lng":-123.116226},"status":"surplus"},{"frame_index":771,"name":"ports_20","capacity":10000,"empty":1428,"full":164,"on_shipper":70,"on_consignee":195,"shortage":0,"acc_shortage":942,"booking":48,"acc_booking":43701,"fulfillment":48,"acc_fulfillment":42759,"transfer_cost":86.0,"port_name":"Yantian","position":{"lat":26.8533,"lng":119.8575},"status":"surplus"},{"frame_index":771,"name":"ports_21","capacity":10000,"empty":0,"full":383,"on_shipper":0,"on_consignee":0,"shortage":44,"acc_shortage":5788,"booking":44,"acc_booking":41749,"fulfillment":0,"acc_fulfillment":35961,"transfer_cost":0.0,"port_name":"Yokohama","position":{"lat":35.443707,"lng":139.638031},"status":"demand"}]