[{"frame_index":149,"name":"ports_0","capacity":10000,"empty":6022,"full":2029,"on_shipper":91,"on_consignee":213,"shortage":0,"acc_shortage":0,"booking":89,"acc_booking":17600,"fulfillment":89,"acc_fulfillment":17600,"transfer_cost":57.0,"port_name":"Bremerhaven","position":{"lat":53.549999,"lng":8.583333},"status":"surplus"},{"frame_index":149,"name":"ports_1","capacity":10000,"empty":886,"full":5,"on_shipper":8,"on_consignee":18,"shortage":0,"acc_shortage":0,"booking":6,"acc_booking":1185,"fulfillment":6,"acc_fulfillment":1185,"transfer_cost":0.0,"port_name":"Durban","position":{"lat":-29.8579,"lng":31.0292},"status":"surplus"},{"frame_index":149,"name":"ports_2","capacity":10000,"empty":0,"full":720,"on_shipper":0,"on_consignee":0,"shortage":5,"acc_shortage":97,"booking":5,"acc_booking":1177,"fulfillment":0,"acc_fulfillment":1080,"transfer_cost":0.0,"port_name":"Itagual","position":{"lat":-22.85222,"lng":-43.77528},"status":"balance"},{"frame_index":149,"name":"ports_3","capacity":10000,"empty":1730,"full":972,"on_shipper":32,"on_consignee":0,"shortage":0,"acc_shortage":0,"booking":28,"acc_booking":6718,"fulfillment":28,"acc_fulfillment":6718,"transfer_cost":0.0,"port_name":"LeHavre","position":{"lat":49.490002,"lng":0.1},"status":"surplus"},{"frame_index":149,"name":"ports_4","capacity":10000,"empty":2538,"full":1133,"on_shipper":31,"on_consignee":0,"shortage":0,"acc_shortage":0,"booking":24,"acc_booking":5610,"fulfillment":24,"acc_fulfillment":5610,"transfer_cost":0.0,"port_name":"Los Angeles","position":{"lat":34.052235,"lng":-118.243683},"status":"surplus"},{"frame_index":149,"name":"ports_5","capacity":10000,"empty":2587,"full":111,"on_shipper":31,"on_consignee":0,"shortage":0,"acc_shortage":0,"booking":23,"acc_booking":5554,"fulfillment":23,"acc_fulfillment":5554,"transfer_cost":0.0,"port_name":"Manzanillo","position":{"lat":19.11695,"lng":-104.34214},"status":"surplus"},{"frame_index":149,"name":"ports_6","capacity":10000,"empty":664,"full":182,"on_shipper":13,"on_consignee":0,"shortage":0,"acc_shortage":0,"booking":8,"acc_booking":1732,"fulfillment":8,"acc_fulfillment":1732,"transfer_cost":0.0,"port_name":"Melbourne","position":{"lat":-37.840935,"lng":144.946457},"status":"surplus"},{"frame_index":149,"name":"ports_7","capacity":10000,"empty":2596,"full":111,"on_shipper":8,"on_consignee":0,"shortage":0,"acc_shortage":0,"booking":8,"acc_booking":1727,"fulfillment":8,"acc_fulfillment":1727,"transfer_cost":0.0,"port_name":"Montreal","position":{"lat":45.516136,"lng":-73.65683},"status":"surplus"},{"frame_index":149,"name":"ports_8","capacity":10000,"empty":1189,"full":677,"on_shipper":19,"on_consignee":0,"shortage":0,"acc_shortage":0,"booking":14,"acc_booking":3380,"fulfillment":14,"acc_fulfillment":3380,"transfer_cost":0.0,"port_name":"New York","position":{"lat":40.73061,"lng":-73.935242},"status":"surplus"},{"frame_index":149,"name":"ports_9","capacity":10000,"empty":1884,"full":514,"on_shipper":18,"on_consignee":0,"shortage":0,"acc_shortage":0,"booking":14,"acc_booking":3354,"fulfillment":14,"acc_fulfillment":3354,"transfer_cost":0.0,"port_name":"Oakland","position":{"lat":37.804363,"lng":-122.271111},"status":"surplus"},{"frame_index":149,"name":"ports_10","capacity":10000,"empty":1117,"full":12,"on_shipper":9,"on_consignee":0,"shortage":0,"acc_shortage":0,"booking":7,"acc_booking":1719,"fulfillment":7,"acc_fulfillment":1719,"transfer_cost":0.0,"port_name":"Prince Rupert","position":{"lat":54.312519,"lng":-130.305405},"status":"surplus"},{"frame_index":149,"name":"ports_11","capacity":10000,"empty":2337,"full":624,"on_shipper":36,"on_consignee":0,"shortage":0,"acc_shortage":0,"booking":29,"acc_booking":6687,"fulfillment":29,"acc_fulfillment":6687,"transfer_cost":0.0,"port_name":"Pusan","position":{"lat":35.166668,"lng":129.066666},"status":"surplus"},{"frame_index":149,"name":"ports_12","capacity":10000,"empty":4411,"full":604,"on_shipper":53,"on_consignee":0,"shortage":0,"acc_shortage":0,"booking":37,"acc_booking":8926,"fulfillment":37,"acc_fulfillment":8926,"transfer_cost":0.0,"port_name":"Qingdao","position":{"lat":36.066898,"lng":120.382698},"status":"surplus"},{"frame_index":149,"name":"ports_13","capacity":10000,"empty":216,"full":264,"on_shipper":5,"on_consignee":0,"shortage":0,"acc_shortage":0,"booking":5,"acc_booking":1188,"fulfillment":5,"acc_fulfillment":1188,"transfer_cost":0.0,"port_name":"San Antonio","position":{"lat":29.424349,"lng":-98.491142},"status":"surplus"},{"frame_index":149,"name":"ports_14","capacity":10000,"empty":0,"full":224,"on_shipper":0,"on_consignee":0,"shortage":5,"acc_shortage":17,"booking":5,"acc_booking":1193,"fulfillment":0,"acc_fulfillment":1176,"transfer_cost":0.0,"port_name":"Santos","position":{"lat":-23.96083,"lng":-46.33361},"status":"balance"},{"frame_index":149,"name":"ports_15","capacity":10000,"empty":3598,"full":473,"on_shipper":48,"on_consignee":0,"shortage":0,"acc_shortage":0,"booking":33,"acc_booking":7808,"fulfillment":33,"acc_fulfillment":7808,"transfer_cost":0.0,"port_name":"Seattle","position":{"lat":47.608013,"lng":-122.335167},"status":"surplus"},{"frame_index":149,"name":"ports_16","capacity":10000,"empty":2322,"full":844,"on_shipper":52,"on_consignee":0,"shortage":0,"acc_shortage":0,"booking":45,"acc_booking":11197,"fulfillment":45,"acc_fulfillment":11197,"transfer_cost":0.0,"port_name":"Shanghai","position":{"lat":31.224361,"lng":121.46917},"status":"surplus"},{"frame_index":149,"name":"ports_17","capacity":10000,"empty":1450,"full":602,"on_shipper":24,"on_consignee":0,"shortage":0,"acc_shortage":0,"booking":19,"acc_booking":4507,"fulfillment":19,"acc_fulfillment":4507,"transfer_cost":0.0,"port_name":"Singapore","position":{"lat":1.29027,"lng":103.851959},"status":"surplus"},{"frame_index":149,"name":"ports_18","capacity":10000,"empty":605,"full":110,"on_shipper":10,"on_consignee":119,"shortage":0,"acc_shortage":0,"booking":8,"acc_booking":1710,"fulfillment":8,"acc_fulfillment":1710,"transfer_cost":0.0,"port_name":"Sydney","position":{"lat":-33.865143,"lng":151.2099},"status":"surplus"},{"frame_index":149,"name":"ports_19","capacity":10000,"empty":450,"full":333,"on_shipper":13,"on_consignee":776,"shortage":0,"acc_shortage":0,"booking":10,"acc_booking":2294,"fulfillment":10,"acc_fulfillment":2294,"transfer_cost":0.0,"port_name":"Vancouver","position":{"lat":49.246292,"lng":-123.116226},"status":"surplus"},{"frame_index":149,"name":"ports_20","capacity":10000,"empty":2145,"full":176,"on_shipper":39,"on_consignee":273,"shortage":0,"acc_shortage":0,"booking":33,"acc_booking":7659,"fulfillment":33,"acc_fulfillment":7659,"transfer_cost":15.0,"port_name":"Yantian","position":{"lat":26.8533,"lng":119.8575},"status":"surplus"},{"frame_index":149,"name":"ports_21","capacity":10000,"empty":3397,"full":446,"on_shipper":38,"on_consignee":0,"shortage":0,"acc_shortage":0,"booking":28,"acc_booking":7264,"fulfillment":28,"acc_fulfillment":7264,"transfer_cost":0.0,"port_name":"Yokohama","position":{"lat":35.443707,"lng":139.638031},"status":"surplus"}]