[{"frame_index":659,"name":"ports_0","capacity":10000,"empty":4881,"full":2871,"on_shipper":120,"on_consignee":1168,"shortage":0,"acc_shortage":522,"booking":82,"acc_booking":85177,"fulfillment":82,"acc_fulfillment":84655,"transfer_cost":0.0,"port_name":"Bremerhaven","position":{"lat":53.549999,"lng":8.583333},"status":"surplus"},{"frame_index":659,"name":"ports_1","capacity":10000,"empty":134,"full":102,"on_shipper":10,"on_consignee":0,"shortage":0,"acc_shortage":0,"booking":6,"acc_booking":5659,"fulfillment":6,"acc_fulfillment":5659,"transfer_cost":0.0,"port_name":"Durban","position":{"lat":-29.8579,"lng":31.0292},"status":"surplus"},{"frame_index":659,"name":"ports_2","capacity":10000,"empty":490,"full":34,"on_shipper":11,"on_consignee":0,"shortage":0,"acc_shortage":298,"booking":7,"acc_booking":5638,"fulfillment":7,"acc_fulfillment":5340,"transfer_cost":0.0,"port_name":"Itagual","position":{"lat":-22.85222,"lng":-43.77528},"status":"surplus"},{"frame_index":659,"name":"ports_3","capacity":10000,"empty":2504,"full":76,"on_shipper":52,"on_consignee":1297,"shortage":0,"acc_shortage":0,"booking":37,"acc_booking":32232,"fulfillment":37,"acc_fulfillment":32232,"transfer_cost":167.0,"port_name":"LeHavre","position":{"lat":49.490002,"lng":0.1},"status":"surplus"},{"frame_index":659,"name":"ports_4","capacity":10000,"empty":1744,"full":417,"on_shipper":48,"on_consignee":0,"shortage":0,"acc_shortage":150,"booking":31,"acc_booking":26971,"fulfillment":31,"acc_fulfillment":26821,"transfer_cost":0.0,"port_name":"Los Angeles","position":{"lat":34.052235,"lng":-118.243683},"status":"surplus"},{"frame_index":659,"name":"ports_5","capacity":10000,"empty":1462,"full":411,"on_shipper":35,"on_consignee":0,"shortage":0,"acc_shortage":123,"booking":27,"acc_booking":27044,"fulfillment":27,"acc_fulfillment":26921,"transfer_cost":0.0,"port_name":"Manzanillo","position":{"lat":19.11695,"lng":-104.34214},"status":"surplus"},{"frame_index":659,"name":"ports_6","capacity":10000,"empty":335,"full":220,"on_shipper":13,"on_consignee":0,"shortage":0,"acc_shortage":1336,"booking":9,"acc_booking":8299,"fulfillment":9,"acc_fulfillment":6963,"transfer_cost":0.0,"port_name":"Melbourne","position":{"lat":-37.840935,"lng":144.946457},"status":"surplus"},{"frame_index":659,"name":"ports_7","capacity":10000,"empty":738,"full":84,"on_shipper":14,"on_consignee":0,"shortage":0,"acc_shortage":0,"booking":9,"acc_booking":8306,"fulfillment":9,"acc_fulfillment":8306,"transfer_cost":0.0,"port_name":"Montreal","position":{"lat":45.516136,"lng":-73.65683},"status":"surplus"},{"frame_index":659,"name":"ports_8","capacity":10000,"empty":1039,"full":1855,"on_shipper":28,"on_consignee":0,"shortage":0,"acc_shortage":0,"booking":18,"acc_booking":16237,"fulfillment":18,"acc_fulfillment":16237,"transfer_cost":0.0,"port_name":"New York","position":{"lat":40.73061,"lng":-73.935242},"status":"surplus"},{"frame_index":659,"name":"ports_9","capacity":10000,"empty":862,"full":151,"on_shipper":26,"on_consignee":0,"shortage":0,"acc_shortage":45,"booking":20,"acc_booking":16304,"fulfillment":20,"acc_fulfillment":16259,"transfer_cost":0.0,"port_name":"Oakland","position":{"lat":37.804363,"lng":-122.271111},"status":"surplus"},{"frame_index":659,"name":"ports_10","capacity":10000,"empty":977,"full":110,"on_shipper":17,"on_consignee":0,"shortage":0,"acc_shortage":314,"booking":11,"acc_booking":8327,"fulfillment":11,"acc_fulfillment":8013,"transfer_cost":0.0,"port_name":"Prince Rupert","position":{"lat":54.312519,"lng":-130.305405},"status":"surplus"},{"frame_index":659,"name":"ports_11","capacity":10000,"empty":3202,"full":975,"on_shipper":50,"on_consignee":0,"shortage":0,"acc_shortage":204,"booking":35,"acc_booking":32191,"fulfillment":35,"acc_fulfillment":31987,"transfer_cost":0.0,"port_name":"Pusan","position":{"lat":35.166668,"lng":129.066666},"status":"surplus"},{"frame_index":659,"name":"ports_12","capacity":10000,"empty":1268,"full":2206,"on_shipper":84,"on_consignee":0,"shortage":0,"acc_shortage":0,"booking":52,"acc_booking":42973,"fulfillment":52,"acc_fulfillment":42973,"transfer_cost":0.0,"port_name":"Qingdao","position":{"lat":36.066898,"lng":120.382698},"status":"surplus"},{"frame_index":659,"name":"ports_13","capacity":10000,"empty":616,"full":106,"on_shipper":10,"on_consignee":0,"shortage":0,"acc_shortage":325,"booking":7,"acc_booking":5636,"fulfillment":7,"acc_fulfillment":5311,"transfer_cost":0.0,"port_name":"San Antonio","position":{"lat":29.424349,"lng":-98.491142},"status":"surplus"},{"frame_index":659,"name":"ports_14","capacity":10000,"empty":584,"full":180,"on_shipper":7,"on_consignee":0,"shortage":0,"acc_shortage":762,"booking":7,"acc_booking":5685,"fulfillment":7,"acc_fulfillment":4923,"transfer_cost":0.0,"port_name":"Santos","position":{"lat":-23.96083,"lng":-46.33361},"status":"surplus"},{"frame_index":659,"name":"ports_15","capacity":10000,"empty":2073,"full":1821,"on_shipper":62,"on_consignee":0,"shortage":0,"acc_shortage":0,"booking":41,"acc_booking":37549,"fulfillment":41,"acc_fulfillment":37549,"transfer_cost":0.0,"port_name":"Seattle","position":{"lat":47.608013,"lng":-122.335167},"status":"surplus"},{"frame_index":659,"name":"ports_16","capacity":10000,"empty":1021,"full":860,"on_shipper":73,"on_consignee":6,"shortage":0,"acc_shortage":712,"booking":55,"acc_booking":53475,"fulfillment":55,"acc_fulfillment":52763,"transfer_cost":0.0,"port_name":"Shanghai","position":{"lat":31.224361,"lng":121.46917},"status":"surplus"},{"frame_index":659,"name":"ports_17","capacity":10000,"empty":353,"full":659,"on_shipper":37,"on_consignee":0,"shortage":0,"acc_shortage":283,"booking":25,"acc_booking":21649,"fulfillment":25,"acc_fulfillment":21366,"transfer_cost":0.0,"port_name":"Singapore","position":{"lat":1.29027,"lng":103.851959},"status":"surplus"},{"frame_index":659,"name":"ports_18","capacity":10000,"empty":0,"full":265,"on_shipper":0,"on_consignee":0,"shortage":10,"acc_shortage":1016,"booking":10,"acc_booking":8268,"fulfillment":0,"acc_fulfillment":7252,"transfer_cost":0.0,"port_name":"Sydney","position":{"lat":-33.865143,"lng":151.2099},"status":"balance"},{"frame_index":659,"name":"ports_19","capacity":10000,"empty":600,"full":709,"on_shipper":25,"on_consignee":0,"shortage":0,"acc_shortage":0,"booking":13,"acc_booking":11023,"fulfillment":13,"acc_fulfillment":11023,"transfer_cost":0.0,"port_name":"Vancouver","position":{"lat":49.246292,"lng":-123.116226},"status":"surplus"},{"frame_index":659,"name":"ports_20","capacity":10000,"empty":767,"full":611,"on_shipper":60,"on_consignee":0,"shortage":0,"acc_shortage":395,"booking":44,"acc_booking":37303,"fulfillment":44,"acc_fulfillment":36908,"transfer_cost":0.0,"port_name":"Yantian","position":{"lat":26.8533,"lng":119.8575},"status":"surplus"},{"frame_index":659,"name":"ports_21","capacity":10000,"empty":0,"full":2432,"on_shipper":0,"on_consignee":0,"shortage":36,"acc_shortage":3955,"booking":36,"acc_booking":35668,"fulfillment":0,"acc_fulfillment":31713,"transfer_cost":0.0,"port_name":"Yokohama","position":{"lat":35.443707,"lng":139.638031},"status":"demand"}]