[{"frame_index":171,"name":"ports_0","capacity":10000,"empty":6304,"full":3386,"on_shipper":549,"on_consignee":0,"shortage":0,"acc_shortage":0,"booking":261,"acc_booking":22164,"fulfillment":261,"acc_fulfillment":22164,"transfer_cost":0.0,"port_name":"Bremerhaven","position":{"lat":53.549999,"lng":8.583333},"status":"surplus"},{"frame_index":171,"name":"ports_1","capacity":10000,"empty":603,"full":280,"on_shipper":34,"on_consignee":0,"shortage":0,"acc_shortage":0,"booking":18,"acc_booking":1486,"fulfillment":18,"acc_fulfillment":1486,"transfer_cost":0.0,"port_name":"Durban","position":{"lat":-29.8579,"lng":31.0292},"status":"surplus"},{"frame_index":171,"name":"ports_2","capacity":10000,"empty":423,"full":274,"on_shipper":23,"on_consignee":0,"shortage":0,"acc_shortage":233,"booking":19,"acc_booking":1476,"fulfillment":19,"acc_fulfillment":1243,"transfer_cost":0.0,"port_name":"Itagual","position":{"lat":-22.85222,"lng":-43.77528},"status":"surplus"},{"frame_index":171,"name":"ports_3","capacity":10000,"empty":3310,"full":693,"on_shipper":162,"on_consignee":0,"shortage":0,"acc_shortage":0,"booking":109,"acc_booking":8443,"fulfillment":109,"acc_fulfillment":8443,"transfer_cost":0.0,"port_name":"LeHavre","position":{"lat":49.490002,"lng":0.1},"status":"surplus"},{"frame_index":171,"name":"ports_4","capacity":10000,"empty":1993,"full":1405,"on_shipper":110,"on_consignee":0,"shortage":0,"acc_shortage":0,"booking":93,"acc_booking":7060,"fulfillment":93,"acc_fulfillment":7060,"transfer_cost":0.0,"port_name":"Los Angeles","position":{"lat":34.052235,"lng":-118.243683},"status":"surplus"},{"frame_index":171,"name":"ports_5","capacity":10000,"empty":1372,"full":545,"on_shipper":171,"on_consignee":0,"shortage":0,"acc_shortage":0,"booking":105,"acc_booking":7054,"fulfillment":105,"acc_fulfillment":7054,"transfer_cost":0.0,"port_name":"Manzanillo","position":{"lat":19.11695,"lng":-104.34214},"status":"surplus"},{"frame_index":171,"name":"ports_6","capacity":10000,"empty":265,"full":387,"on_shipper":58,"on_consignee":0,"shortage":0,"acc_shortage":0,"booking":28,"acc_booking":2174,"fulfillment":28,"acc_fulfillment":2174,"transfer_cost":0.0,"port_name":"Melbourne","position":{"lat":-37.840935,"lng":144.946457},"status":"surplus"},{"frame_index":171,"name":"ports_7","capacity":10000,"empty":2154,"full":504,"on_shipper":57,"on_consignee":0,"shortage":0,"acc_shortage":0,"booking":28,"acc_booking":2169,"fulfillment":28,"acc_fulfillment":2169,"transfer_cost":0.0,"port_name":"Montreal","position":{"lat":45.516136,"lng":-73.65683},"status":"surplus"},{"frame_index":171,"name":"ports_8","capacity":10000,"empty":4068,"full":323,"on_shipper":58,"on_consignee":0,"shortage":0,"acc_shortage":0,"booking":58,"acc_booking":4241,"fulfillment":58,"acc_fulfillment":4241,"transfer_cost":0.0,"port_name":"New York","position":{"lat":40.73061,"lng":-73.935242},"status":"surplus"},{"frame_index":171,"name":"ports_9","capacity":10000,"empty":1013,"full":1342,"on_shipper":61,"on_consignee":0,"shortage":0,"acc_shortage":0,"booking":48,"acc_booking":4225,"fulfillment":48,"acc_fulfillment":4225,"transfer_cost":0.0,"port_name":"Oakland","position":{"lat":37.804363,"lng":-122.271111},"status":"surplus"},{"frame_index":171,"name":"ports_10","capacity":10000,"empty":819,"full":21,"on_shipper":47,"on_consignee":206,"shortage":0,"acc_shortage":0,"booking":27,"acc_booking":2159,"fulfillment":27,"acc_fulfillment":2159,"transfer_cost":0.0,"port_name":"Prince Rupert","position":{"lat":54.312519,"lng":-130.305405},"status":"surplus"},{"frame_index":171,"name":"ports_11","capacity":10000,"empty":848,"full":348,"on_shipper":161,"on_consignee":796,"shortage":0,"acc_shortage":0,"booking":107,"acc_booking":8416,"fulfillment":107,"acc_fulfillment":8416,"transfer_cost":0.0,"port_name":"Pusan","position":{"lat":35.166668,"lng":129.066666},"status":"surplus"},{"frame_index":171,"name":"ports_12","capacity":10000,"empty":2126,"full":1556,"on_shipper":233,"on_consignee":0,"shortage":0,"acc_shortage":0,"booking":156,"acc_booking":11241,"fulfillment":156,"acc_fulfillment":11241,"transfer_cost":0.0,"port_name":"Qingdao","position":{"lat":36.066898,"lng":120.382698},"status":"surplus"},{"frame_index":171,"name":"ports_13","capacity":10000,"empty":224,"full":0,"on_shipper":18,"on_consignee":0,"shortage":0,"acc_shortage":55,"booking":18,"acc_booking":1477,"fulfillment":18,"acc_fulfillment":1422,"transfer_cost":0.0,"port_name":"San Antonio","position":{"lat":29.424349,"lng":-98.491142},"status":"surplus"},{"frame_index":171,"name":"ports_14","capacity":10000,"empty":0,"full":224,"on_shipper":0,"on_consignee":0,"shortage":19,"acc_shortage":319,"booking":19,"acc_booking":1495,"fulfillment":0,"acc_fulfillment":1176,"transfer_cost":0.0,"port_name":"Santos","position":{"lat":-23.96083,"lng":-46.33361},"status":"demand"},{"frame_index":171,"name":"ports_15","capacity":10000,"empty":2215,"full":1768,"on_shipper":136,"on_consignee":0,"shortage":0,"acc_shortage":0,"booking":136,"acc_booking":9828,"fulfillment":136,"acc_fulfillment":9828,"transfer_cost":0.0,"port_name":"Seattle","position":{"lat":47.608013,"lng":-122.335167},"status":"surplus"},{"frame_index":171,"name":"ports_16","capacity":10000,"empty":2221,"full":1527,"on_shipper":282,"on_consignee":344,"shortage":0,"acc_shortage":0,"booking":196,"acc_booking":14055,"fulfillment":196,"acc_fulfillment":14055,"transfer_cost":71.0,"port_name":"Shanghai","position":{"lat":31.224361,"lng":121.46917},"status":"surplus"},{"frame_index":171,"name":"ports_17","capacity":10000,"empty":164,"full":1002,"on_shipper":116,"on_consignee":0,"shortage":0,"acc_shortage":0,"booking":77,"acc_booking":5666,"fulfillment":77,"acc_fulfillment":5666,"transfer_cost":0.0,"port_name":"Singapore","position":{"lat":1.29027,"lng":103.851959},"status":"demand"},{"frame_index":171,"name":"ports_18","capacity":10000,"empty":288,"full":515,"on_shipper":41,"on_consignee":0,"shortage":0,"acc_shortage":0,"booking":31,"acc_booking":2146,"fulfillment":31,"acc_fulfillment":2146,"transfer_cost":0.0,"port_name":"Sydney","position":{"lat":-33.865143,"lng":151.2099},"status":"surplus"},{"frame_index":171,"name":"ports_19","capacity":10000,"empty":751,"full":319,"on_shipper":70,"on_consignee":0,"shortage":0,"acc_shortage":0,"booking":38,"acc_booking":2874,"fulfillment":38,"acc_fulfillment":2874,"transfer_cost":0.0,"port_name":"Vancouver","position":{"lat":49.246292,"lng":-123.116226},"status":"surplus"},{"frame_index":171,"name":"ports_20","capacity":10000,"empty":1498,"full":1289,"on_shipper":221,"on_consignee":0,"shortage":0,"acc_shortage":0,"booking":137,"acc_booking":9678,"fulfillment":137,"acc_fulfillment":9678,"transfer_cost":0.0,"port_name":"Yantian","position":{"lat":26.8533,"lng":119.8575},"status":"surplus"},{"frame_index":171,"name":"ports_21","capacity":10000,"empty":1361,"full":2178,"on_shipper":137,"on_consignee":0,"shortage":0,"acc_shortage":0,"booking":137,"acc_booking":9335,"fulfillment":137,"acc_fulfillment":9335,"transfer_cost":0.0,"port_name":"Yokohama","position":{"lat":35.443707,"lng":139.638031},"status":"surplus"}]