[{"frame_index":1044,"name":"ports_0","capacity":10000,"empty":4991,"full":1798,"on_shipper":134,"on_consignee":1748,"shortage":0,"acc_shortage":861,"booking":73,"acc_booking":132868,"fulfillment":73,"acc_fulfillment":132007,"transfer_cost":1697.0,"port_name":"Bremerhaven","position":{"lat":53.549999,"lng":8.583333},"status":"surplus"},{"frame_index":1044,"name":"ports_1","capacity":10000,"empty":543,"full":64,"on_shipper":9,"on_consignee":0,"shortage":0,"acc_shortage":113,"booking":5,"acc_booking":8831,"fulfillment":5,"acc_fulfillment":8718,"transfer_cost":0.0,"port_name":"Durban","position":{"lat":-29.8579,"lng":31.0292},"status":"surplus"},{"frame_index":1044,"name":"ports_2","capacity":10000,"empty":131,"full":0,"on_shipper":6,"on_consignee":625,"shortage":0,"acc_shortage":298,"booking":6,"acc_booking":8799,"fulfillment":6,"acc_fulfillment":8501,"transfer_cost":18.0,"port_name":"Itagual","position":{"lat":-22.85222,"lng":-43.77528},"status":"surplus"},{"frame_index":1044,"name":"ports_3","capacity":10000,"empty":5725,"full":718,"on_shipper":42,"on_consignee":301,"shortage":0,"acc_shortage":0,"booking":30,"acc_booking":50263,"fulfillment":30,"acc_fulfillment":50263,"transfer_cost":41.0,"port_name":"LeHavre","position":{"lat":49.490002,"lng":0.1},"status":"surplus"},{"frame_index":1044,"name":"ports_4","capacity":10000,"empty":2922,"full":247,"on_shipper":43,"on_consignee":0,"shortage":0,"acc_shortage":290,"booking":25,"acc_booking":42091,"fulfillment":25,"acc_fulfillment":41801,"transfer_cost":0.0,"port_name":"Los Angeles","position":{"lat":34.052235,"lng":-118.243683},"status":"surplus"},{"frame_index":1044,"name":"ports_5","capacity":10000,"empty":2150,"full":276,"on_shipper":33,"on_consignee":0,"shortage":0,"acc_shortage":194,"booking":26,"acc_booking":42100,"fulfillment":26,"acc_fulfillment":41906,"transfer_cost":0.0,"port_name":"Manzanillo","position":{"lat":19.11695,"lng":-104.34214},"status":"surplus"},{"frame_index":1044,"name":"ports_6","capacity":10000,"empty":498,"full":117,"on_shipper":15,"on_consignee":0,"shortage":0,"acc_shortage":2108,"booking":8,"acc_booking":12964,"fulfillment":8,"acc_fulfillment":10856,"transfer_cost":0.0,"port_name":"Melbourne","position":{"lat":-37.840935,"lng":144.946457},"status":"surplus"},{"frame_index":1044,"name":"ports_7","capacity":10000,"empty":1512,"full":213,"on_shipper":13,"on_consignee":0,"shortage":0,"acc_shortage":0,"booking":8,"acc_booking":12969,"fulfillment":8,"acc_fulfillment":12969,"transfer_cost":0.0,"port_name":"Montreal","position":{"lat":45.516136,"lng":-73.65683},"status":"surplus"},{"frame_index":1044,"name":"ports_8","capacity":10000,"empty":4993,"full":412,"on_shipper":24,"on_consignee":0,"shortage":0,"acc_shortage":136,"booking":15,"acc_booking":25342,"fulfillment":15,"acc_fulfillment":25206,"transfer_cost":0.0,"port_name":"New York","position":{"lat":40.73061,"lng":-73.935242},"status":"surplus"},{"frame_index":1044,"name":"ports_9","capacity":10000,"empty":1328,"full":496,"on_shipper":22,"on_consignee":0,"shortage":0,"acc_shortage":45,"booking":17,"acc_booking":25394,"fulfillment":17,"acc_fulfillment":25349,"transfer_cost":0.0,"port_name":"Oakland","position":{"lat":37.804363,"lng":-122.271111},"status":"surplus"},{"frame_index":1044,"name":"ports_10","capacity":10000,"empty":1352,"full":258,"on_shipper":13,"on_consignee":0,"shortage":0,"acc_shortage":314,"booking":9,"acc_booking":12973,"fulfillment":9,"acc_fulfillment":12659,"transfer_cost":0.0,"port_name":"Prince Rupert","position":{"lat":54.312519,"lng":-130.305405},"status":"surplus"},{"frame_index":1044,"name":"ports_11","capacity":10000,"empty":2382,"full":1654,"on_shipper":50,"on_consignee":0,"shortage":0,"acc_shortage":204,"booking":29,"acc_booking":50210,"fulfillment":29,"acc_fulfillment":50006,"transfer_cost":0.0,"port_name":"Pusan","position":{"lat":35.166668,"lng":129.066666},"status":"surplus"},{"frame_index":1044,"name":"ports_12","capacity":10000,"empty":5048,"full":424,"on_shipper":67,"on_consignee":59,"shortage":0,"acc_shortage":0,"booking":35,"acc_booking":67131,"fulfillment":35,"acc_fulfillment":67131,"transfer_cost":696.0,"port_name":"Qingdao","position":{"lat":36.066898,"lng":120.382698},"status":"surplus"},{"frame_index":1044,"name":"ports_13","capacity":10000,"empty":129,"full":226,"on_shipper":9,"on_consignee":0,"shortage":0,"acc_shortage":459,"booking":5,"acc_booking":8803,"fulfillment":5,"acc_fulfillment":8344,"transfer_cost":0.0,"port_name":"San Antonio","position":{"lat":29.424349,"lng":-98.491142},"status":"surplus"},{"frame_index":1044,"name":"ports_14","capacity":10000,"empty":181,"full":188,"on_shipper":9,"on_consignee":0,"shortage":0,"acc_shortage":877,"booking":6,"acc_booking":8858,"fulfillment":6,"acc_fulfillment":7981,"transfer_cost":0.0,"port_name":"Santos","position":{"lat":-23.96083,"lng":-46.33361},"status":"surplus"},{"frame_index":1044,"name":"ports_15","capacity":10000,"empty":2915,"full":947,"on_shipper":49,"on_consignee":0,"shortage":0,"acc_shortage":1489,"booking":34,"acc_booking":58603,"fulfillment":34,"acc_fulfillment":57114,"transfer_cost":0.0,"port_name":"Seattle","position":{"lat":47.608013,"lng":-122.335167},"status":"surplus"},{"frame_index":1044,"name":"ports_16","capacity":10000,"empty":2590,"full":2132,"on_shipper":58,"on_consignee":0,"shortage":0,"acc_shortage":817,"booking":44,"acc_booking":83623,"fulfillment":44,"acc_fulfillment":82806,"transfer_cost":0.0,"port_name":"Shanghai","position":{"lat":31.224361,"lng":121.46917},"status":"surplus"},{"frame_index":1044,"name":"ports_17","capacity":10000,"empty":746,"full":647,"on_shipper":33,"on_consignee":104,"shortage":0,"acc_shortage":619,"booking":21,"acc_booking":33756,"fulfillment":21,"acc_fulfillment":33137,"transfer_cost":0.0,"port_name":"Singapore","position":{"lat":1.29027,"lng":103.851959},"status":"surplus"},{"frame_index":1044,"name":"ports_18","capacity":10000,"empty":739,"full":228,"on_shipper":17,"on_consignee":0,"shortage":0,"acc_shortage":1374,"booking":7,"acc_booking":12970,"fulfillment":7,"acc_fulfillment":11596,"transfer_cost":0.0,"port_name":"Sydney","position":{"lat":-33.865143,"lng":151.2099},"status":"surplus"},{"frame_index":1044,"name":"ports_19","capacity":10000,"empty":1538,"full":154,"on_shipper":19,"on_consignee":0,"shortage":0,"acc_shortage":0,"booking":11,"acc_booking":17164,"fulfillment":11,"acc_fulfillment":17164,"transfer_cost":0.0,"port_name":"Vancouver","position":{"lat":49.246292,"lng":-123.116226},"status":"surplus"},{"frame_index":1044,"name":"ports_20","capacity":10000,"empty":858,"full":1302,"on_shipper":56,"on_consignee":113,"shortage":0,"acc_shortage":1425,"booking":39,"acc_booking":58328,"fulfillment":39,"acc_fulfillment":56903,"transfer_cost":545.0,"port_name":"Yantian","position":{"lat":26.8533,"lng":119.8575},"status":"surplus"},{"frame_index":1044,"name":"ports_21","capacity":10000,"empty":0,"full":1073,"on_shipper":22,"on_consignee":0,"shortage":26,"acc_shortage":7773,"booking":29,"acc_booking":55428,"fulfillment":3,"acc_fulfillment":47655,"transfer_cost":0.0,"port_name":"Yokohama","position":{"lat":35.443707,"lng":139.638031},"status":"demand"}]