[{"frame_index":765,"name":"ports_0","capacity":10000,"empty":3826,"full":3456,"on_shipper":82,"on_consignee":0,"shortage":0,"acc_shortage":522,"booking":42,"acc_booking":99063,"fulfillment":42,"acc_fulfillment":98541,"transfer_cost":0.0,"port_name":"Bremerhaven","position":{"lat":53.549999,"lng":8.583333},"status":"surplus"},{"frame_index":765,"name":"ports_1","capacity":10000,"empty":199,"full":208,"on_shipper":5,"on_consignee":0,"shortage":0,"acc_shortage":10,"booking":3,"acc_booking":6579,"fulfillment":3,"acc_fulfillment":6569,"transfer_cost":0.0,"port_name":"Durban","position":{"lat":-29.8579,"lng":31.0292},"status":"surplus"},{"frame_index":765,"name":"ports_2","capacity":10000,"empty":334,"full":359,"on_shipper":4,"on_consignee":0,"shortage":0,"acc_shortage":298,"booking":3,"acc_booking":6555,"fulfillment":3,"acc_fulfillment":6257,"transfer_cost":0.0,"port_name":"Itagual","position":{"lat":-22.85222,"lng":-43.77528},"status":"surplus"},{"frame_index":765,"name":"ports_3","capacity":10000,"empty":28,"full":3109,"on_shipper":21,"on_consignee":199,"shortage":0,"acc_shortage":0,"booking":15,"acc_booking":37498,"fulfillment":15,"acc_fulfillment":37498,"transfer_cost":0.0,"port_name":"LeHavre","position":{"lat":49.490002,"lng":0.1},"status":"balance"},{"frame_index":765,"name":"ports_4","capacity":10000,"empty":1495,"full":1120,"on_shipper":22,"on_consignee":0,"shortage":0,"acc_shortage":290,"booking":12,"acc_booking":31387,"fulfillment":12,"acc_fulfillment":31097,"transfer_cost":0.0,"port_name":"Los Angeles","position":{"lat":34.052235,"lng":-118.243683},"status":"surplus"},{"frame_index":765,"name":"ports_5","capacity":10000,"empty":1914,"full":492,"on_shipper":24,"on_consignee":0,"shortage":0,"acc_shortage":123,"booking":12,"acc_booking":31503,"fulfillment":12,"acc_fulfillment":31380,"transfer_cost":0.0,"port_name":"Manzanillo","position":{"lat":19.11695,"lng":-104.34214},"status":"surplus"},{"frame_index":765,"name":"ports_6","capacity":10000,"empty":309,"full":18,"on_shipper":9,"on_consignee":0,"shortage":0,"acc_shortage":1572,"booking":4,"acc_booking":9659,"fulfillment":4,"acc_fulfillment":8087,"transfer_cost":0.0,"port_name":"Melbourne","position":{"lat":-37.840935,"lng":144.946457},"status":"surplus"},{"frame_index":765,"name":"ports_7","capacity":10000,"empty":82,"full":676,"on_shipper":6,"on_consignee":0,"shortage":0,"acc_shortage":0,"booking":4,"acc_booking":9668,"fulfillment":4,"acc_fulfillment":9668,"transfer_cost":0.0,"port_name":"Montreal","position":{"lat":45.516136,"lng":-73.65683},"status":"surplus"},{"frame_index":765,"name":"ports_8","capacity":10000,"empty":0,"full":1069,"on_shipper":11,"on_consignee":0,"shortage":2,"acc_shortage":2,"booking":8,"acc_booking":18884,"fulfillment":6,"acc_fulfillment":18882,"transfer_cost":0.0,"port_name":"New York","position":{"lat":40.73061,"lng":-73.935242},"status":"balance"},{"frame_index":765,"name":"ports_9","capacity":10000,"empty":405,"full":536,"on_shipper":15,"on_consignee":0,"shortage":0,"acc_shortage":45,"booking":8,"acc_booking":18925,"fulfillment":8,"acc_fulfillment":18880,"transfer_cost":0.0,"port_name":"Oakland","position":{"lat":37.804363,"lng":-122.271111},"status":"surplus"},{"frame_index":765,"name":"ports_10","capacity":10000,"empty":1150,"full":58,"on_shipper":9,"on_consignee":0,"shortage":0,"acc_shortage":314,"booking":4,"acc_booking":9683,"fulfillment":4,"acc_fulfillment":9369,"transfer_cost":0.0,"port_name":"Prince Rupert","position":{"lat":54.312519,"lng":-130.305405},"status":"surplus"},{"frame_index":765,"name":"ports_11","capacity":10000,"empty":2500,"full":209,"on_shipper":26,"on_consignee":284,"shortage":0,"acc_shortage":204,"booking":14,"acc_booking":37451,"fulfillment":14,"acc_fulfillment":37247,"transfer_cost":0.0,"port_name":"Pusan","position":{"lat":35.166668,"lng":129.066666},"status":"surplus"},{"frame_index":765,"name":"ports_12","capacity":10000,"empty":3104,"full":1072,"on_shipper":41,"on_consignee":0,"shortage":0,"acc_shortage":0,"booking":21,"acc_booking":50044,"fulfillment":21,"acc_fulfillment":50044,"transfer_cost":0.0,"port_name":"Qingdao","position":{"lat":36.066898,"lng":120.382698},"status":"surplus"},{"frame_index":765,"name":"ports_13","capacity":10000,"empty":0,"full":617,"on_shipper":0,"on_consignee":0,"shortage":3,"acc_shortage":370,"booking":3,"acc_booking":6569,"fulfillment":0,"acc_fulfillment":6199,"transfer_cost":0.0,"port_name":"San Antonio","position":{"lat":29.424349,"lng":-98.491142},"status":"balance"},{"frame_index":765,"name":"ports_14","capacity":10000,"empty":197,"full":708,"on_shipper":3,"on_consignee":0,"shortage":0,"acc_shortage":762,"booking":3,"acc_booking":6608,"fulfillment":3,"acc_fulfillment":5846,"transfer_cost":0.0,"port_name":"Santos","position":{"lat":-23.96083,"lng":-46.33361},"status":"surplus"},{"frame_index":765,"name":"ports_15","capacity":10000,"empty":353,"full":3449,"on_shipper":27,"on_consignee":0,"shortage":0,"acc_shortage":0,"booking":16,"acc_booking":43736,"fulfillment":16,"acc_fulfillment":43736,"transfer_cost":0.0,"port_name":"Seattle","position":{"lat":47.608013,"lng":-122.335167},"status":"surplus"},{"frame_index":765,"name":"ports_16","capacity":10000,"empty":1625,"full":747,"on_shipper":34,"on_consignee":6,"shortage":0,"acc_shortage":760,"booking":24,"acc_booking":62236,"fulfillment":24,"acc_fulfillment":61476,"transfer_cost":1.0,"port_name":"Shanghai","position":{"lat":31.224361,"lng":121.46917},"status":"surplus"},{"frame_index":765,"name":"ports_17","capacity":10000,"empty":402,"full":1048,"on_shipper":14,"on_consignee":0,"shortage":0,"acc_shortage":283,"booking":10,"acc_booking":25198,"fulfillment":10,"acc_fulfillment":24915,"transfer_cost":0.0,"port_name":"Singapore","position":{"lat":1.29027,"lng":103.851959},"status":"surplus"},{"frame_index":765,"name":"ports_18","capacity":10000,"empty":40,"full":363,"on_shipper":8,"on_consignee":0,"shortage":0,"acc_shortage":1226,"booking":4,"acc_booking":9668,"fulfillment":4,"acc_fulfillment":8442,"transfer_cost":0.0,"port_name":"Sydney","position":{"lat":-33.865143,"lng":151.2099},"status":"balance"},{"frame_index":765,"name":"ports_19","capacity":10000,"empty":751,"full":635,"on_shipper":7,"on_consignee":0,"shortage":0,"acc_shortage":0,"booking":5,"acc_booking":12818,"fulfillment":5,"acc_fulfillment":12818,"transfer_cost":0.0,"port_name":"Vancouver","position":{"lat":49.246292,"lng":-123.116226},"status":"surplus"},{"frame_index":765,"name":"ports_20","capacity":10000,"empty":147,"full":2239,"on_shipper":31,"on_consignee":225,"shortage":0,"acc_shortage":942,"booking":16,"acc_booking":43435,"fulfillment":16,"acc_fulfillment":42493,"transfer_cost":0.0,"port_name":"Yantian","position":{"lat":26.8533,"lng":119.8575},"status":"surplus"},{"frame_index":765,"name":"ports_21","capacity":10000,"empty":0,"full":383,"on_shipper":0,"on_consignee":0,"shortage":8,"acc_shortage":5554,"booking":8,"acc_booking":41515,"fulfillment":0,"acc_fulfillment":35961,"transfer_cost":0.0,"port_name":"Yokohama","position":{"lat":35.443707,"lng":139.638031},"status":"balance"}]