[{"frame_index":749,"name":"ports_0","capacity":10000,"empty":2603,"full":3694,"on_shipper":186,"on_consignee":0,"shortage":0,"acc_shortage":522,"booking":62,"acc_booking":97179,"fulfillment":62,"acc_fulfillment":96657,"transfer_cost":0.0,"port_name":"Bremerhaven","position":{"lat":53.549999,"lng":8.583333},"status":"surplus"},{"frame_index":749,"name":"ports_1","capacity":10000,"empty":326,"full":78,"on_shipper":8,"on_consignee":0,"shortage":0,"acc_shortage":10,"booking":4,"acc_booking":6452,"fulfillment":4,"acc_fulfillment":6442,"transfer_cost":0.0,"port_name":"Durban","position":{"lat":-29.8579,"lng":31.0292},"status":"surplus"},{"frame_index":749,"name":"ports_2","capacity":10000,"empty":460,"full":225,"on_shipper":12,"on_consignee":0,"shortage":0,"acc_shortage":298,"booking":4,"acc_booking":6429,"fulfillment":4,"acc_fulfillment":6131,"transfer_cost":0.0,"port_name":"Itagual","position":{"lat":-22.85222,"lng":-43.77528},"status":"surplus"},{"frame_index":749,"name":"ports_3","capacity":10000,"empty":742,"full":2936,"on_shipper":49,"on_consignee":0,"shortage":0,"acc_shortage":0,"booking":23,"acc_booking":36783,"fulfillment":23,"acc_fulfillment":36783,"transfer_cost":0.0,"port_name":"LeHavre","position":{"lat":49.490002,"lng":0.1},"status":"surplus"},{"frame_index":749,"name":"ports_4","capacity":10000,"empty":1862,"full":665,"on_shipper":30,"on_consignee":0,"shortage":0,"acc_shortage":290,"booking":18,"acc_booking":30791,"fulfillment":18,"acc_fulfillment":30501,"transfer_cost":0.0,"port_name":"Los Angeles","position":{"lat":34.052235,"lng":-118.243683},"status":"surplus"},{"frame_index":749,"name":"ports_5","capacity":10000,"empty":250,"full":1687,"on_shipper":41,"on_consignee":0,"shortage":0,"acc_shortage":123,"booking":18,"acc_booking":30890,"fulfillment":18,"acc_fulfillment":30767,"transfer_cost":0.0,"port_name":"Manzanillo","position":{"lat":19.11695,"lng":-104.34214},"status":"surplus"},{"frame_index":749,"name":"ports_6","capacity":10000,"empty":0,"full":450,"on_shipper":0,"on_consignee":0,"shortage":6,"acc_shortage":1407,"booking":6,"acc_booking":9475,"fulfillment":0,"acc_fulfillment":8068,"transfer_cost":0.0,"port_name":"Melbourne","position":{"lat":-37.840935,"lng":144.946457},"status":"balance"},{"frame_index":749,"name":"ports_7","capacity":10000,"empty":267,"full":491,"on_shipper":6,"on_consignee":0,"shortage":0,"acc_shortage":0,"booking":6,"acc_booking":9483,"fulfillment":6,"acc_fulfillment":9483,"transfer_cost":0.0,"port_name":"Montreal","position":{"lat":45.516136,"lng":-73.65683},"status":"surplus"},{"frame_index":749,"name":"ports_8","capacity":10000,"empty":359,"full":710,"on_shipper":11,"on_consignee":0,"shortage":0,"acc_shortage":0,"booking":11,"acc_booking":18523,"fulfillment":11,"acc_fulfillment":18523,"transfer_cost":0.0,"port_name":"New York","position":{"lat":40.73061,"lng":-73.935242},"status":"surplus"},{"frame_index":749,"name":"ports_9","capacity":10000,"empty":765,"full":175,"on_shipper":16,"on_consignee":0,"shortage":0,"acc_shortage":45,"booking":13,"acc_booking":18565,"fulfillment":13,"acc_fulfillment":18520,"transfer_cost":0.0,"port_name":"Oakland","position":{"lat":37.804363,"lng":-122.271111},"status":"surplus"},{"frame_index":749,"name":"ports_10","capacity":10000,"empty":1204,"full":18,"on_shipper":11,"on_consignee":243,"shortage":0,"acc_shortage":314,"booking":7,"acc_booking":9503,"fulfillment":7,"acc_fulfillment":9189,"transfer_cost":0.0,"port_name":"Prince Rupert","position":{"lat":54.312519,"lng":-130.305405},"status":"surplus"},{"frame_index":749,"name":"ports_11","capacity":10000,"empty":2926,"full":450,"on_shipper":49,"on_consignee":310,"shortage":0,"acc_shortage":204,"booking":22,"acc_booking":36740,"fulfillment":22,"acc_fulfillment":36536,"transfer_cost":0.0,"port_name":"Pusan","position":{"lat":35.166668,"lng":129.066666},"status":"surplus"},{"frame_index":749,"name":"ports_12","capacity":10000,"empty":2918,"full":1631,"on_shipper":56,"on_consignee":0,"shortage":0,"acc_shortage":0,"booking":26,"acc_booking":49072,"fulfillment":26,"acc_fulfillment":49072,"transfer_cost":0.0,"port_name":"Qingdao","position":{"lat":36.066898,"lng":120.382698},"status":"surplus"},{"frame_index":749,"name":"ports_13","capacity":10000,"empty":80,"full":529,"on_shipper":8,"on_consignee":0,"shortage":0,"acc_shortage":325,"booking":4,"acc_booking":6444,"fulfillment":4,"acc_fulfillment":6119,"transfer_cost":0.0,"port_name":"San Antonio","position":{"lat":29.424349,"lng":-98.491142},"status":"surplus"},{"frame_index":749,"name":"ports_14","capacity":10000,"empty":327,"full":576,"on_shipper":5,"on_consignee":0,"shortage":0,"acc_shortage":762,"booking":3,"acc_booking":6478,"fulfillment":3,"acc_fulfillment":5716,"transfer_cost":0.0,"port_name":"Santos","position":{"lat":-23.96083,"lng":-46.33361},"status":"surplus"},{"frame_index":749,"name":"ports_15","capacity":10000,"empty":730,"full":3029,"on_shipper":73,"on_consignee":0,"shortage":0,"acc_shortage":0,"booking":26,"acc_booking":42903,"fulfillment":26,"acc_fulfillment":42903,"transfer_cost":0.0,"port_name":"Seattle","position":{"lat":47.608013,"lng":-122.335167},"status":"surplus"},{"frame_index":749,"name":"ports_16","capacity":10000,"empty":578,"full":2935,"on_shipper":94,"on_consignee":11,"shortage":0,"acc_shortage":760,"booking":40,"acc_booking":61022,"fulfillment":40,"acc_fulfillment":60262,"transfer_cost":0.0,"port_name":"Shanghai","position":{"lat":31.224361,"lng":121.46917},"status":"surplus"},{"frame_index":749,"name":"ports_17","capacity":10000,"empty":2349,"full":987,"on_shipper":40,"on_consignee":0,"shortage":0,"acc_shortage":283,"booking":15,"acc_booking":24719,"fulfillment":15,"acc_fulfillment":24436,"transfer_cost":0.0,"port_name":"Singapore","position":{"lat":1.29027,"lng":103.851959},"status":"surplus"},{"frame_index":749,"name":"ports_18","capacity":10000,"empty":227,"full":167,"on_shipper":17,"on_consignee":0,"shortage":0,"acc_shortage":1226,"booking":7,"acc_booking":9481,"fulfillment":7,"acc_fulfillment":8255,"transfer_cost":0.0,"port_name":"Sydney","position":{"lat":-33.865143,"lng":151.2099},"status":"surplus"},{"frame_index":749,"name":"ports_19","capacity":10000,"empty":994,"full":381,"on_shipper":18,"on_consignee":0,"shortage":0,"acc_shortage":0,"booking":7,"acc_booking":12575,"fulfillment":7,"acc_fulfillment":12575,"transfer_cost":0.0,"port_name":"Vancouver","position":{"lat":49.246292,"lng":-123.116226},"status":"surplus"},{"frame_index":749,"name":"ports_20","capacity":10000,"empty":215,"full":2296,"on_shipper":56,"on_consignee":281,"shortage":0,"acc_shortage":942,"booking":25,"acc_booking":42604,"fulfillment":25,"acc_fulfillment":41662,"transfer_cost":0.0,"port_name":"Yantian","position":{"lat":26.8533,"lng":119.8575},"status":"surplus"},{"frame_index":749,"name":"ports_21","capacity":10000,"empty":8,"full":998,"on_shipper":18,"on_consignee":0,"shortage":0,"acc_shortage":5065,"booking":18,"acc_booking":40743,"fulfillment":18,"acc_fulfillment":35678,"transfer_cost":0.0,"port_name":"Yokohama","position":{"lat":35.443707,"lng":139.638031},"status":"demand"}]