[{"frame_index":1054,"name":"ports_0","capacity":10000,"empty":4675,"full":2053,"on_shipper":230,"on_consignee":0,"shortage":0,"acc_shortage":861,"booking":206,"acc_booking":135090,"fulfillment":206,"acc_fulfillment":134229,"transfer_cost":0.0,"port_name":"Bremerhaven","position":{"lat":53.549999,"lng":8.583333},"status":"surplus"},{"frame_index":1054,"name":"ports_1","capacity":10000,"empty":400,"full":190,"on_shipper":26,"on_consignee":0,"shortage":0,"acc_shortage":113,"booking":14,"acc_booking":8974,"fulfillment":14,"acc_fulfillment":8861,"transfer_cost":0.0,"port_name":"Durban","position":{"lat":-29.8579,"lng":31.0292},"status":"surplus"},{"frame_index":1054,"name":"ports_2","capacity":10000,"empty":616,"full":121,"on_shipper":25,"on_consignee":0,"shortage":0,"acc_shortage":298,"booking":15,"acc_booking":8939,"fulfillment":15,"acc_fulfillment":8641,"transfer_cost":0.0,"port_name":"Itagual","position":{"lat":-22.85222,"lng":-43.77528},"status":"surplus"},{"frame_index":1054,"name":"ports_3","capacity":10000,"empty":5954,"full":1183,"on_shipper":104,"on_consignee":0,"shortage":0,"acc_shortage":0,"booking":86,"acc_booking":51067,"fulfillment":86,"acc_fulfillment":51067,"transfer_cost":0.0,"port_name":"LeHavre","position":{"lat":49.490002,"lng":0.1},"status":"surplus"},{"frame_index":1054,"name":"ports_4","capacity":10000,"empty":2241,"full":886,"on_shipper":85,"on_consignee":0,"shortage":0,"acc_shortage":290,"booking":73,"acc_booking":42772,"fulfillment":73,"acc_fulfillment":42482,"transfer_cost":0.0,"port_name":"Los Angeles","position":{"lat":34.052235,"lng":-118.243683},"status":"surplus"},{"frame_index":1054,"name":"ports_5","capacity":10000,"empty":1441,"full":924,"on_shipper":94,"on_consignee":0,"shortage":0,"acc_shortage":194,"booking":66,"acc_booking":42809,"fulfillment":66,"acc_fulfillment":42615,"transfer_cost":0.0,"port_name":"Manzanillo","position":{"lat":19.11695,"lng":-104.34214},"status":"surplus"},{"frame_index":1054,"name":"ports_6","capacity":10000,"empty":463,"full":115,"on_shipper":30,"on_consignee":0,"shortage":0,"acc_shortage":2108,"booking":23,"acc_booking":13173,"fulfillment":23,"acc_fulfillment":11065,"transfer_cost":0.0,"port_name":"Melbourne","position":{"lat":-37.840935,"lng":144.946457},"status":"surplus"},{"frame_index":1054,"name":"ports_7","capacity":10000,"empty":1598,"full":78,"on_shipper":44,"on_consignee":0,"shortage":0,"acc_shortage":0,"booking":22,"acc_booking":13176,"fulfillment":22,"acc_fulfillment":13176,"transfer_cost":0.0,"port_name":"Montreal","position":{"lat":45.516136,"lng":-73.65683},"status":"surplus"},{"frame_index":1054,"name":"ports_8","capacity":10000,"empty":4935,"full":24,"on_shipper":62,"on_consignee":931,"shortage":0,"acc_shortage":136,"booking":45,"acc_booking":25748,"fulfillment":45,"acc_fulfillment":25612,"transfer_cost":0.0,"port_name":"New York","position":{"lat":40.73061,"lng":-73.935242},"status":"surplus"},{"frame_index":1054,"name":"ports_9","capacity":10000,"empty":939,"full":844,"on_shipper":63,"on_consignee":0,"shortage":0,"acc_shortage":45,"booking":38,"acc_booking":25783,"fulfillment":38,"acc_fulfillment":25738,"transfer_cost":0.0,"port_name":"Oakland","position":{"lat":37.804363,"lng":-122.271111},"status":"surplus"},{"frame_index":1054,"name":"ports_10","capacity":10000,"empty":1151,"full":428,"on_shipper":44,"on_consignee":0,"shortage":0,"acc_shortage":314,"booking":19,"acc_booking":13174,"fulfillment":19,"acc_fulfillment":12860,"transfer_cost":0.0,"port_name":"Prince Rupert","position":{"lat":54.312519,"lng":-130.305405},"status":"surplus"},{"frame_index":1054,"name":"ports_11","capacity":10000,"empty":1577,"full":2393,"on_shipper":116,"on_consignee":0,"shortage":0,"acc_shortage":204,"booking":87,"acc_booking":51015,"fulfillment":87,"acc_fulfillment":50811,"transfer_cost":0.0,"port_name":"Pusan","position":{"lat":35.166668,"lng":129.066666},"status":"surplus"},{"frame_index":1054,"name":"ports_12","capacity":10000,"empty":4311,"full":1184,"on_shipper":153,"on_consignee":0,"shortage":0,"acc_shortage":0,"booking":103,"acc_booking":68187,"fulfillment":103,"acc_fulfillment":68187,"transfer_cost":0.0,"port_name":"Qingdao","position":{"lat":36.066898,"lng":120.382698},"status":"surplus"},{"frame_index":1054,"name":"ports_13","capacity":10000,"empty":461,"full":80,"on_shipper":23,"on_consignee":0,"shortage":0,"acc_shortage":459,"booking":14,"acc_booking":8941,"fulfillment":14,"acc_fulfillment":8482,"transfer_cost":0.0,"port_name":"San Antonio","position":{"lat":29.424349,"lng":-98.491142},"status":"surplus"},{"frame_index":1054,"name":"ports_14","capacity":10000,"empty":41,"full":311,"on_shipper":26,"on_consignee":0,"shortage":0,"acc_shortage":877,"booking":13,"acc_booking":8998,"fulfillment":13,"acc_fulfillment":8121,"transfer_cost":0.0,"port_name":"Santos","position":{"lat":-23.96083,"lng":-46.33361},"status":"balance"},{"frame_index":1054,"name":"ports_15","capacity":10000,"empty":2434,"full":1341,"on_shipper":148,"on_consignee":0,"shortage":0,"acc_shortage":1489,"booking":106,"acc_booking":59557,"fulfillment":106,"acc_fulfillment":58068,"transfer_cost":0.0,"port_name":"Seattle","position":{"lat":47.608013,"lng":-122.335167},"status":"surplus"},{"frame_index":1054,"name":"ports_16","capacity":10000,"empty":2780,"full":2148,"on_shipper":184,"on_consignee":323,"shortage":0,"acc_shortage":817,"booking":127,"acc_booking":84950,"fulfillment":127,"acc_fulfillment":84133,"transfer_cost":0.0,"port_name":"Shanghai","position":{"lat":31.224361,"lng":121.46917},"status":"surplus"},{"frame_index":1054,"name":"ports_17","capacity":10000,"empty":1538,"full":1083,"on_shipper":69,"on_consignee":0,"shortage":0,"acc_shortage":619,"booking":57,"acc_booking":34297,"fulfillment":57,"acc_fulfillment":33678,"transfer_cost":0.0,"port_name":"Singapore","position":{"lat":1.29027,"lng":103.851959},"status":"surplus"},{"frame_index":1054,"name":"ports_18","capacity":10000,"empty":545,"full":411,"on_shipper":28,"on_consignee":0,"shortage":0,"acc_shortage":1374,"booking":21,"acc_booking":13164,"fulfillment":21,"acc_fulfillment":11790,"transfer_cost":0.0,"port_name":"Sydney","position":{"lat":-33.865143,"lng":151.2099},"status":"surplus"},{"frame_index":1054,"name":"ports_19","capacity":10000,"empty":1270,"full":401,"on_shipper":40,"on_consignee":0,"shortage":0,"acc_shortage":0,"booking":28,"acc_booking":17432,"fulfillment":28,"acc_fulfillment":17432,"transfer_cost":0.0,"port_name":"Vancouver","position":{"lat":49.246292,"lng":-123.116226},"status":"surplus"},{"frame_index":1054,"name":"ports_20","capacity":10000,"empty":707,"full":1241,"on_shipper":167,"on_consignee":239,"shortage":0,"acc_shortage":1425,"booking":106,"acc_booking":59282,"fulfillment":106,"acc_fulfillment":57857,"transfer_cost":90.0,"port_name":"Yantian","position":{"lat":26.8533,"lng":119.8575},"status":"surplus"},{"frame_index":1054,"name":"ports_21","capacity":10000,"empty":674,"full":377,"on_shipper":142,"on_consignee":0,"shortage":0,"acc_shortage":8488,"booking":107,"acc_booking":56398,"fulfillment":107,"acc_fulfillment":47910,"transfer_cost":0.0,"port_name":"Yokohama","position":{"lat":35.443707,"lng":139.638031},"status":"surplus"}]