[{"frame_index":147,"name":"ports_0","capacity":10000,"empty":6104,"full":2466,"on_shipper":181,"on_consignee":0,"shortage":0,"acc_shortage":0,"booking":86,"acc_booking":17461,"fulfillment":86,"acc_fulfillment":17461,"transfer_cost":0.0,"port_name":"Bremerhaven","position":{"lat":53.549999,"lng":8.583333},"status":"surplus"},{"frame_index":147,"name":"ports_1","capacity":10000,"empty":695,"full":0,"on_shipper":12,"on_consignee":125,"shortage":0,"acc_shortage":0,"booking":6,"acc_booking":1176,"fulfillment":6,"acc_fulfillment":1176,"transfer_cost":0.0,"port_name":"Durban","position":{"lat":-29.8579,"lng":31.0292},"status":"surplus"},{"frame_index":147,"name":"ports_2","capacity":10000,"empty":0,"full":720,"on_shipper":0,"on_consignee":0,"shortage":6,"acc_shortage":89,"booking":6,"acc_booking":1169,"fulfillment":0,"acc_fulfillment":1080,"transfer_cost":0.0,"port_name":"Itagual","position":{"lat":-22.85222,"lng":-43.77528},"status":"balance"},{"frame_index":147,"name":"ports_3","capacity":10000,"empty":1777,"full":906,"on_shipper":51,"on_consignee":0,"shortage":0,"acc_shortage":0,"booking":39,"acc_booking":6671,"fulfillment":39,"acc_fulfillment":6671,"transfer_cost":0.0,"port_name":"LeHavre","position":{"lat":49.490002,"lng":0.1},"status":"surplus"},{"frame_index":147,"name":"ports_4","capacity":10000,"empty":2577,"full":1077,"on_shipper":48,"on_consignee":0,"shortage":0,"acc_shortage":0,"booking":32,"acc_booking":5571,"fulfillment":32,"acc_fulfillment":5571,"transfer_cost":0.0,"port_name":"Los Angeles","position":{"lat":34.052235,"lng":-118.243683},"status":"surplus"},{"frame_index":147,"name":"ports_5","capacity":10000,"empty":1430,"full":40,"on_shipper":65,"on_consignee":1194,"shortage":0,"acc_shortage":0,"booking":37,"acc_booking":5517,"fulfillment":37,"acc_fulfillment":5517,"transfer_cost":0.0,"port_name":"Manzanillo","position":{"lat":19.11695,"lng":-104.34214},"status":"surplus"},{"frame_index":147,"name":"ports_6","capacity":10000,"empty":677,"full":163,"on_shipper":19,"on_consignee":0,"shortage":0,"acc_shortage":0,"booking":10,"acc_booking":1719,"fulfillment":10,"acc_fulfillment":1719,"transfer_cost":0.0,"port_name":"Melbourne","position":{"lat":-37.840935,"lng":144.946457},"status":"surplus"},{"frame_index":147,"name":"ports_7","capacity":10000,"empty":2609,"full":96,"on_shipper":10,"on_consignee":0,"shortage":0,"acc_shortage":0,"booking":10,"acc_booking":1714,"fulfillment":10,"acc_fulfillment":1714,"transfer_cost":0.0,"port_name":"Montreal","position":{"lat":45.516136,"lng":-73.65683},"status":"surplus"},{"frame_index":147,"name":"ports_8","capacity":10000,"empty":1212,"full":640,"on_shipper":33,"on_consignee":0,"shortage":0,"acc_shortage":0,"booking":19,"acc_booking":3357,"fulfillment":19,"acc_fulfillment":3357,"transfer_cost":0.0,"port_name":"New York","position":{"lat":40.73061,"lng":-73.935242},"status":"surplus"},{"frame_index":147,"name":"ports_9","capacity":10000,"empty":1909,"full":477,"on_shipper":30,"on_consignee":0,"shortage":0,"acc_shortage":0,"booking":18,"acc_booking":3329,"fulfillment":18,"acc_fulfillment":3329,"transfer_cost":0.0,"port_name":"Oakland","position":{"lat":37.804363,"lng":-122.271111},"status":"surplus"},{"frame_index":147,"name":"ports_10","capacity":10000,"empty":1126,"full":0,"on_shipper":10,"on_consignee":2,"shortage":0,"acc_shortage":0,"booking":9,"acc_booking":1708,"fulfillment":9,"acc_fulfillment":1708,"transfer_cost":11.0,"port_name":"Prince Rupert","position":{"lat":54.312519,"lng":-130.305405},"status":"surplus"},{"frame_index":147,"name":"ports_11","capacity":10000,"empty":2384,"full":548,"on_shipper":65,"on_consignee":0,"shortage":0,"acc_shortage":0,"booking":41,"acc_booking":6640,"fulfillment":41,"acc_fulfillment":6640,"transfer_cost":0.0,"port_name":"Pusan","position":{"lat":35.166668,"lng":129.066666},"status":"surplus"},{"frame_index":147,"name":"ports_12","capacity":10000,"empty":4401,"full":508,"on_shipper":89,"on_consignee":70,"shortage":0,"acc_shortage":0,"booking":55,"acc_booking":8866,"fulfillment":55,"acc_fulfillment":8866,"transfer_cost":0.0,"port_name":"Qingdao","position":{"lat":36.066898,"lng":120.382698},"status":"surplus"},{"frame_index":147,"name":"ports_13","capacity":10000,"empty":224,"full":249,"on_shipper":12,"on_consignee":0,"shortage":0,"acc_shortage":0,"booking":8,"acc_booking":1180,"fulfillment":8,"acc_fulfillment":1180,"transfer_cost":0.0,"port_name":"San Antonio","position":{"lat":29.424349,"lng":-98.491142},"status":"surplus"},{"frame_index":147,"name":"ports_14","capacity":10000,"empty":0,"full":216,"on_shipper":8,"on_consignee":0,"shortage":8,"acc_shortage":8,"booking":8,"acc_booking":1184,"fulfillment":0,"acc_fulfillment":1176,"transfer_cost":0.0,"port_name":"Santos","position":{"lat":-23.96083,"lng":-46.33361},"status":"balance"},{"frame_index":147,"name":"ports_15","capacity":10000,"empty":3652,"full":398,"on_shipper":69,"on_consignee":0,"shortage":0,"acc_shortage":0,"booking":44,"acc_booking":7754,"fulfillment":44,"acc_fulfillment":7754,"transfer_cost":0.0,"port_name":"Seattle","position":{"lat":47.608013,"lng":-122.335167},"status":"surplus"},{"frame_index":147,"name":"ports_16","capacity":10000,"empty":2394,"full":740,"on_shipper":76,"on_consignee":8,"shortage":0,"acc_shortage":0,"booking":67,"acc_booking":11117,"fulfillment":67,"acc_fulfillment":11117,"transfer_cost":0.0,"port_name":"Shanghai","position":{"lat":31.224361,"lng":121.46917},"status":"surplus"},{"frame_index":147,"name":"ports_17","capacity":10000,"empty":1466,"full":550,"on_shipper":45,"on_consignee":15,"shortage":0,"acc_shortage":0,"booking":25,"acc_booking":4476,"fulfillment":25,"acc_fulfillment":4476,"transfer_cost":0.0,"port_name":"Singapore","position":{"lat":1.29027,"lng":103.851959},"status":"surplus"},{"frame_index":147,"name":"ports_18","capacity":10000,"empty":527,"full":276,"on_shipper":19,"on_consignee":0,"shortage":0,"acc_shortage":0,"booking":11,"acc_booking":1697,"fulfillment":11,"acc_fulfillment":1697,"transfer_cost":0.0,"port_name":"Sydney","position":{"lat":-33.865143,"lng":151.2099},"status":"surplus"},{"frame_index":147,"name":"ports_19","capacity":10000,"empty":467,"full":576,"on_shipper":27,"on_consignee":0,"shortage":0,"acc_shortage":0,"booking":13,"acc_booking":2277,"fulfillment":13,"acc_fulfillment":2277,"transfer_cost":0.0,"port_name":"Vancouver","position":{"lat":49.246292,"lng":-123.116226},"status":"surplus"},{"frame_index":147,"name":"ports_20","capacity":10000,"empty":2147,"full":170,"on_shipper":77,"on_consignee":38,"shortage":0,"acc_shortage":0,"booking":41,"acc_booking":7604,"fulfillment":41,"acc_fulfillment":7604,"transfer_cost":0.0,"port_name":"Yantian","position":{"lat":26.8533,"lng":119.8575},"status":"surplus"},{"frame_index":147,"name":"ports_21","capacity":10000,"empty":3442,"full":366,"on_shipper":73,"on_consignee":0,"shortage":0,"acc_shortage":0,"booking":42,"acc_booking":7219,"fulfillment":42,"acc_fulfillment":7219,"transfer_cost":0.0,"port_name":"Yokohama","position":{"lat":35.443707,"lng":139.638031},"status":"surplus"}]