[{"frame_index":646,"name":"ports_0","capacity":10000,"empty":1314,"full":5559,"on_shipper":237,"on_consignee":0,"shortage":0,"acc_shortage":522,"booking":188,"acc_booking":83949,"fulfillment":188,"acc_fulfillment":83427,"transfer_cost":0.0,"port_name":"Bremerhaven","position":{"lat":53.549999,"lng":8.583333},"status":"surplus"},{"frame_index":646,"name":"ports_1","capacity":10000,"empty":142,"full":10,"on_shipper":18,"on_consignee":76,"shortage":0,"acc_shortage":0,"booking":10,"acc_booking":5575,"fulfillment":10,"acc_fulfillment":5575,"transfer_cost":0.0,"port_name":"Durban","position":{"lat":-29.8579,"lng":31.0292},"status":"surplus"},{"frame_index":646,"name":"ports_2","capacity":10000,"empty":0,"full":240,"on_shipper":0,"on_consignee":0,"shortage":12,"acc_shortage":262,"booking":12,"acc_booking":5557,"fulfillment":0,"acc_fulfillment":5295,"transfer_cost":0.0,"port_name":"Itagual","position":{"lat":-22.85222,"lng":-43.77528},"status":"demand"},{"frame_index":646,"name":"ports_3","capacity":10000,"empty":1742,"full":972,"on_shipper":117,"on_consignee":0,"shortage":0,"acc_shortage":0,"booking":68,"acc_booking":31772,"fulfillment":68,"acc_fulfillment":31772,"transfer_cost":0.0,"port_name":"LeHavre","position":{"lat":49.490002,"lng":0.1},"status":"surplus"},{"frame_index":646,"name":"ports_4","capacity":10000,"empty":1118,"full":294,"on_shipper":68,"on_consignee":0,"shortage":0,"acc_shortage":150,"booking":58,"acc_booking":26587,"fulfillment":58,"acc_fulfillment":26437,"transfer_cost":0.0,"port_name":"Los Angeles","position":{"lat":34.052235,"lng":-118.243683},"status":"surplus"},{"frame_index":646,"name":"ports_5","capacity":10000,"empty":1609,"full":0,"on_shipper":82,"on_consignee":217,"shortage":0,"acc_shortage":123,"booking":57,"acc_booking":26680,"fulfillment":57,"acc_fulfillment":26557,"transfer_cost":0.0,"port_name":"Manzanillo","position":{"lat":19.11695,"lng":-104.34214},"status":"surplus"},{"frame_index":646,"name":"ports_6","capacity":10000,"empty":274,"full":320,"on_shipper":34,"on_consignee":0,"shortage":0,"acc_shortage":1336,"booking":17,"acc_booking":8181,"fulfillment":17,"acc_fulfillment":6845,"transfer_cost":0.0,"port_name":"Melbourne","position":{"lat":-37.840935,"lng":144.946457},"status":"surplus"},{"frame_index":646,"name":"ports_7","capacity":10000,"empty":838,"full":646,"on_shipper":27,"on_consignee":0,"shortage":0,"acc_shortage":0,"booking":17,"acc_booking":8186,"fulfillment":17,"acc_fulfillment":8186,"transfer_cost":0.0,"port_name":"Montreal","position":{"lat":45.516136,"lng":-73.65683},"status":"surplus"},{"frame_index":646,"name":"ports_8","capacity":10000,"empty":1268,"full":1621,"on_shipper":33,"on_consignee":0,"shortage":0,"acc_shortage":0,"booking":33,"acc_booking":16008,"fulfillment":33,"acc_fulfillment":16008,"transfer_cost":0.0,"port_name":"New York","position":{"lat":40.73061,"lng":-73.935242},"status":"surplus"},{"frame_index":646,"name":"ports_9","capacity":10000,"empty":1076,"full":524,"on_shipper":53,"on_consignee":0,"shortage":0,"acc_shortage":45,"booking":37,"acc_booking":16066,"fulfillment":37,"acc_fulfillment":16021,"transfer_cost":0.0,"port_name":"Oakland","position":{"lat":37.804363,"lng":-122.271111},"status":"surplus"},{"frame_index":646,"name":"ports_10","capacity":10000,"empty":1136,"full":648,"on_shipper":21,"on_consignee":0,"shortage":0,"acc_shortage":314,"booking":17,"acc_booking":8205,"fulfillment":17,"acc_fulfillment":7891,"transfer_cost":0.0,"port_name":"Prince Rupert","position":{"lat":54.312519,"lng":-130.305405},"status":"surplus"},{"frame_index":646,"name":"ports_11","capacity":10000,"empty":2887,"full":940,"on_shipper":104,"on_consignee":0,"shortage":0,"acc_shortage":204,"booking":66,"acc_booking":31733,"fulfillment":66,"acc_fulfillment":31529,"transfer_cost":0.0,"port_name":"Pusan","position":{"lat":35.166668,"lng":129.066666},"status":"surplus"},{"frame_index":646,"name":"ports_12","capacity":10000,"empty":1697,"full":1993,"on_shipper":119,"on_consignee":0,"shortage":0,"acc_shortage":0,"booking":94,"acc_booking":42381,"fulfillment":94,"acc_fulfillment":42381,"transfer_cost":0.0,"port_name":"Qingdao","position":{"lat":36.066898,"lng":120.382698},"status":"surplus"},{"frame_index":646,"name":"ports_13","capacity":10000,"empty":698,"full":21,"on_shipper":13,"on_consignee":0,"shortage":0,"acc_shortage":325,"booking":11,"acc_booking":5554,"fulfillment":11,"acc_fulfillment":5229,"transfer_cost":0.0,"port_name":"San Antonio","position":{"lat":29.424349,"lng":-98.491142},"status":"surplus"},{"frame_index":646,"name":"ports_14","capacity":10000,"empty":665,"full":87,"on_shipper":19,"on_consignee":0,"shortage":0,"acc_shortage":762,"booking":13,"acc_booking":5604,"fulfillment":13,"acc_fulfillment":4842,"transfer_cost":0.0,"port_name":"Santos","position":{"lat":-23.96083,"lng":-46.33361},"status":"surplus"},{"frame_index":646,"name":"ports_15","capacity":10000,"empty":1859,"full":1986,"on_shipper":111,"on_consignee":0,"shortage":0,"acc_shortage":0,"booking":82,"acc_booking":37021,"fulfillment":82,"acc_fulfillment":37021,"transfer_cost":0.0,"port_name":"Seattle","position":{"lat":47.608013,"lng":-122.335167},"status":"surplus"},{"frame_index":646,"name":"ports_16","capacity":10000,"empty":1230,"full":673,"on_shipper":203,"on_consignee":0,"shortage":0,"acc_shortage":712,"booking":119,"acc_booking":52740,"fulfillment":119,"acc_fulfillment":52028,"transfer_cost":0.0,"port_name":"Shanghai","position":{"lat":31.224361,"lng":121.46917},"status":"surplus"},{"frame_index":646,"name":"ports_17","capacity":10000,"empty":787,"full":647,"on_shipper":80,"on_consignee":0,"shortage":0,"acc_shortage":283,"booking":47,"acc_booking":21341,"fulfillment":47,"acc_fulfillment":21058,"transfer_cost":0.0,"port_name":"Singapore","position":{"lat":1.29027,"lng":103.851959},"status":"surplus"},{"frame_index":646,"name":"ports_18","capacity":10000,"empty":61,"full":177,"on_shipper":27,"on_consignee":0,"shortage":0,"acc_shortage":957,"booking":15,"acc_booking":8148,"fulfillment":15,"acc_fulfillment":7191,"transfer_cost":0.0,"port_name":"Sydney","position":{"lat":-33.865143,"lng":151.2099},"status":"balance"},{"frame_index":646,"name":"ports_19","capacity":10000,"empty":758,"full":544,"on_shipper":32,"on_consignee":0,"shortage":0,"acc_shortage":0,"booking":22,"acc_booking":10865,"fulfillment":22,"acc_fulfillment":10865,"transfer_cost":0.0,"port_name":"Vancouver","position":{"lat":49.246292,"lng":-123.116226},"status":"surplus"},{"frame_index":646,"name":"ports_20","capacity":10000,"empty":727,"full":363,"on_shipper":144,"on_consignee":475,"shortage":0,"acc_shortage":395,"booking":87,"acc_booking":36769,"fulfillment":87,"acc_fulfillment":36374,"transfer_cost":1.0,"port_name":"Yantian","position":{"lat":26.8533,"lng":119.8575},"status":"surplus"},{"frame_index":646,"name":"ports_21","capacity":10000,"empty":75,"full":2245,"on_shipper":112,"on_consignee":0,"shortage":0,"acc_shortage":3563,"booking":78,"acc_booking":35201,"fulfillment":78,"acc_fulfillment":31638,"transfer_cost":0.0,"port_name":"Yokohama","position":{"lat":35.443707,"lng":139.638031},"status":"demand"}]