[{"frame_index":316,"name":"ports_0","capacity":10000,"empty":3164,"full":2114,"on_shipper":93,"on_consignee":350,"shortage":0,"acc_shortage":522,"booking":82,"acc_booking":41424,"fulfillment":82,"acc_fulfillment":40902,"transfer_cost":0.0,"port_name":"Bremerhaven","position":{"lat":53.549999,"lng":8.583333},"status":"surplus"},{"frame_index":316,"name":"ports_1","capacity":10000,"empty":499,"full":169,"on_shipper":8,"on_consignee":0,"shortage":0,"acc_shortage":0,"booking":5,"acc_booking":2753,"fulfillment":5,"acc_fulfillment":2753,"transfer_cost":0.0,"port_name":"Durban","position":{"lat":-29.8579,"lng":31.0292},"status":"surplus"},{"frame_index":316,"name":"ports_2","capacity":10000,"empty":501,"full":463,"on_shipper":7,"on_consignee":0,"shortage":0,"acc_shortage":233,"booking":6,"acc_booking":2733,"fulfillment":6,"acc_fulfillment":2500,"transfer_cost":0.0,"port_name":"Itagual","position":{"lat":-22.85222,"lng":-43.77528},"status":"surplus"},{"frame_index":316,"name":"ports_3","capacity":10000,"empty":1405,"full":1242,"on_shipper":39,"on_consignee":0,"shortage":0,"acc_shortage":0,"booking":30,"acc_booking":15687,"fulfillment":30,"acc_fulfillment":15687,"transfer_cost":0.0,"port_name":"LeHavre","position":{"lat":49.490002,"lng":0.1},"status":"surplus"},{"frame_index":316,"name":"ports_4","capacity":10000,"empty":376,"full":1697,"on_shipper":34,"on_consignee":0,"shortage":0,"acc_shortage":0,"booking":26,"acc_booking":13105,"fulfillment":26,"acc_fulfillment":13105,"transfer_cost":0.0,"port_name":"Los Angeles","position":{"lat":34.052235,"lng":-118.243683},"status":"surplus"},{"frame_index":316,"name":"ports_5","capacity":10000,"empty":1033,"full":35,"on_shipper":33,"on_consignee":183,"shortage":0,"acc_shortage":123,"booking":26,"acc_booking":13138,"fulfillment":26,"acc_fulfillment":13015,"transfer_cost":0.0,"port_name":"Manzanillo","position":{"lat":19.11695,"lng":-104.34214},"status":"surplus"},{"frame_index":316,"name":"ports_6","capacity":10000,"empty":0,"full":287,"on_shipper":0,"on_consignee":0,"shortage":8,"acc_shortage":298,"booking":8,"acc_booking":4025,"fulfillment":0,"acc_fulfillment":3727,"transfer_cost":0.0,"port_name":"Melbourne","position":{"lat":-37.840935,"lng":144.946457},"status":"balance"},{"frame_index":316,"name":"ports_7","capacity":10000,"empty":1848,"full":25,"on_shipper":10,"on_consignee":0,"shortage":0,"acc_shortage":0,"booking":8,"acc_booking":4033,"fulfillment":8,"acc_fulfillment":4033,"transfer_cost":0.0,"port_name":"Montreal","position":{"lat":45.516136,"lng":-73.65683},"status":"surplus"},{"frame_index":316,"name":"ports_8","capacity":10000,"empty":556,"full":729,"on_shipper":16,"on_consignee":0,"shortage":0,"acc_shortage":0,"booking":16,"acc_booking":7882,"fulfillment":16,"acc_fulfillment":7882,"transfer_cost":0.0,"port_name":"New York","position":{"lat":40.73061,"lng":-73.935242},"status":"surplus"},{"frame_index":316,"name":"ports_9","capacity":10000,"empty":1100,"full":629,"on_shipper":16,"on_consignee":0,"shortage":0,"acc_shortage":0,"booking":13,"acc_booking":7846,"fulfillment":13,"acc_fulfillment":7846,"transfer_cost":0.0,"port_name":"Oakland","position":{"lat":37.804363,"lng":-122.271111},"status":"surplus"},{"frame_index":316,"name":"ports_10","capacity":10000,"empty":567,"full":1051,"on_shipper":11,"on_consignee":0,"shortage":0,"acc_shortage":0,"booking":9,"acc_booking":4022,"fulfillment":9,"acc_fulfillment":4022,"transfer_cost":0.0,"port_name":"Prince Rupert","position":{"lat":54.312519,"lng":-130.305405},"status":"surplus"},{"frame_index":316,"name":"ports_11","capacity":10000,"empty":1174,"full":992,"on_shipper":36,"on_consignee":0,"shortage":0,"acc_shortage":0,"booking":30,"acc_booking":15633,"fulfillment":30,"acc_fulfillment":15633,"transfer_cost":0.0,"port_name":"Pusan","position":{"lat":35.166668,"lng":129.066666},"status":"surplus"},{"frame_index":316,"name":"ports_12","capacity":10000,"empty":2326,"full":979,"on_shipper":60,"on_consignee":491,"shortage":0,"acc_shortage":0,"booking":36,"acc_booking":20891,"fulfillment":36,"acc_fulfillment":20891,"transfer_cost":0.0,"port_name":"Qingdao","position":{"lat":36.066898,"lng":120.382698},"status":"surplus"},{"frame_index":316,"name":"ports_13","capacity":10000,"empty":730,"full":42,"on_shipper":7,"on_consignee":0,"shortage":0,"acc_shortage":123,"booking":6,"acc_booking":2730,"fulfillment":6,"acc_fulfillment":2607,"transfer_cost":0.0,"port_name":"San Antonio","position":{"lat":29.424349,"lng":-98.491142},"status":"surplus"},{"frame_index":316,"name":"ports_14","capacity":10000,"empty":767,"full":17,"on_shipper":6,"on_consignee":0,"shortage":0,"acc_shortage":697,"booking":5,"acc_booking":2783,"fulfillment":5,"acc_fulfillment":2086,"transfer_cost":0.0,"port_name":"Santos","position":{"lat":-23.96083,"lng":-46.33361},"status":"surplus"},{"frame_index":316,"name":"ports_15","capacity":10000,"empty":2212,"full":2043,"on_shipper":43,"on_consignee":0,"shortage":0,"acc_shortage":0,"booking":36,"acc_booking":18233,"fulfillment":36,"acc_fulfillment":18233,"transfer_cost":0.0,"port_name":"Seattle","position":{"lat":47.608013,"lng":-122.335167},"status":"surplus"},{"frame_index":316,"name":"ports_16","capacity":10000,"empty":686,"full":1965,"on_shipper":66,"on_consignee":272,"shortage":0,"acc_shortage":0,"booking":49,"acc_booking":26034,"fulfillment":49,"acc_fulfillment":26034,"transfer_cost":0.0,"port_name":"Shanghai","position":{"lat":31.224361,"lng":121.46917},"status":"surplus"},{"frame_index":316,"name":"ports_17","capacity":10000,"empty":2496,"full":947,"on_shipper":28,"on_consignee":0,"shortage":0,"acc_shortage":40,"booking":21,"acc_booking":10511,"fulfillment":21,"acc_fulfillment":10471,"transfer_cost":0.0,"port_name":"Singapore","position":{"lat":1.29027,"lng":103.851959},"status":"surplus"},{"frame_index":316,"name":"ports_18","capacity":10000,"empty":99,"full":152,"on_shipper":9,"on_consignee":0,"shortage":0,"acc_shortage":377,"booking":7,"acc_booking":3999,"fulfillment":7,"acc_fulfillment":3622,"transfer_cost":0.0,"port_name":"Sydney","position":{"lat":-33.865143,"lng":151.2099},"status":"surplus"},{"frame_index":316,"name":"ports_19","capacity":10000,"empty":297,"full":639,"on_shipper":12,"on_consignee":0,"shortage":0,"acc_shortage":0,"booking":11,"acc_booking":5354,"fulfillment":11,"acc_fulfillment":5354,"transfer_cost":0.0,"port_name":"Vancouver","position":{"lat":49.246292,"lng":-123.116226},"status":"surplus"},{"frame_index":316,"name":"ports_20","capacity":10000,"empty":711,"full":399,"on_shipper":42,"on_consignee":13,"shortage":0,"acc_shortage":0,"booking":33,"acc_booking":18023,"fulfillment":33,"acc_fulfillment":18023,"transfer_cost":0.0,"port_name":"Yantian","position":{"lat":26.8533,"lng":119.8575},"status":"surplus"},{"frame_index":316,"name":"ports_21","capacity":10000,"empty":716,"full":1424,"on_shipper":37,"on_consignee":0,"shortage":0,"acc_shortage":1887,"booking":29,"acc_booking":17344,"fulfillment":29,"acc_fulfillment":15457,"transfer_cost":0.0,"port_name":"Yokohama","position":{"lat":35.443707,"lng":139.638031},"status":"surplus"}]