[{"frame_index":169,"name":"ports_0","capacity":10000,"empty":4452,"full":2703,"on_shipper":612,"on_consignee":2472,"shortage":0,"acc_shortage":0,"booking":315,"acc_booking":21544,"fulfillment":315,"acc_fulfillment":21544,"transfer_cost":0.0,"port_name":"Bremerhaven","position":{"lat":53.549999,"lng":8.583333},"status":"surplus"},{"frame_index":169,"name":"ports_1","capacity":10000,"empty":643,"full":248,"on_shipper":26,"on_consignee":0,"shortage":0,"acc_shortage":0,"booking":18,"acc_booking":1446,"fulfillment":18,"acc_fulfillment":1446,"transfer_cost":0.0,"port_name":"Durban","position":{"lat":-29.8579,"lng":31.0292},"status":"surplus"},{"frame_index":169,"name":"ports_2","capacity":10000,"empty":462,"full":237,"on_shipper":21,"on_consignee":0,"shortage":0,"acc_shortage":233,"booking":21,"acc_booking":1437,"fulfillment":21,"acc_fulfillment":1204,"transfer_cost":0.0,"port_name":"Itagual","position":{"lat":-22.85222,"lng":-43.77528},"status":"surplus"},{"frame_index":169,"name":"ports_3","capacity":10000,"empty":3530,"full":471,"on_shipper":164,"on_consignee":0,"shortage":0,"acc_shortage":0,"booking":114,"acc_booking":8223,"fulfillment":114,"acc_fulfillment":8223,"transfer_cost":0.0,"port_name":"LeHavre","position":{"lat":49.490002,"lng":0.1},"status":"surplus"},{"frame_index":169,"name":"ports_4","capacity":10000,"empty":2181,"full":1171,"on_shipper":156,"on_consignee":0,"shortage":0,"acc_shortage":0,"booking":98,"acc_booking":6872,"fulfillment":98,"acc_fulfillment":6872,"transfer_cost":0.0,"port_name":"Los Angeles","position":{"lat":34.052235,"lng":-118.243683},"status":"surplus"},{"frame_index":169,"name":"ports_5","capacity":10000,"empty":1568,"full":351,"on_shipper":169,"on_consignee":0,"shortage":0,"acc_shortage":0,"booking":100,"acc_booking":6858,"fulfillment":100,"acc_fulfillment":6858,"transfer_cost":0.0,"port_name":"Manzanillo","position":{"lat":19.11695,"lng":-104.34214},"status":"surplus"},{"frame_index":169,"name":"ports_6","capacity":10000,"empty":323,"full":346,"on_shipper":41,"on_consignee":0,"shortage":0,"acc_shortage":0,"booking":30,"acc_booking":2116,"fulfillment":30,"acc_fulfillment":2116,"transfer_cost":0.0,"port_name":"Melbourne","position":{"lat":-37.840935,"lng":144.946457},"status":"surplus"},{"frame_index":169,"name":"ports_7","capacity":10000,"empty":2211,"full":459,"on_shipper":45,"on_consignee":0,"shortage":0,"acc_shortage":0,"booking":29,"acc_booking":2112,"fulfillment":29,"acc_fulfillment":2112,"transfer_cost":0.0,"port_name":"Montreal","position":{"lat":45.516136,"lng":-73.65683},"status":"surplus"},{"frame_index":169,"name":"ports_8","capacity":10000,"empty":4183,"full":209,"on_shipper":57,"on_consignee":0,"shortage":0,"acc_shortage":0,"booking":57,"acc_booking":4126,"fulfillment":57,"acc_fulfillment":4126,"transfer_cost":0.0,"port_name":"New York","position":{"lat":40.73061,"lng":-73.935242},"status":"surplus"},{"frame_index":169,"name":"ports_9","capacity":10000,"empty":1117,"full":1234,"on_shipper":65,"on_consignee":0,"shortage":0,"acc_shortage":0,"booking":65,"acc_booking":4121,"fulfillment":65,"acc_fulfillment":4121,"transfer_cost":0.0,"port_name":"Oakland","position":{"lat":37.804363,"lng":-122.271111},"status":"surplus"},{"frame_index":169,"name":"ports_10","capacity":10000,"empty":731,"full":379,"on_shipper":28,"on_consignee":0,"shortage":0,"acc_shortage":0,"booking":24,"acc_booking":2105,"fulfillment":24,"acc_fulfillment":2105,"transfer_cost":0.0,"port_name":"Prince Rupert","position":{"lat":54.312519,"lng":-130.305405},"status":"surplus"},{"frame_index":169,"name":"ports_11","capacity":10000,"empty":990,"full":1483,"on_shipper":179,"on_consignee":0,"shortage":0,"acc_shortage":0,"booking":112,"acc_booking":8193,"fulfillment":112,"acc_fulfillment":8193,"transfer_cost":0.0,"port_name":"Pusan","position":{"lat":35.166668,"lng":129.066666},"status":"surplus"},{"frame_index":169,"name":"ports_12","capacity":10000,"empty":2376,"full":1239,"on_shipper":234,"on_consignee":66,"shortage":0,"acc_shortage":0,"booking":160,"acc_booking":10925,"fulfillment":160,"acc_fulfillment":10925,"transfer_cost":0.0,"port_name":"Qingdao","position":{"lat":36.066898,"lng":120.382698},"status":"surplus"},{"frame_index":169,"name":"ports_13","capacity":10000,"empty":0,"full":485,"on_shipper":0,"on_consignee":0,"shortage":18,"acc_shortage":36,"booking":18,"acc_booking":1440,"fulfillment":0,"acc_fulfillment":1404,"transfer_cost":0.0,"port_name":"San Antonio","position":{"lat":29.424349,"lng":-98.491142},"status":"demand"},{"frame_index":169,"name":"ports_14","capacity":10000,"empty":0,"full":224,"on_shipper":0,"on_consignee":0,"shortage":18,"acc_shortage":279,"booking":18,"acc_booking":1455,"fulfillment":0,"acc_fulfillment":1176,"transfer_cost":0.0,"port_name":"Santos","position":{"lat":-23.96083,"lng":-46.33361},"status":"demand"},{"frame_index":169,"name":"ports_15","capacity":10000,"empty":2481,"full":1440,"on_shipper":198,"on_consignee":0,"shortage":0,"acc_shortage":0,"booking":136,"acc_booking":9562,"fulfillment":136,"acc_fulfillment":9562,"transfer_cost":0.0,"port_name":"Seattle","position":{"lat":47.608013,"lng":-122.335167},"status":"surplus"},{"frame_index":169,"name":"ports_16","capacity":10000,"empty":2036,"full":1563,"on_shipper":268,"on_consignee":0,"shortage":0,"acc_shortage":0,"booking":163,"acc_booking":13695,"fulfillment":163,"acc_fulfillment":13695,"transfer_cost":0.0,"port_name":"Shanghai","position":{"lat":31.224361,"lng":121.46917},"status":"surplus"},{"frame_index":169,"name":"ports_17","capacity":10000,"empty":130,"full":858,"on_shipper":105,"on_consignee":189,"shortage":0,"acc_shortage":0,"booking":76,"acc_booking":5511,"fulfillment":76,"acc_fulfillment":5511,"transfer_cost":519.0,"port_name":"Singapore","position":{"lat":1.29027,"lng":103.851959},"status":"demand"},{"frame_index":169,"name":"ports_18","capacity":10000,"empty":346,"full":454,"on_shipper":44,"on_consignee":0,"shortage":0,"acc_shortage":0,"booking":25,"acc_booking":2088,"fulfillment":25,"acc_fulfillment":2088,"transfer_cost":0.0,"port_name":"Sydney","position":{"lat":-33.865143,"lng":151.2099},"status":"surplus"},{"frame_index":169,"name":"ports_19","capacity":10000,"empty":828,"full":256,"on_shipper":56,"on_consignee":0,"shortage":0,"acc_shortage":0,"booking":38,"acc_booking":2797,"fulfillment":38,"acc_fulfillment":2797,"transfer_cost":0.0,"port_name":"Vancouver","position":{"lat":49.246292,"lng":-123.116226},"status":"surplus"},{"frame_index":169,"name":"ports_20","capacity":10000,"empty":1780,"full":1021,"on_shipper":203,"on_consignee":4,"shortage":0,"acc_shortage":0,"booking":139,"acc_booking":9392,"fulfillment":139,"acc_fulfillment":9392,"transfer_cost":0.0,"port_name":"Yantian","position":{"lat":26.8533,"lng":119.8575},"status":"surplus"},{"frame_index":169,"name":"ports_21","capacity":10000,"empty":1639,"full":1802,"on_shipper":235,"on_consignee":0,"shortage":0,"acc_shortage":0,"booking":144,"acc_booking":9057,"fulfillment":144,"acc_fulfillment":9057,"transfer_cost":0.0,"port_name":"Yokohama","position":{"lat":35.443707,"lng":139.638031},"status":"surplus"}]