[{"frame_index":486,"name":"ports_0","capacity":10000,"empty":2862,"full":2188,"on_shipper":186,"on_consignee":0,"shortage":0,"acc_shortage":522,"booking":113,"acc_booking":60437,"fulfillment":113,"acc_fulfillment":59915,"transfer_cost":0.0,"port_name":"Bremerhaven","position":{"lat":53.549999,"lng":8.583333},"status":"surplus"},{"frame_index":486,"name":"ports_1","capacity":10000,"empty":99,"full":304,"on_shipper":16,"on_consignee":0,"shortage":0,"acc_shortage":0,"booking":8,"acc_booking":4052,"fulfillment":8,"acc_fulfillment":4052,"transfer_cost":0.0,"port_name":"Durban","position":{"lat":-29.8579,"lng":31.0292},"status":"surplus"},{"frame_index":486,"name":"ports_2","capacity":10000,"empty":815,"full":168,"on_shipper":10,"on_consignee":0,"shortage":0,"acc_shortage":233,"booking":8,"acc_booking":4026,"fulfillment":8,"acc_fulfillment":3793,"transfer_cost":0.0,"port_name":"Itagual","position":{"lat":-22.85222,"lng":-43.77528},"status":"surplus"},{"frame_index":486,"name":"ports_3","capacity":10000,"empty":1509,"full":573,"on_shipper":51,"on_consignee":0,"shortage":0,"acc_shortage":0,"booking":47,"acc_booking":22979,"fulfillment":47,"acc_fulfillment":22979,"transfer_cost":0.0,"port_name":"LeHavre","position":{"lat":49.490002,"lng":0.1},"status":"surplus"},{"frame_index":486,"name":"ports_4","capacity":10000,"empty":3034,"full":564,"on_shipper":55,"on_consignee":0,"shortage":0,"acc_shortage":0,"booking":39,"acc_booking":19208,"fulfillment":39,"acc_fulfillment":19208,"transfer_cost":0.0,"port_name":"Los Angeles","position":{"lat":34.052235,"lng":-118.243683},"status":"surplus"},{"frame_index":486,"name":"ports_5","capacity":10000,"empty":2265,"full":0,"on_shipper":62,"on_consignee":379,"shortage":0,"acc_shortage":123,"booking":44,"acc_booking":19283,"fulfillment":44,"acc_fulfillment":19160,"transfer_cost":0.0,"port_name":"Manzanillo","position":{"lat":19.11695,"lng":-104.34214},"status":"surplus"},{"frame_index":486,"name":"ports_6","capacity":10000,"empty":266,"full":251,"on_shipper":23,"on_consignee":0,"shortage":0,"acc_shortage":837,"booking":12,"acc_booking":5919,"fulfillment":12,"acc_fulfillment":5082,"transfer_cost":0.0,"port_name":"Melbourne","position":{"lat":-37.840935,"lng":144.946457},"status":"surplus"},{"frame_index":486,"name":"ports_7","capacity":10000,"empty":2216,"full":22,"on_shipper":12,"on_consignee":0,"shortage":0,"acc_shortage":0,"booking":12,"acc_booking":5922,"fulfillment":12,"acc_fulfillment":5922,"transfer_cost":0.0,"port_name":"Montreal","position":{"lat":45.516136,"lng":-73.65683},"status":"surplus"},{"frame_index":486,"name":"ports_8","capacity":10000,"empty":2095,"full":246,"on_shipper":32,"on_consignee":0,"shortage":0,"acc_shortage":0,"booking":23,"acc_booking":11557,"fulfillment":23,"acc_fulfillment":11557,"transfer_cost":0.0,"port_name":"New York","position":{"lat":40.73061,"lng":-73.935242},"status":"surplus"},{"frame_index":486,"name":"ports_9","capacity":10000,"empty":2347,"full":448,"on_shipper":39,"on_consignee":0,"shortage":0,"acc_shortage":45,"booking":23,"acc_booking":11564,"fulfillment":23,"acc_fulfillment":11519,"transfer_cost":0.0,"port_name":"Oakland","position":{"lat":37.804363,"lng":-122.271111},"status":"surplus"},{"frame_index":486,"name":"ports_10","capacity":10000,"empty":108,"full":360,"on_shipper":24,"on_consignee":0,"shortage":0,"acc_shortage":0,"booking":13,"acc_booking":5929,"fulfillment":13,"acc_fulfillment":5929,"transfer_cost":0.0,"port_name":"Prince Rupert","position":{"lat":54.312519,"lng":-130.305405},"status":"balance"},{"frame_index":486,"name":"ports_11","capacity":10000,"empty":3426,"full":472,"on_shipper":64,"on_consignee":0,"shortage":0,"acc_shortage":204,"booking":45,"acc_booking":22913,"fulfillment":45,"acc_fulfillment":22709,"transfer_cost":0.0,"port_name":"Pusan","position":{"lat":35.166668,"lng":129.066666},"status":"surplus"},{"frame_index":486,"name":"ports_12","capacity":10000,"empty":4853,"full":920,"on_shipper":114,"on_consignee":0,"shortage":0,"acc_shortage":0,"booking":64,"acc_booking":30631,"fulfillment":64,"acc_fulfillment":30631,"transfer_cost":0.0,"port_name":"Qingdao","position":{"lat":36.066898,"lng":120.382698},"status":"surplus"},{"frame_index":486,"name":"ports_13","capacity":10000,"empty":628,"full":32,"on_shipper":11,"on_consignee":0,"shortage":0,"acc_shortage":286,"booking":9,"acc_booking":4018,"fulfillment":9,"acc_fulfillment":3732,"transfer_cost":0.0,"port_name":"San Antonio","position":{"lat":29.424349,"lng":-98.491142},"status":"surplus"},{"frame_index":486,"name":"ports_14","capacity":10000,"empty":199,"full":220,"on_shipper":11,"on_consignee":0,"shortage":0,"acc_shortage":697,"booking":8,"acc_booking":4057,"fulfillment":8,"acc_fulfillment":3360,"transfer_cost":0.0,"port_name":"Santos","position":{"lat":-23.96083,"lng":-46.33361},"status":"surplus"},{"frame_index":486,"name":"ports_15","capacity":10000,"empty":4554,"full":160,"on_shipper":95,"on_consignee":0,"shortage":0,"acc_shortage":0,"booking":54,"acc_booking":26753,"fulfillment":54,"acc_fulfillment":26753,"transfer_cost":0.0,"port_name":"Seattle","position":{"lat":47.608013,"lng":-122.335167},"status":"surplus"},{"frame_index":486,"name":"ports_16","capacity":10000,"empty":1212,"full":1315,"on_shipper":120,"on_consignee":0,"shortage":0,"acc_shortage":0,"booking":65,"acc_booking":38150,"fulfillment":65,"acc_fulfillment":38150,"transfer_cost":0.0,"port_name":"Shanghai","position":{"lat":31.224361,"lng":121.46917},"status":"surplus"},{"frame_index":486,"name":"ports_17","capacity":10000,"empty":3150,"full":333,"on_shipper":46,"on_consignee":0,"shortage":0,"acc_shortage":40,"booking":31,"acc_booking":15411,"fulfillment":31,"acc_fulfillment":15371,"transfer_cost":0.0,"port_name":"Singapore","position":{"lat":1.29027,"lng":103.851959},"status":"surplus"},{"frame_index":486,"name":"ports_18","capacity":10000,"empty":577,"full":232,"on_shipper":20,"on_consignee":0,"shortage":0,"acc_shortage":774,"booking":11,"acc_booking":5887,"fulfillment":11,"acc_fulfillment":5113,"transfer_cost":0.0,"port_name":"Sydney","position":{"lat":-33.865143,"lng":151.2099},"status":"surplus"},{"frame_index":486,"name":"ports_19","capacity":10000,"empty":857,"full":252,"on_shipper":24,"on_consignee":0,"shortage":0,"acc_shortage":0,"booking":16,"acc_booking":7864,"fulfillment":16,"acc_fulfillment":7864,"transfer_cost":0.0,"port_name":"Vancouver","position":{"lat":49.246292,"lng":-123.116226},"status":"surplus"},{"frame_index":486,"name":"ports_20","capacity":10000,"empty":2007,"full":528,"on_shipper":66,"on_consignee":265,"shortage":0,"acc_shortage":350,"booking":50,"acc_booking":26508,"fulfillment":50,"acc_fulfillment":26158,"transfer_cost":99.0,"port_name":"Yantian","position":{"lat":26.8533,"lng":119.8575},"status":"surplus"},{"frame_index":486,"name":"ports_21","capacity":10000,"empty":1677,"full":568,"on_shipper":67,"on_consignee":0,"shortage":0,"acc_shortage":2740,"booking":51,"acc_booking":25206,"fulfillment":51,"acc_fulfillment":22466,"transfer_cost":0.0,"port_name":"Yokohama","position":{"lat":35.443707,"lng":139.638031},"status":"surplus"}]