[{"frame_index":820,"name":"ports_0","capacity":10000,"empty":4465,"full":4342,"on_shipper":68,"on_consignee":0,"shortage":0,"acc_shortage":522,"booking":19,"acc_booking":103764,"fulfillment":19,"acc_fulfillment":103242,"transfer_cost":0.0,"port_name":"Bremerhaven","position":{"lat":53.549999,"lng":8.583333},"status":"surplus"},{"frame_index":820,"name":"ports_1","capacity":10000,"empty":213,"full":210,"on_shipper":4,"on_consignee":0,"shortage":0,"acc_shortage":10,"booking":2,"acc_booking":6905,"fulfillment":2,"acc_fulfillment":6895,"transfer_cost":0.0,"port_name":"Durban","position":{"lat":-29.8579,"lng":31.0292},"status":"surplus"},{"frame_index":820,"name":"ports_2","capacity":10000,"empty":304,"full":282,"on_shipper":2,"on_consignee":0,"shortage":0,"acc_shortage":298,"booking":2,"acc_booking":6879,"fulfillment":2,"acc_fulfillment":6581,"transfer_cost":0.0,"port_name":"Itagual","position":{"lat":-22.85222,"lng":-43.77528},"status":"surplus"},{"frame_index":820,"name":"ports_3","capacity":10000,"empty":4743,"full":254,"on_shipper":26,"on_consignee":123,"shortage":0,"acc_shortage":0,"booking":8,"acc_booking":39287,"fulfillment":8,"acc_fulfillment":39287,"transfer_cost":0.0,"port_name":"LeHavre","position":{"lat":49.490002,"lng":0.1},"status":"surplus"},{"frame_index":820,"name":"ports_4","capacity":10000,"empty":530,"full":1272,"on_shipper":33,"on_consignee":0,"shortage":0,"acc_shortage":290,"booking":7,"acc_booking":32891,"fulfillment":7,"acc_fulfillment":32601,"transfer_cost":0.0,"port_name":"Los Angeles","position":{"lat":34.052235,"lng":-118.243683},"status":"surplus"},{"frame_index":820,"name":"ports_5","capacity":10000,"empty":2823,"full":411,"on_shipper":15,"on_consignee":0,"shortage":0,"acc_shortage":123,"booking":6,"acc_booking":33013,"fulfillment":6,"acc_fulfillment":32890,"transfer_cost":0.0,"port_name":"Manzanillo","position":{"lat":19.11695,"lng":-104.34214},"status":"surplus"},{"frame_index":820,"name":"ports_6","capacity":10000,"empty":0,"full":451,"on_shipper":0,"on_consignee":0,"shortage":2,"acc_shortage":1590,"booking":2,"acc_booking":10129,"fulfillment":0,"acc_fulfillment":8539,"transfer_cost":0.0,"port_name":"Melbourne","position":{"lat":-37.840935,"lng":144.946457},"status":"balance"},{"frame_index":820,"name":"ports_7","capacity":10000,"empty":699,"full":346,"on_shipper":13,"on_consignee":0,"shortage":0,"acc_shortage":0,"booking":2,"acc_booking":10142,"fulfillment":2,"acc_fulfillment":10142,"transfer_cost":0.0,"port_name":"Montreal","position":{"lat":45.516136,"lng":-73.65683},"status":"surplus"},{"frame_index":820,"name":"ports_8","capacity":10000,"empty":1953,"full":551,"on_shipper":26,"on_consignee":0,"shortage":0,"acc_shortage":136,"booking":4,"acc_booking":19798,"fulfillment":4,"acc_fulfillment":19662,"transfer_cost":0.0,"port_name":"New York","position":{"lat":40.73061,"lng":-73.935242},"status":"surplus"},{"frame_index":820,"name":"ports_9","capacity":10000,"empty":1187,"full":477,"on_shipper":10,"on_consignee":0,"shortage":0,"acc_shortage":45,"booking":4,"acc_booking":19834,"fulfillment":4,"acc_fulfillment":19789,"transfer_cost":0.0,"port_name":"Oakland","position":{"lat":37.804363,"lng":-122.271111},"status":"surplus"},{"frame_index":820,"name":"ports_10","capacity":10000,"empty":1212,"full":280,"on_shipper":8,"on_consignee":0,"shortage":0,"acc_shortage":314,"booking":3,"acc_booking":10163,"fulfillment":3,"acc_fulfillment":9849,"transfer_cost":0.0,"port_name":"Prince Rupert","position":{"lat":54.312519,"lng":-130.305405},"status":"surplus"},{"frame_index":820,"name":"ports_11","capacity":10000,"empty":2983,"full":996,"on_shipper":37,"on_consignee":0,"shortage":0,"acc_shortage":204,"booking":8,"acc_booking":39252,"fulfillment":8,"acc_fulfillment":39048,"transfer_cost":0.0,"port_name":"Pusan","position":{"lat":35.166668,"lng":129.066666},"status":"surplus"},{"frame_index":820,"name":"ports_12","capacity":10000,"empty":4829,"full":1084,"on_shipper":38,"on_consignee":0,"shortage":0,"acc_shortage":0,"booking":11,"acc_booking":52421,"fulfillment":11,"acc_fulfillment":52421,"transfer_cost":0.0,"port_name":"Qingdao","position":{"lat":36.066898,"lng":120.382698},"status":"surplus"},{"frame_index":820,"name":"ports_13","capacity":10000,"empty":568,"full":199,"on_shipper":7,"on_consignee":0,"shortage":0,"acc_shortage":449,"booking":2,"acc_booking":6881,"fulfillment":2,"acc_fulfillment":6432,"transfer_cost":0.0,"port_name":"San Antonio","position":{"lat":29.424349,"lng":-98.491142},"status":"surplus"},{"frame_index":820,"name":"ports_14","capacity":10000,"empty":54,"full":237,"on_shipper":4,"on_consignee":0,"shortage":0,"acc_shortage":762,"booking":2,"acc_booking":6922,"fulfillment":2,"acc_fulfillment":6160,"transfer_cost":0.0,"port_name":"Santos","position":{"lat":-23.96083,"lng":-46.33361},"status":"balance"},{"frame_index":820,"name":"ports_15","capacity":10000,"empty":2250,"full":903,"on_shipper":17,"on_consignee":0,"shortage":0,"acc_shortage":0,"booking":9,"acc_booking":45830,"fulfillment":9,"acc_fulfillment":45830,"transfer_cost":0.0,"port_name":"Seattle","position":{"lat":47.608013,"lng":-122.335167},"status":"surplus"},{"frame_index":820,"name":"ports_16","capacity":10000,"empty":2874,"full":1468,"on_shipper":45,"on_consignee":4,"shortage":0,"acc_shortage":760,"booking":15,"acc_booking":65199,"fulfillment":15,"acc_fulfillment":64439,"transfer_cost":0.0,"port_name":"Shanghai","position":{"lat":31.224361,"lng":121.46917},"status":"surplus"},{"frame_index":820,"name":"ports_17","capacity":10000,"empty":587,"full":382,"on_shipper":20,"on_consignee":6,"shortage":0,"acc_shortage":283,"booking":5,"acc_booking":26397,"fulfillment":5,"acc_fulfillment":26114,"transfer_cost":0.0,"port_name":"Singapore","position":{"lat":1.29027,"lng":103.851959},"status":"surplus"},{"frame_index":820,"name":"ports_18","capacity":10000,"empty":1133,"full":105,"on_shipper":12,"on_consignee":0,"shortage":0,"acc_shortage":1374,"booking":2,"acc_booking":10149,"fulfillment":2,"acc_fulfillment":8775,"transfer_cost":0.0,"port_name":"Sydney","position":{"lat":-33.865143,"lng":151.2099},"status":"surplus"},{"frame_index":820,"name":"ports_19","capacity":10000,"empty":1415,"full":477,"on_shipper":9,"on_consignee":0,"shortage":0,"acc_shortage":0,"booking":3,"acc_booking":13438,"fulfillment":3,"acc_fulfillment":13438,"transfer_cost":0.0,"port_name":"Vancouver","position":{"lat":49.246292,"lng":-123.116226},"status":"surplus"},{"frame_index":820,"name":"ports_20","capacity":10000,"empty":1689,"full":649,"on_shipper":34,"on_consignee":0,"shortage":0,"acc_shortage":942,"booking":9,"acc_booking":45550,"fulfillment":9,"acc_fulfillment":44608,"transfer_cost":0.0,"port_name":"Yantian","position":{"lat":26.8533,"lng":119.8575},"status":"surplus"},{"frame_index":820,"name":"ports_21","capacity":10000,"empty":904,"full":487,"on_shipper":23,"on_consignee":0,"shortage":0,"acc_shortage":6236,"booking":0,"acc_booking":43299,"fulfillment":0,"acc_fulfillment":37063,"transfer_cost":0.0,"port_name":"Yokohama","position":{"lat":35.443707,"lng":139.638031},"status":"surplus"}]