[{"frame_index":559,"name":"ports_0","capacity":10000,"empty":5878,"full":174,"on_shipper":65,"on_consignee":848,"shortage":0,"acc_shortage":522,"booking":65,"acc_booking":71278,"fulfillment":65,"acc_fulfillment":70756,"transfer_cost":876.0,"port_name":"Bremerhaven","position":{"lat":53.549999,"lng":8.583333},"status":"surplus"},{"frame_index":559,"name":"ports_1","capacity":10000,"empty":405,"full":188,"on_shipper":5,"on_consignee":0,"shortage":0,"acc_shortage":0,"booking":4,"acc_booking":4755,"fulfillment":4,"acc_fulfillment":4755,"transfer_cost":0.0,"port_name":"Durban","position":{"lat":-29.8579,"lng":31.0292},"status":"surplus"},{"frame_index":559,"name":"ports_2","capacity":10000,"empty":333,"full":47,"on_shipper":5,"on_consignee":0,"shortage":0,"acc_shortage":233,"booking":4,"acc_booking":4728,"fulfillment":4,"acc_fulfillment":4495,"transfer_cost":0.0,"port_name":"Itagual","position":{"lat":-22.85222,"lng":-43.77528},"status":"surplus"},{"frame_index":559,"name":"ports_3","capacity":10000,"empty":827,"full":1462,"on_shipper":24,"on_consignee":0,"shortage":0,"acc_shortage":0,"booking":22,"acc_booking":27028,"fulfillment":22,"acc_fulfillment":27028,"transfer_cost":0.0,"port_name":"LeHavre","position":{"lat":49.490002,"lng":0.1},"status":"surplus"},{"frame_index":559,"name":"ports_4","capacity":10000,"empty":931,"full":155,"on_shipper":22,"on_consignee":747,"shortage":0,"acc_shortage":0,"booking":19,"acc_booking":22605,"fulfillment":19,"acc_fulfillment":22605,"transfer_cost":0.0,"port_name":"Los Angeles","position":{"lat":34.052235,"lng":-118.243683},"status":"surplus"},{"frame_index":559,"name":"ports_5","capacity":10000,"empty":2152,"full":258,"on_shipper":23,"on_consignee":0,"shortage":0,"acc_shortage":123,"booking":19,"acc_booking":22651,"fulfillment":19,"acc_fulfillment":22528,"transfer_cost":0.0,"port_name":"Manzanillo","position":{"lat":19.11695,"lng":-104.34214},"status":"surplus"},{"frame_index":559,"name":"ports_6","capacity":10000,"empty":422,"full":7,"on_shipper":7,"on_consignee":132,"shortage":0,"acc_shortage":1259,"booking":6,"acc_booking":6960,"fulfillment":6,"acc_fulfillment":5701,"transfer_cost":0.0,"port_name":"Melbourne","position":{"lat":-37.840935,"lng":144.946457},"status":"surplus"},{"frame_index":559,"name":"ports_7","capacity":10000,"empty":1564,"full":112,"on_shipper":6,"on_consignee":0,"shortage":0,"acc_shortage":0,"booking":6,"acc_booking":6963,"fulfillment":6,"acc_fulfillment":6963,"transfer_cost":0.0,"port_name":"Montreal","position":{"lat":45.516136,"lng":-73.65683},"status":"surplus"},{"frame_index":559,"name":"ports_8","capacity":10000,"empty":2056,"full":77,"on_shipper":15,"on_consignee":0,"shortage":0,"acc_shortage":0,"booking":12,"acc_booking":13611,"fulfillment":12,"acc_fulfillment":13611,"transfer_cost":0.0,"port_name":"New York","position":{"lat":40.73061,"lng":-73.935242},"status":"surplus"},{"frame_index":559,"name":"ports_9","capacity":10000,"empty":462,"full":0,"on_shipper":15,"on_consignee":288,"shortage":0,"acc_shortage":45,"booking":12,"acc_booking":13637,"fulfillment":12,"acc_fulfillment":13592,"transfer_cost":1848.0,"port_name":"Oakland","position":{"lat":37.804363,"lng":-122.271111},"status":"surplus"},{"frame_index":559,"name":"ports_10","capacity":10000,"empty":946,"full":113,"on_shipper":6,"on_consignee":0,"shortage":0,"acc_shortage":314,"booking":5,"acc_booking":6978,"fulfillment":5,"acc_fulfillment":6664,"transfer_cost":0.0,"port_name":"Prince Rupert","position":{"lat":54.312519,"lng":-130.305405},"status":"surplus"},{"frame_index":559,"name":"ports_11","capacity":10000,"empty":193,"full":1984,"on_shipper":30,"on_consignee":0,"shortage":0,"acc_shortage":204,"booking":23,"acc_booking":26976,"fulfillment":23,"acc_fulfillment":26772,"transfer_cost":0.0,"port_name":"Pusan","position":{"lat":35.166668,"lng":129.066666},"status":"surplus"},{"frame_index":559,"name":"ports_12","capacity":10000,"empty":3387,"full":537,"on_shipper":36,"on_consignee":0,"shortage":0,"acc_shortage":0,"booking":32,"acc_booking":36085,"fulfillment":32,"acc_fulfillment":36085,"transfer_cost":0.0,"port_name":"Qingdao","position":{"lat":36.066898,"lng":120.382698},"status":"surplus"},{"frame_index":559,"name":"ports_13","capacity":10000,"empty":151,"full":235,"on_shipper":5,"on_consignee":0,"shortage":0,"acc_shortage":286,"booking":4,"acc_booking":4721,"fulfillment":4,"acc_fulfillment":4435,"transfer_cost":0.0,"port_name":"San Antonio","position":{"lat":29.424349,"lng":-98.491142},"status":"surplus"},{"frame_index":559,"name":"ports_14","capacity":10000,"empty":477,"full":19,"on_shipper":6,"on_consignee":0,"shortage":0,"acc_shortage":762,"booking":4,"acc_booking":4770,"fulfillment":4,"acc_fulfillment":4008,"transfer_cost":0.0,"port_name":"Santos","position":{"lat":-23.96083,"lng":-46.33361},"status":"surplus"},{"frame_index":559,"name":"ports_15","capacity":10000,"empty":1942,"full":2566,"on_shipper":31,"on_consignee":0,"shortage":0,"acc_shortage":0,"booking":25,"acc_booking":31486,"fulfillment":25,"acc_fulfillment":31486,"transfer_cost":0.0,"port_name":"Seattle","position":{"lat":47.608013,"lng":-122.335167},"status":"surplus"},{"frame_index":559,"name":"ports_16","capacity":10000,"empty":689,"full":2356,"on_shipper":41,"on_consignee":4,"shortage":0,"acc_shortage":470,"booking":36,"acc_booking":44920,"fulfillment":36,"acc_fulfillment":44450,"transfer_cost":0.0,"port_name":"Shanghai","position":{"lat":31.224361,"lng":121.46917},"status":"surplus"},{"frame_index":559,"name":"ports_17","capacity":10000,"empty":726,"full":486,"on_shipper":17,"on_consignee":140,"shortage":0,"acc_shortage":40,"booking":15,"acc_booking":18141,"fulfillment":15,"acc_fulfillment":18101,"transfer_cost":92.0,"port_name":"Singapore","position":{"lat":1.29027,"lng":103.851959},"status":"surplus"},{"frame_index":559,"name":"ports_18","capacity":10000,"empty":730,"full":82,"on_shipper":7,"on_consignee":0,"shortage":0,"acc_shortage":957,"booking":6,"acc_booking":6935,"fulfillment":6,"acc_fulfillment":5978,"transfer_cost":0.0,"port_name":"Sydney","position":{"lat":-33.865143,"lng":151.2099},"status":"surplus"},{"frame_index":559,"name":"ports_19","capacity":10000,"empty":653,"full":324,"on_shipper":8,"on_consignee":0,"shortage":0,"acc_shortage":0,"booking":8,"acc_booking":9255,"fulfillment":8,"acc_fulfillment":9255,"transfer_cost":0.0,"port_name":"Vancouver","position":{"lat":49.246292,"lng":-123.116226},"status":"surplus"},{"frame_index":559,"name":"ports_20","capacity":10000,"empty":428,"full":1808,"on_shipper":28,"on_consignee":357,"shortage":0,"acc_shortage":395,"booking":24,"acc_booking":31289,"fulfillment":24,"acc_fulfillment":30894,"transfer_cost":1.0,"port_name":"Yantian","position":{"lat":26.8533,"lng":119.8575},"status":"surplus"},{"frame_index":559,"name":"ports_21","capacity":10000,"empty":1241,"full":53,"on_shipper":20,"on_consignee":0,"shortage":0,"acc_shortage":3258,"booking":20,"acc_booking":29810,"fulfillment":20,"acc_fulfillment":26552,"transfer_cost":0.0,"port_name":"Yokohama","position":{"lat":35.443707,"lng":139.638031},"status":"surplus"}]