[{"frame_index":51,"name":"ports_0","capacity":10000,"empty":10438,"full":2220,"on_shipper":173,"on_consignee":88,"shortage":0,"acc_shortage":0,"booking":125,"acc_booking":5875,"fulfillment":125,"acc_fulfillment":5875,"transfer_cost":0.0,"port_name":"Bremerhaven","position":{"lat":53.549999,"lng":8.583333},"status":"surplus"},{"frame_index":51,"name":"ports_1","capacity":10000,"empty":678,"full":165,"on_shipper":7,"on_consignee":0,"shortage":0,"acc_shortage":0,"booking":7,"acc_booking":394,"fulfillment":7,"acc_fulfillment":394,"transfer_cost":0.0,"port_name":"Durban","position":{"lat":-29.8579,"lng":31.0292},"status":"surplus"},{"frame_index":51,"name":"ports_2","capacity":10000,"empty":687,"full":25,"on_shipper":8,"on_consignee":0,"shortage":0,"acc_shortage":0,"booking":7,"acc_booking":393,"fulfillment":7,"acc_fulfillment":393,"transfer_cost":0.0,"port_name":"Itagual","position":{"lat":-22.85222,"lng":-43.77528},"status":"surplus"},{"frame_index":51,"name":"ports_3","capacity":10000,"empty":3475,"full":448,"on_shipper":55,"on_consignee":0,"shortage":0,"acc_shortage":0,"booking":42,"acc_booking":2237,"fulfillment":42,"acc_fulfillment":2237,"transfer_cost":0.0,"port_name":"LeHavre","position":{"lat":49.490002,"lng":0.1},"status":"surplus"},{"frame_index":51,"name":"ports_4","capacity":10000,"empty":3133,"full":1349,"on_shipper":53,"on_consignee":0,"shortage":0,"acc_shortage":0,"booking":34,"acc_booking":1867,"fulfillment":34,"acc_fulfillment":1867,"transfer_cost":0.0,"port_name":"Los Angeles","position":{"lat":34.052235,"lng":-118.243683},"status":"surplus"},{"frame_index":51,"name":"ports_5","capacity":10000,"empty":3333,"full":34,"on_shipper":52,"on_consignee":6,"shortage":0,"acc_shortage":0,"booking":37,"acc_booking":1871,"fulfillment":37,"acc_fulfillment":1871,"transfer_cost":0.0,"port_name":"Manzanillo","position":{"lat":19.11695,"lng":-104.34214},"status":"surplus"},{"frame_index":51,"name":"ports_6","capacity":10000,"empty":926,"full":446,"on_shipper":14,"on_consignee":0,"shortage":0,"acc_shortage":0,"booking":10,"acc_booking":574,"fulfillment":10,"acc_fulfillment":574,"transfer_cost":0.0,"port_name":"Melbourne","position":{"lat":-37.840935,"lng":144.946457},"status":"surplus"},{"frame_index":51,"name":"ports_7","capacity":10000,"empty":1452,"full":364,"on_shipper":14,"on_consignee":0,"shortage":0,"acc_shortage":0,"booking":11,"acc_booking":574,"fulfillment":11,"acc_fulfillment":574,"transfer_cost":0.0,"port_name":"Montreal","position":{"lat":45.516136,"lng":-73.65683},"status":"surplus"},{"frame_index":51,"name":"ports_8","capacity":10000,"empty":2079,"full":0,"on_shipper":34,"on_consignee":757,"shortage":0,"acc_shortage":0,"booking":20,"acc_booking":1125,"fulfillment":20,"acc_fulfillment":1125,"transfer_cost":0.0,"port_name":"New York","position":{"lat":40.73061,"lng":-73.935242},"status":"surplus"},{"frame_index":51,"name":"ports_9","capacity":10000,"empty":2052,"full":413,"on_shipper":24,"on_consignee":0,"shortage":0,"acc_shortage":0,"booking":20,"acc_booking":1124,"fulfillment":20,"acc_fulfillment":1124,"transfer_cost":0.0,"port_name":"Oakland","position":{"lat":37.804363,"lng":-122.271111},"status":"surplus"},{"frame_index":51,"name":"ports_10","capacity":10000,"empty":927,"full":40,"on_shipper":13,"on_consignee":0,"shortage":0,"acc_shortage":0,"booking":9,"acc_booking":586,"fulfillment":9,"acc_fulfillment":586,"transfer_cost":0.0,"port_name":"Prince Rupert","position":{"lat":54.312519,"lng":-130.305405},"status":"surplus"},{"frame_index":51,"name":"ports_11","capacity":10000,"empty":3953,"full":1136,"on_shipper":58,"on_consignee":0,"shortage":0,"acc_shortage":0,"booking":42,"acc_booking":2229,"fulfillment":42,"acc_fulfillment":2229,"transfer_cost":0.0,"port_name":"Pusan","position":{"lat":35.166668,"lng":129.066666},"status":"surplus"},{"frame_index":51,"name":"ports_12","capacity":10000,"empty":5116,"full":2338,"on_shipper":82,"on_consignee":0,"shortage":0,"acc_shortage":0,"booking":52,"acc_booking":2978,"fulfillment":52,"acc_fulfillment":2978,"transfer_cost":0.0,"port_name":"Qingdao","position":{"lat":36.066898,"lng":120.382698},"status":"surplus"},{"frame_index":51,"name":"ports_13","capacity":10000,"empty":619,"full":183,"on_shipper":8,"on_consignee":0,"shortage":0,"acc_shortage":0,"booking":7,"acc_booking":395,"fulfillment":7,"acc_fulfillment":395,"transfer_cost":0.0,"port_name":"San Antonio","position":{"lat":29.424349,"lng":-98.491142},"status":"surplus"},{"frame_index":51,"name":"ports_14","capacity":10000,"empty":605,"full":385,"on_shipper":10,"on_consignee":0,"shortage":0,"acc_shortage":0,"booking":8,"acc_booking":395,"fulfillment":8,"acc_fulfillment":395,"transfer_cost":0.0,"port_name":"Santos","position":{"lat":-23.96083,"lng":-46.33361},"status":"surplus"},{"frame_index":51,"name":"ports_15","capacity":10000,"empty":4633,"full":828,"on_shipper":68,"on_consignee":0,"shortage":0,"acc_shortage":0,"booking":47,"acc_booking":2599,"fulfillment":47,"acc_fulfillment":2599,"transfer_cost":0.0,"port_name":"Seattle","position":{"lat":47.608013,"lng":-122.335167},"status":"surplus"},{"frame_index":51,"name":"ports_16","capacity":10000,"empty":6247,"full":1595,"on_shipper":96,"on_consignee":18,"shortage":0,"acc_shortage":0,"booking":71,"acc_booking":3792,"fulfillment":71,"acc_fulfillment":3792,"transfer_cost":0.0,"port_name":"Shanghai","position":{"lat":31.224361,"lng":121.46917},"status":"surplus"},{"frame_index":51,"name":"ports_17","capacity":10000,"empty":2552,"full":598,"on_shipper":36,"on_consignee":0,"shortage":0,"acc_shortage":0,"booking":27,"acc_booking":1498,"fulfillment":27,"acc_fulfillment":1498,"transfer_cost":0.0,"port_name":"Singapore","position":{"lat":1.29027,"lng":103.851959},"status":"surplus"},{"frame_index":51,"name":"ports_18","capacity":10000,"empty":938,"full":147,"on_shipper":12,"on_consignee":0,"shortage":0,"acc_shortage":0,"booking":9,"acc_booking":565,"fulfillment":9,"acc_fulfillment":565,"transfer_cost":0.0,"port_name":"Sydney","position":{"lat":-33.865143,"lng":151.2099},"status":"surplus"},{"frame_index":51,"name":"ports_19","capacity":10000,"empty":1253,"full":428,"on_shipper":17,"on_consignee":0,"shortage":0,"acc_shortage":0,"booking":14,"acc_booking":766,"fulfillment":14,"acc_fulfillment":766,"transfer_cost":0.0,"port_name":"Vancouver","position":{"lat":49.246292,"lng":-123.116226},"status":"surplus"},{"frame_index":51,"name":"ports_20","capacity":10000,"empty":4495,"full":632,"on_shipper":76,"on_consignee":12,"shortage":0,"acc_shortage":0,"booking":50,"acc_booking":2577,"fulfillment":50,"acc_fulfillment":2577,"transfer_cost":0.0,"port_name":"Yantian","position":{"lat":26.8533,"lng":119.8575},"status":"surplus"},{"frame_index":51,"name":"ports_21","capacity":10000,"empty":5655,"full":269,"on_shipper":61,"on_consignee":0,"shortage":0,"acc_shortage":0,"booking":44,"acc_booking":2418,"fulfillment":44,"acc_fulfillment":2418,"transfer_cost":0.0,"port_name":"Yokohama","position":{"lat":35.443707,"lng":139.638031},"status":"surplus"}]