[{"frame_index":1064,"name":"ports_0","capacity":10000,"empty":3091,"full":2759,"on_shipper":429,"on_consignee":0,"shortage":0,"acc_shortage":861,"booking":256,"acc_booking":136831,"fulfillment":256,"acc_fulfillment":135970,"transfer_cost":0.0,"port_name":"Bremerhaven","position":{"lat":53.549999,"lng":8.583333},"status":"surplus"},{"frame_index":1064,"name":"ports_1","capacity":10000,"empty":443,"full":150,"on_shipper":31,"on_consignee":0,"shortage":0,"acc_shortage":113,"booking":16,"acc_booking":9088,"fulfillment":16,"acc_fulfillment":8975,"transfer_cost":0.0,"port_name":"Durban","position":{"lat":-29.8579,"lng":31.0292},"status":"surplus"},{"frame_index":1064,"name":"ports_2","capacity":10000,"empty":503,"full":232,"on_shipper":27,"on_consignee":0,"shortage":0,"acc_shortage":298,"booking":17,"acc_booking":9052,"fulfillment":17,"acc_fulfillment":8754,"transfer_cost":0.0,"port_name":"Itagual","position":{"lat":-22.85222,"lng":-43.77528},"status":"surplus"},{"frame_index":1064,"name":"ports_3","capacity":10000,"empty":5290,"full":1822,"on_shipper":129,"on_consignee":0,"shortage":0,"acc_shortage":0,"booking":105,"acc_booking":51731,"fulfillment":105,"acc_fulfillment":51731,"transfer_cost":0.0,"port_name":"LeHavre","position":{"lat":49.490002,"lng":0.1},"status":"surplus"},{"frame_index":1064,"name":"ports_4","capacity":10000,"empty":1695,"full":1406,"on_shipper":111,"on_consignee":0,"shortage":0,"acc_shortage":290,"booking":87,"acc_booking":43318,"fulfillment":87,"acc_fulfillment":43028,"transfer_cost":0.0,"port_name":"Los Angeles","position":{"lat":34.052235,"lng":-118.243683},"status":"surplus"},{"frame_index":1064,"name":"ports_5","capacity":10000,"empty":884,"full":1433,"on_shipper":142,"on_consignee":0,"shortage":0,"acc_shortage":194,"booking":96,"acc_booking":43366,"fulfillment":96,"acc_fulfillment":43172,"transfer_cost":0.0,"port_name":"Manzanillo","position":{"lat":19.11695,"lng":-104.34214},"status":"surplus"},{"frame_index":1064,"name":"ports_6","capacity":10000,"empty":296,"full":270,"on_shipper":42,"on_consignee":0,"shortage":0,"acc_shortage":2108,"booking":26,"acc_booking":13340,"fulfillment":26,"acc_fulfillment":11232,"transfer_cost":0.0,"port_name":"Melbourne","position":{"lat":-37.840935,"lng":144.946457},"status":"surplus"},{"frame_index":1064,"name":"ports_7","capacity":10000,"empty":1430,"full":238,"on_shipper":52,"on_consignee":0,"shortage":0,"acc_shortage":0,"booking":26,"acc_booking":13344,"fulfillment":26,"acc_fulfillment":13344,"transfer_cost":0.0,"port_name":"Montreal","position":{"lat":45.516136,"lng":-73.65683},"status":"surplus"},{"frame_index":1064,"name":"ports_8","capacity":10000,"empty":5536,"full":336,"on_shipper":80,"on_consignee":0,"shortage":0,"acc_shortage":136,"booking":54,"acc_booking":26078,"fulfillment":54,"acc_fulfillment":25942,"transfer_cost":0.0,"port_name":"New York","position":{"lat":40.73061,"lng":-73.935242},"status":"surplus"},{"frame_index":1064,"name":"ports_9","capacity":10000,"empty":1945,"full":210,"on_shipper":83,"on_consignee":0,"shortage":0,"acc_shortage":45,"booking":59,"acc_booking":26129,"fulfillment":59,"acc_fulfillment":26084,"transfer_cost":0.0,"port_name":"Oakland","position":{"lat":37.804363,"lng":-122.271111},"status":"surplus"},{"frame_index":1064,"name":"ports_10","capacity":10000,"empty":1604,"full":134,"on_shipper":42,"on_consignee":0,"shortage":0,"acc_shortage":314,"booking":30,"acc_booking":13337,"fulfillment":30,"acc_fulfillment":13023,"transfer_cost":0.0,"port_name":"Prince Rupert","position":{"lat":54.312519,"lng":-130.305405},"status":"surplus"},{"frame_index":1064,"name":"ports_11","capacity":10000,"empty":2918,"full":605,"on_shipper":190,"on_consignee":0,"shortage":0,"acc_shortage":204,"booking":107,"acc_booking":51674,"fulfillment":107,"acc_fulfillment":51470,"transfer_cost":0.0,"port_name":"Pusan","position":{"lat":35.166668,"lng":129.066666},"status":"surplus"},{"frame_index":1064,"name":"ports_12","capacity":10000,"empty":3413,"full":1474,"on_shipper":200,"on_consignee":330,"shortage":0,"acc_shortage":0,"booking":136,"acc_booking":69045,"fulfillment":136,"acc_fulfillment":69045,"transfer_cost":0.0,"port_name":"Qingdao","position":{"lat":36.066898,"lng":120.382698},"status":"surplus"},{"frame_index":1064,"name":"ports_13","capacity":10000,"empty":345,"full":195,"on_shipper":24,"on_consignee":0,"shortage":0,"acc_shortage":459,"booking":17,"acc_booking":9057,"fulfillment":17,"acc_fulfillment":8598,"transfer_cost":0.0,"port_name":"San Antonio","position":{"lat":29.424349,"lng":-98.491142},"status":"surplus"},{"frame_index":1064,"name":"ports_14","capacity":10000,"empty":0,"full":378,"on_shipper":0,"on_consignee":0,"shortage":20,"acc_shortage":953,"booking":20,"acc_booking":9115,"fulfillment":0,"acc_fulfillment":8162,"transfer_cost":0.0,"port_name":"Santos","position":{"lat":-23.96083,"lng":-46.33361},"status":"demand"},{"frame_index":1064,"name":"ports_15","capacity":10000,"empty":2033,"full":1125,"on_shipper":165,"on_consignee":0,"shortage":0,"acc_shortage":1489,"booking":124,"acc_booking":60322,"fulfillment":124,"acc_fulfillment":58833,"transfer_cost":0.0,"port_name":"Seattle","position":{"lat":47.608013,"lng":-122.335167},"status":"surplus"},{"frame_index":1064,"name":"ports_16","capacity":10000,"empty":2268,"full":2187,"on_shipper":314,"on_consignee":0,"shortage":0,"acc_shortage":817,"booking":172,"acc_booking":86047,"fulfillment":172,"acc_fulfillment":85230,"transfer_cost":0.0,"port_name":"Shanghai","position":{"lat":31.224361,"lng":121.46917},"status":"surplus"},{"frame_index":1064,"name":"ports_17","capacity":10000,"empty":3258,"full":637,"on_shipper":89,"on_consignee":8,"shortage":0,"acc_shortage":619,"booking":69,"acc_booking":34732,"fulfillment":69,"acc_fulfillment":34113,"transfer_cost":0.0,"port_name":"Singapore","position":{"lat":1.29027,"lng":103.851959},"status":"surplus"},{"frame_index":1064,"name":"ports_18","capacity":10000,"empty":375,"full":560,"on_shipper":49,"on_consignee":0,"shortage":0,"acc_shortage":1374,"booking":30,"acc_booking":13334,"fulfillment":30,"acc_fulfillment":11960,"transfer_cost":0.0,"port_name":"Sydney","position":{"lat":-33.865143,"lng":151.2099},"status":"surplus"},{"frame_index":1064,"name":"ports_19","capacity":10000,"empty":1051,"full":603,"on_shipper":57,"on_consignee":0,"shortage":0,"acc_shortage":0,"booking":33,"acc_booking":17651,"fulfillment":33,"acc_fulfillment":17651,"transfer_cost":0.0,"port_name":"Vancouver","position":{"lat":49.246292,"lng":-123.116226},"status":"surplus"},{"frame_index":1064,"name":"ports_20","capacity":10000,"empty":491,"full":1742,"on_shipper":142,"on_consignee":0,"shortage":0,"acc_shortage":1425,"booking":116,"acc_booking":60044,"fulfillment":116,"acc_fulfillment":58619,"transfer_cost":0.0,"port_name":"Yantian","position":{"lat":26.8533,"lng":119.8575},"status":"demand"},{"frame_index":1064,"name":"ports_21","capacity":10000,"empty":88,"full":891,"on_shipper":160,"on_consignee":0,"shortage":0,"acc_shortage":8488,"booking":126,"acc_booking":57166,"fulfillment":126,"acc_fulfillment":48678,"transfer_cost":0.0,"port_name":"Yokohama","position":{"lat":35.443707,"lng":139.638031},"status":"demand"}]