[{"frame_index":940,"name":"ports_0","capacity":10000,"empty":3719,"full":2350,"on_shipper":439,"on_consignee":0,"shortage":0,"acc_shortage":522,"booking":272,"acc_booking":120049,"fulfillment":272,"acc_fulfillment":119527,"transfer_cost":0.0,"port_name":"Bremerhaven","position":{"lat":53.549999,"lng":8.583333},"status":"surplus"},{"frame_index":940,"name":"ports_1","capacity":10000,"empty":436,"full":159,"on_shipper":25,"on_consignee":0,"shortage":0,"acc_shortage":113,"booking":15,"acc_booking":7983,"fulfillment":15,"acc_fulfillment":7870,"transfer_cost":0.0,"port_name":"Durban","position":{"lat":-29.8579,"lng":31.0292},"status":"surplus"},{"frame_index":940,"name":"ports_2","capacity":10000,"empty":687,"full":120,"on_shipper":30,"on_consignee":0,"shortage":0,"acc_shortage":298,"booking":16,"acc_booking":7941,"fulfillment":16,"acc_fulfillment":7643,"transfer_cost":0.0,"port_name":"Itagual","position":{"lat":-22.85222,"lng":-43.77528},"status":"surplus"},{"frame_index":940,"name":"ports_3","capacity":10000,"empty":1029,"full":2467,"on_shipper":134,"on_consignee":0,"shortage":0,"acc_shortage":0,"booking":100,"acc_booking":45428,"fulfillment":100,"acc_fulfillment":45428,"transfer_cost":0.0,"port_name":"LeHavre","position":{"lat":49.490002,"lng":0.1},"status":"surplus"},{"frame_index":940,"name":"ports_4","capacity":10000,"empty":2650,"full":853,"on_shipper":108,"on_consignee":0,"shortage":0,"acc_shortage":290,"booking":84,"acc_booking":38053,"fulfillment":84,"acc_fulfillment":37763,"transfer_cost":0.0,"port_name":"Los Angeles","position":{"lat":34.052235,"lng":-118.243683},"status":"surplus"},{"frame_index":940,"name":"ports_5","capacity":10000,"empty":1207,"full":276,"on_shipper":133,"on_consignee":0,"shortage":0,"acc_shortage":163,"booking":78,"acc_booking":38125,"fulfillment":78,"acc_fulfillment":37962,"transfer_cost":0.0,"port_name":"Manzanillo","position":{"lat":19.11695,"lng":-104.34214},"status":"surplus"},{"frame_index":940,"name":"ports_6","capacity":10000,"empty":346,"full":252,"on_shipper":42,"on_consignee":0,"shortage":0,"acc_shortage":1855,"booking":25,"acc_booking":11712,"fulfillment":25,"acc_fulfillment":9857,"transfer_cost":0.0,"port_name":"Melbourne","position":{"lat":-37.840935,"lng":144.946457},"status":"surplus"},{"frame_index":940,"name":"ports_7","capacity":10000,"empty":1153,"full":398,"on_shipper":49,"on_consignee":0,"shortage":0,"acc_shortage":0,"booking":25,"acc_booking":11723,"fulfillment":25,"acc_fulfillment":11723,"transfer_cost":0.0,"port_name":"Montreal","position":{"lat":45.516136,"lng":-73.65683},"status":"surplus"},{"frame_index":940,"name":"ports_8","capacity":10000,"empty":1614,"full":63,"on_shipper":92,"on_consignee":0,"shortage":0,"acc_shortage":136,"booking":46,"acc_booking":22897,"fulfillment":46,"acc_fulfillment":22761,"transfer_cost":0.0,"port_name":"New York","position":{"lat":40.73061,"lng":-73.935242},"status":"surplus"},{"frame_index":940,"name":"ports_9","capacity":10000,"empty":1547,"full":247,"on_shipper":81,"on_consignee":0,"shortage":0,"acc_shortage":45,"booking":57,"acc_booking":22932,"fulfillment":57,"acc_fulfillment":22887,"transfer_cost":0.0,"port_name":"Oakland","position":{"lat":37.804363,"lng":-122.271111},"status":"surplus"},{"frame_index":940,"name":"ports_10","capacity":10000,"empty":1637,"full":168,"on_shipper":34,"on_consignee":0,"shortage":0,"acc_shortage":314,"booking":22,"acc_booking":11748,"fulfillment":22,"acc_fulfillment":11434,"transfer_cost":0.0,"port_name":"Prince Rupert","position":{"lat":54.312519,"lng":-130.305405},"status":"surplus"},{"frame_index":940,"name":"ports_11","capacity":10000,"empty":2849,"full":595,"on_shipper":170,"on_consignee":0,"shortage":0,"acc_shortage":204,"booking":99,"acc_booking":45373,"fulfillment":99,"acc_fulfillment":45169,"transfer_cost":0.0,"port_name":"Pusan","position":{"lat":35.166668,"lng":129.066666},"status":"surplus"},{"frame_index":940,"name":"ports_12","capacity":10000,"empty":4745,"full":895,"on_shipper":200,"on_consignee":311,"shortage":0,"acc_shortage":0,"booking":117,"acc_booking":60624,"fulfillment":117,"acc_fulfillment":60624,"transfer_cost":0.0,"port_name":"Qingdao","position":{"lat":36.066898,"lng":120.382698},"status":"surplus"},{"frame_index":940,"name":"ports_13","capacity":10000,"empty":321,"full":63,"on_shipper":29,"on_consignee":0,"shortage":0,"acc_shortage":449,"booking":17,"acc_booking":7951,"fulfillment":17,"acc_fulfillment":7502,"transfer_cost":0.0,"port_name":"San Antonio","position":{"lat":29.424349,"lng":-98.491142},"status":"surplus"},{"frame_index":940,"name":"ports_14","capacity":10000,"empty":3,"full":304,"on_shipper":29,"on_consignee":0,"shortage":0,"acc_shortage":819,"booking":19,"acc_booking":8008,"fulfillment":19,"acc_fulfillment":7189,"transfer_cost":0.0,"port_name":"Santos","position":{"lat":-23.96083,"lng":-46.33361},"status":"demand"},{"frame_index":940,"name":"ports_15","capacity":10000,"empty":210,"full":1987,"on_shipper":179,"on_consignee":0,"shortage":0,"acc_shortage":0,"booking":116,"acc_booking":52992,"fulfillment":116,"acc_fulfillment":52992,"transfer_cost":0.0,"port_name":"Seattle","position":{"lat":47.608013,"lng":-122.335167},"status":"demand"},{"frame_index":940,"name":"ports_16","capacity":10000,"empty":1108,"full":2690,"on_shipper":217,"on_consignee":571,"shortage":0,"acc_shortage":817,"booking":143,"acc_booking":75481,"fulfillment":143,"acc_fulfillment":74664,"transfer_cost":0.0,"port_name":"Shanghai","position":{"lat":31.224361,"lng":121.46917},"status":"surplus"},{"frame_index":940,"name":"ports_17","capacity":10000,"empty":978,"full":665,"on_shipper":89,"on_consignee":5,"shortage":0,"acc_shortage":283,"booking":66,"acc_booking":30510,"fulfillment":66,"acc_fulfillment":30227,"transfer_cost":0.0,"port_name":"Singapore","position":{"lat":1.29027,"lng":103.851959},"status":"surplus"},{"frame_index":940,"name":"ports_18","capacity":10000,"empty":637,"full":526,"on_shipper":43,"on_consignee":0,"shortage":0,"acc_shortage":1374,"booking":28,"acc_booking":11733,"fulfillment":28,"acc_fulfillment":10359,"transfer_cost":0.0,"port_name":"Sydney","position":{"lat":-33.865143,"lng":151.2099},"status":"surplus"},{"frame_index":940,"name":"ports_19","capacity":10000,"empty":909,"full":717,"on_shipper":57,"on_consignee":0,"shortage":0,"acc_shortage":0,"booking":34,"acc_booking":15518,"fulfillment":34,"acc_fulfillment":15518,"transfer_cost":0.0,"port_name":"Vancouver","position":{"lat":49.246292,"lng":-123.116226},"status":"surplus"},{"frame_index":940,"name":"ports_20","capacity":10000,"empty":898,"full":2581,"on_shipper":177,"on_consignee":53,"shortage":0,"acc_shortage":1292,"booking":127,"acc_booking":52677,"fulfillment":127,"acc_fulfillment":51385,"transfer_cost":132.0,"port_name":"Yantian","position":{"lat":26.8533,"lng":119.8575},"status":"surplus"},{"frame_index":940,"name":"ports_21","capacity":10000,"empty":623,"full":923,"on_shipper":166,"on_consignee":0,"shortage":0,"acc_shortage":7235,"booking":117,"acc_booking":50167,"fulfillment":117,"acc_fulfillment":42932,"transfer_cost":0.0,"port_name":"Yokohama","position":{"lat":35.443707,"lng":139.638031},"status":"balance"}]