[{"frame_index":546,"name":"ports_0","capacity":10000,"empty":3280,"full":2615,"on_shipper":126,"on_consignee":0,"shortage":0,"acc_shortage":522,"booking":86,"acc_booking":70506,"fulfillment":86,"acc_fulfillment":69984,"transfer_cost":0.0,"port_name":"Bremerhaven","position":{"lat":53.549999,"lng":8.583333},"status":"surplus"},{"frame_index":546,"name":"ports_1","capacity":10000,"empty":456,"full":132,"on_shipper":10,"on_consignee":0,"shortage":0,"acc_shortage":0,"booking":7,"acc_booking":4704,"fulfillment":7,"acc_fulfillment":4704,"transfer_cost":0.0,"port_name":"Durban","position":{"lat":-29.8579,"lng":31.0292},"status":"surplus"},{"frame_index":546,"name":"ports_2","capacity":10000,"empty":872,"full":17,"on_shipper":10,"on_consignee":0,"shortage":0,"acc_shortage":233,"booking":7,"acc_booking":4674,"fulfillment":7,"acc_fulfillment":4441,"transfer_cost":0.0,"port_name":"Itagual","position":{"lat":-22.85222,"lng":-43.77528},"status":"surplus"},{"frame_index":546,"name":"ports_3","capacity":10000,"empty":1110,"full":1156,"on_shipper":47,"on_consignee":0,"shortage":0,"acc_shortage":0,"booking":35,"acc_booking":26745,"fulfillment":35,"acc_fulfillment":26745,"transfer_cost":0.0,"port_name":"LeHavre","position":{"lat":49.490002,"lng":0.1},"status":"surplus"},{"frame_index":546,"name":"ports_4","capacity":10000,"empty":506,"full":27,"on_shipper":35,"on_consignee":666,"shortage":0,"acc_shortage":0,"booking":30,"acc_booking":22364,"fulfillment":30,"acc_fulfillment":22364,"transfer_cost":0.0,"port_name":"Los Angeles","position":{"lat":34.052235,"lng":-118.243683},"status":"surplus"},{"frame_index":546,"name":"ports_5","capacity":10000,"empty":415,"full":0,"on_shipper":43,"on_consignee":1975,"shortage":0,"acc_shortage":123,"booking":31,"acc_booking":22413,"fulfillment":31,"acc_fulfillment":22290,"transfer_cost":102.0,"port_name":"Manzanillo","position":{"lat":19.11695,"lng":-104.34214},"status":"surplus"},{"frame_index":546,"name":"ports_6","capacity":10000,"empty":0,"full":420,"on_shipper":0,"on_consignee":0,"shortage":9,"acc_shortage":1209,"booking":9,"acc_booking":6883,"fulfillment":0,"acc_fulfillment":5674,"transfer_cost":0.0,"port_name":"Melbourne","position":{"lat":-37.840935,"lng":144.946457},"status":"balance"},{"frame_index":546,"name":"ports_7","capacity":10000,"empty":1641,"full":32,"on_shipper":9,"on_consignee":0,"shortage":0,"acc_shortage":0,"booking":9,"acc_booking":6886,"fulfillment":9,"acc_fulfillment":6886,"transfer_cost":0.0,"port_name":"Montreal","position":{"lat":45.516136,"lng":-73.65683},"status":"surplus"},{"frame_index":546,"name":"ports_8","capacity":10000,"empty":2979,"full":114,"on_shipper":19,"on_consignee":0,"shortage":0,"acc_shortage":0,"booking":19,"acc_booking":13466,"fulfillment":19,"acc_fulfillment":13466,"transfer_cost":0.0,"port_name":"New York","position":{"lat":40.73061,"lng":-73.935242},"status":"surplus"},{"frame_index":546,"name":"ports_9","capacity":10000,"empty":938,"full":20,"on_shipper":25,"on_consignee":1515,"shortage":0,"acc_shortage":45,"booking":20,"acc_booking":13494,"fulfillment":20,"acc_fulfillment":13449,"transfer_cost":0.0,"port_name":"Oakland","position":{"lat":37.804363,"lng":-122.271111},"status":"surplus"},{"frame_index":546,"name":"ports_10","capacity":10000,"empty":1022,"full":30,"on_shipper":13,"on_consignee":0,"shortage":0,"acc_shortage":314,"booking":11,"acc_booking":6902,"fulfillment":11,"acc_fulfillment":6588,"transfer_cost":0.0,"port_name":"Prince Rupert","position":{"lat":54.312519,"lng":-130.305405},"status":"surplus"},{"frame_index":546,"name":"ports_11","capacity":10000,"empty":166,"full":1688,"on_shipper":40,"on_consignee":313,"shortage":0,"acc_shortage":204,"booking":37,"acc_booking":26690,"fulfillment":37,"acc_fulfillment":26486,"transfer_cost":662.0,"port_name":"Pusan","position":{"lat":35.166668,"lng":129.066666},"status":"balance"},{"frame_index":546,"name":"ports_12","capacity":10000,"empty":2983,"full":1251,"on_shipper":61,"on_consignee":0,"shortage":0,"acc_shortage":0,"booking":45,"acc_booking":35700,"fulfillment":45,"acc_fulfillment":35700,"transfer_cost":0.0,"port_name":"Qingdao","position":{"lat":36.066898,"lng":120.382698},"status":"surplus"},{"frame_index":546,"name":"ports_13","capacity":10000,"empty":202,"full":180,"on_shipper":9,"on_consignee":0,"shortage":0,"acc_shortage":286,"booking":7,"acc_booking":4670,"fulfillment":7,"acc_fulfillment":4384,"transfer_cost":0.0,"port_name":"San Antonio","position":{"lat":29.424349,"lng":-98.491142},"status":"surplus"},{"frame_index":546,"name":"ports_14","capacity":10000,"empty":217,"full":387,"on_shipper":9,"on_consignee":0,"shortage":0,"acc_shortage":762,"booking":6,"acc_booking":4717,"fulfillment":6,"acc_fulfillment":3955,"transfer_cost":0.0,"port_name":"Santos","position":{"lat":-23.96083,"lng":-46.33361},"status":"surplus"},{"frame_index":546,"name":"ports_15","capacity":10000,"empty":2276,"full":2197,"on_shipper":66,"on_consignee":0,"shortage":0,"acc_shortage":0,"booking":43,"acc_booking":31152,"fulfillment":43,"acc_fulfillment":31152,"transfer_cost":0.0,"port_name":"Seattle","position":{"lat":47.608013,"lng":-122.335167},"status":"surplus"},{"frame_index":546,"name":"ports_16","capacity":10000,"empty":336,"full":2340,"on_shipper":72,"on_consignee":0,"shortage":0,"acc_shortage":470,"booking":69,"acc_booking":44430,"fulfillment":69,"acc_fulfillment":43960,"transfer_cost":0.0,"port_name":"Shanghai","position":{"lat":31.224361,"lng":121.46917},"status":"balance"},{"frame_index":546,"name":"ports_17","capacity":10000,"empty":209,"full":606,"on_shipper":35,"on_consignee":265,"shortage":0,"acc_shortage":40,"booking":24,"acc_booking":17948,"fulfillment":24,"acc_fulfillment":17908,"transfer_cost":834.0,"port_name":"Singapore","position":{"lat":1.29027,"lng":103.851959},"status":"surplus"},{"frame_index":546,"name":"ports_18","capacity":10000,"empty":502,"full":83,"on_shipper":15,"on_consignee":0,"shortage":0,"acc_shortage":957,"booking":9,"acc_booking":6857,"fulfillment":9,"acc_fulfillment":5900,"transfer_cost":0.0,"port_name":"Sydney","position":{"lat":-33.865143,"lng":151.2099},"status":"surplus"},{"frame_index":546,"name":"ports_19","capacity":10000,"empty":754,"full":214,"on_shipper":17,"on_consignee":0,"shortage":0,"acc_shortage":0,"booking":13,"acc_booking":9154,"fulfillment":13,"acc_fulfillment":9154,"transfer_cost":0.0,"port_name":"Vancouver","position":{"lat":49.246292,"lng":-123.116226},"status":"surplus"},{"frame_index":546,"name":"ports_20","capacity":10000,"empty":0,"full":1886,"on_shipper":30,"on_consignee":20,"shortage":29,"acc_shortage":379,"booking":37,"acc_booking":30955,"fulfillment":8,"acc_fulfillment":30576,"transfer_cost":0.0,"port_name":"Yantian","position":{"lat":26.8533,"lng":119.8575},"status":"demand"},{"frame_index":546,"name":"ports_21","capacity":10000,"empty":305,"full":74,"on_shipper":57,"on_consignee":0,"shortage":0,"acc_shortage":3258,"booking":39,"acc_booking":29568,"fulfillment":39,"acc_fulfillment":26310,"transfer_cost":0.0,"port_name":"Yokohama","position":{"lat":35.443707,"lng":139.638031},"status":"surplus"}]