[{"frame_index":652,"name":"ports_0","capacity":10000,"empty":3509,"full":2526,"on_shipper":91,"on_consignee":1769,"shortage":0,"acc_shortage":522,"booking":30,"acc_booking":84572,"fulfillment":30,"acc_fulfillment":84050,"transfer_cost":0.0,"port_name":"Bremerhaven","position":{"lat":53.549999,"lng":8.583333},"status":"surplus"},{"frame_index":652,"name":"ports_1","capacity":10000,"empty":175,"full":64,"on_shipper":7,"on_consignee":0,"shortage":0,"acc_shortage":0,"booking":3,"acc_booking":5618,"fulfillment":3,"acc_fulfillment":5618,"transfer_cost":0.0,"port_name":"Durban","position":{"lat":-29.8579,"lng":31.0292},"status":"surplus"},{"frame_index":652,"name":"ports_2","capacity":10000,"empty":154,"full":0,"on_shipper":3,"on_consignee":378,"shortage":0,"acc_shortage":298,"booking":3,"acc_booking":5596,"fulfillment":3,"acc_fulfillment":5298,"transfer_cost":0.0,"port_name":"Itagual","position":{"lat":-22.85222,"lng":-43.77528},"status":"surplus"},{"frame_index":652,"name":"ports_3","capacity":10000,"empty":1515,"full":1283,"on_shipper":33,"on_consignee":0,"shortage":0,"acc_shortage":0,"booking":13,"acc_booking":31999,"fulfillment":13,"acc_fulfillment":31999,"transfer_cost":0.0,"port_name":"LeHavre","position":{"lat":49.490002,"lng":0.1},"status":"surplus"},{"frame_index":652,"name":"ports_4","capacity":10000,"empty":929,"full":532,"on_shipper":19,"on_consignee":0,"shortage":0,"acc_shortage":150,"booking":11,"acc_booking":26776,"fulfillment":11,"acc_fulfillment":26626,"transfer_cost":0.0,"port_name":"Los Angeles","position":{"lat":34.052235,"lng":-118.243683},"status":"surplus"},{"frame_index":652,"name":"ports_5","capacity":10000,"empty":1631,"full":254,"on_shipper":23,"on_consignee":0,"shortage":0,"acc_shortage":123,"booking":10,"acc_booking":26875,"fulfillment":10,"acc_fulfillment":26752,"transfer_cost":0.0,"port_name":"Manzanillo","position":{"lat":19.11695,"lng":-104.34214},"status":"surplus"},{"frame_index":652,"name":"ports_6","capacity":10000,"empty":394,"full":166,"on_shipper":8,"on_consignee":0,"shortage":0,"acc_shortage":1336,"booking":4,"acc_booking":8240,"fulfillment":4,"acc_fulfillment":6904,"transfer_cost":0.0,"port_name":"Melbourne","position":{"lat":-37.840935,"lng":144.946457},"status":"surplus"},{"frame_index":652,"name":"ports_7","capacity":10000,"empty":798,"full":27,"on_shipper":11,"on_consignee":0,"shortage":0,"acc_shortage":0,"booking":4,"acc_booking":8246,"fulfillment":4,"acc_fulfillment":8246,"transfer_cost":0.0,"port_name":"Montreal","position":{"lat":45.516136,"lng":-73.65683},"status":"surplus"},{"frame_index":652,"name":"ports_8","capacity":10000,"empty":1158,"full":1744,"on_shipper":20,"on_consignee":0,"shortage":0,"acc_shortage":0,"booking":7,"acc_booking":16118,"fulfillment":7,"acc_fulfillment":16118,"transfer_cost":0.0,"port_name":"New York","position":{"lat":40.73061,"lng":-73.935242},"status":"surplus"},{"frame_index":652,"name":"ports_9","capacity":10000,"empty":988,"full":38,"on_shipper":13,"on_consignee":0,"shortage":0,"acc_shortage":45,"booking":6,"acc_booking":16178,"fulfillment":6,"acc_fulfillment":16133,"transfer_cost":0.0,"port_name":"Oakland","position":{"lat":37.804363,"lng":-122.271111},"status":"surplus"},{"frame_index":652,"name":"ports_10","capacity":10000,"empty":1041,"full":57,"on_shipper":6,"on_consignee":0,"shortage":0,"acc_shortage":314,"booking":4,"acc_booking":8263,"fulfillment":4,"acc_fulfillment":7949,"transfer_cost":0.0,"port_name":"Prince Rupert","position":{"lat":54.312519,"lng":-130.305405},"status":"surplus"},{"frame_index":652,"name":"ports_11","capacity":10000,"empty":3292,"full":766,"on_shipper":27,"on_consignee":142,"shortage":0,"acc_shortage":204,"booking":14,"acc_booking":31959,"fulfillment":14,"acc_fulfillment":31755,"transfer_cost":0.0,"port_name":"Pusan","position":{"lat":35.166668,"lng":129.066666},"status":"surplus"},{"frame_index":652,"name":"ports_12","capacity":10000,"empty":1469,"full":2170,"on_shipper":50,"on_consignee":0,"shortage":0,"acc_shortage":0,"booking":19,"acc_booking":42669,"fulfillment":19,"acc_fulfillment":42669,"transfer_cost":0.0,"port_name":"Qingdao","position":{"lat":36.066898,"lng":120.382698},"status":"surplus"},{"frame_index":652,"name":"ports_13","capacity":10000,"empty":657,"full":71,"on_shipper":4,"on_consignee":0,"shortage":0,"acc_shortage":325,"booking":3,"acc_booking":5595,"fulfillment":3,"acc_fulfillment":5270,"transfer_cost":0.0,"port_name":"San Antonio","position":{"lat":29.424349,"lng":-98.491142},"status":"surplus"},{"frame_index":652,"name":"ports_14","capacity":10000,"empty":622,"full":143,"on_shipper":6,"on_consignee":0,"shortage":0,"acc_shortage":762,"booking":3,"acc_booking":5647,"fulfillment":3,"acc_fulfillment":4885,"transfer_cost":0.0,"port_name":"Santos","position":{"lat":-23.96083,"lng":-46.33361},"status":"surplus"},{"frame_index":652,"name":"ports_15","capacity":10000,"empty":2339,"full":1573,"on_shipper":44,"on_consignee":0,"shortage":0,"acc_shortage":0,"booking":16,"acc_booking":37283,"fulfillment":16,"acc_fulfillment":37283,"transfer_cost":0.0,"port_name":"Seattle","position":{"lat":47.608013,"lng":-122.335167},"status":"surplus"},{"frame_index":652,"name":"ports_16","capacity":10000,"empty":994,"full":917,"on_shipper":47,"on_consignee":0,"shortage":0,"acc_shortage":712,"booking":23,"acc_booking":53107,"fulfillment":23,"acc_fulfillment":52395,"transfer_cost":0.0,"port_name":"Shanghai","position":{"lat":31.224361,"lng":121.46917},"status":"surplus"},{"frame_index":652,"name":"ports_17","capacity":10000,"empty":757,"full":537,"on_shipper":14,"on_consignee":0,"shortage":0,"acc_shortage":283,"booking":9,"acc_booking":21492,"fulfillment":9,"acc_fulfillment":21209,"transfer_cost":0.0,"port_name":"Singapore","position":{"lat":1.29027,"lng":103.851959},"status":"surplus"},{"frame_index":652,"name":"ports_18","capacity":10000,"empty":1,"full":257,"on_shipper":7,"on_consignee":0,"shortage":0,"acc_shortage":957,"booking":4,"acc_booking":8208,"fulfillment":4,"acc_fulfillment":7251,"transfer_cost":0.0,"port_name":"Sydney","position":{"lat":-33.865143,"lng":151.2099},"status":"balance"},{"frame_index":652,"name":"ports_19","capacity":10000,"empty":682,"full":644,"on_shipper":8,"on_consignee":0,"shortage":0,"acc_shortage":0,"booking":4,"acc_booking":10941,"fulfillment":4,"acc_fulfillment":10941,"transfer_cost":0.0,"port_name":"Vancouver","position":{"lat":49.246292,"lng":-123.116226},"status":"surplus"},{"frame_index":652,"name":"ports_20","capacity":10000,"empty":938,"full":482,"on_shipper":30,"on_consignee":63,"shortage":0,"acc_shortage":395,"booking":16,"acc_booking":37034,"fulfillment":16,"acc_fulfillment":36639,"transfer_cost":1.0,"port_name":"Yantian","position":{"lat":26.8533,"lng":119.8575},"status":"surplus"},{"frame_index":652,"name":"ports_21","capacity":10000,"empty":0,"full":2432,"on_shipper":0,"on_consignee":0,"shortage":5,"acc_shortage":3724,"booking":5,"acc_booking":35437,"fulfillment":0,"acc_fulfillment":31713,"transfer_cost":0.0,"port_name":"Yokohama","position":{"lat":35.443707,"lng":139.638031},"status":"balance"}]