[{"frame_index":64,"name":"ports_0","capacity":10000,"empty":8315,"full":1491,"on_shipper":72,"on_consignee":0,"shortage":0,"acc_shortage":0,"booking":66,"acc_booking":8534,"fulfillment":66,"acc_fulfillment":8534,"transfer_cost":0.0,"port_name":"Bremerhaven","position":{"lat":53.549999,"lng":8.583333},"status":"surplus"},{"frame_index":64,"name":"ports_1","capacity":10000,"empty":498,"full":348,"on_shipper":4,"on_consignee":0,"shortage":0,"acc_shortage":0,"booking":4,"acc_booking":574,"fulfillment":4,"acc_fulfillment":574,"transfer_cost":0.0,"port_name":"Durban","position":{"lat":-29.8579,"lng":31.0292},"status":"surplus"},{"frame_index":64,"name":"ports_2","capacity":10000,"empty":511,"full":202,"on_shipper":7,"on_consignee":0,"shortage":0,"acc_shortage":0,"booking":5,"acc_booking":569,"fulfillment":5,"acc_fulfillment":569,"transfer_cost":0.0,"port_name":"Itagual","position":{"lat":-22.85222,"lng":-43.77528},"status":"surplus"},{"frame_index":64,"name":"ports_3","capacity":10000,"empty":2709,"full":651,"on_shipper":44,"on_consignee":0,"shortage":0,"acc_shortage":0,"booking":23,"acc_booking":3276,"fulfillment":23,"acc_fulfillment":3276,"transfer_cost":0.0,"port_name":"LeHavre","position":{"lat":49.490002,"lng":0.1},"status":"surplus"},{"frame_index":64,"name":"ports_4","capacity":10000,"empty":2269,"full":2225,"on_shipper":41,"on_consignee":0,"shortage":0,"acc_shortage":0,"booking":20,"acc_booking":2731,"fulfillment":20,"acc_fulfillment":2731,"transfer_cost":0.0,"port_name":"Los Angeles","position":{"lat":34.052235,"lng":-118.243683},"status":"surplus"},{"frame_index":64,"name":"ports_5","capacity":10000,"empty":2538,"full":757,"on_shipper":23,"on_consignee":0,"shortage":0,"acc_shortage":0,"booking":17,"acc_booking":2733,"fulfillment":17,"acc_fulfillment":2733,"transfer_cost":0.0,"port_name":"Manzanillo","position":{"lat":19.11695,"lng":-104.34214},"status":"surplus"},{"frame_index":64,"name":"ports_6","capacity":10000,"empty":771,"full":378,"on_shipper":6,"on_consignee":0,"shortage":0,"acc_shortage":0,"booking":6,"acc_booking":838,"fulfillment":6,"acc_fulfillment":838,"transfer_cost":0.0,"port_name":"Melbourne","position":{"lat":-37.840935,"lng":144.946457},"status":"surplus"},{"frame_index":64,"name":"ports_7","capacity":10000,"empty":1479,"full":78,"on_shipper":6,"on_consignee":0,"shortage":0,"acc_shortage":0,"booking":6,"acc_booking":837,"fulfillment":6,"acc_fulfillment":837,"transfer_cost":0.0,"port_name":"Montreal","position":{"lat":45.516136,"lng":-73.65683},"status":"surplus"},{"frame_index":64,"name":"ports_8","capacity":10000,"empty":2323,"full":528,"on_shipper":19,"on_consignee":0,"shortage":0,"acc_shortage":0,"booking":11,"acc_booking":1638,"fulfillment":11,"acc_fulfillment":1638,"transfer_cost":0.0,"port_name":"New York","position":{"lat":40.73061,"lng":-73.935242},"status":"surplus"},{"frame_index":64,"name":"ports_9","capacity":10000,"empty":1548,"full":924,"on_shipper":17,"on_consignee":0,"shortage":0,"acc_shortage":0,"booking":12,"acc_booking":1628,"fulfillment":12,"acc_fulfillment":1628,"transfer_cost":0.0,"port_name":"Oakland","position":{"lat":37.804363,"lng":-122.271111},"status":"surplus"},{"frame_index":64,"name":"ports_10","capacity":10000,"empty":667,"full":302,"on_shipper":11,"on_consignee":0,"shortage":0,"acc_shortage":0,"booking":6,"acc_booking":846,"fulfillment":6,"acc_fulfillment":846,"transfer_cost":0.0,"port_name":"Prince Rupert","position":{"lat":54.312519,"lng":-130.305405},"status":"surplus"},{"frame_index":64,"name":"ports_11","capacity":10000,"empty":2920,"full":2181,"on_shipper":46,"on_consignee":0,"shortage":0,"acc_shortage":0,"booking":23,"acc_booking":3262,"fulfillment":23,"acc_fulfillment":3262,"transfer_cost":0.0,"port_name":"Pusan","position":{"lat":35.166668,"lng":129.066666},"status":"surplus"},{"frame_index":64,"name":"ports_12","capacity":10000,"empty":4183,"full":697,"on_shipper":58,"on_consignee":51,"shortage":0,"acc_shortage":0,"booking":30,"acc_booking":4368,"fulfillment":30,"acc_fulfillment":4368,"transfer_cost":0.0,"port_name":"Qingdao","position":{"lat":36.066898,"lng":120.382698},"status":"surplus"},{"frame_index":64,"name":"ports_13","capacity":10000,"empty":441,"full":361,"on_shipper":8,"on_consignee":0,"shortage":0,"acc_shortage":0,"booking":5,"acc_booking":573,"fulfillment":5,"acc_fulfillment":573,"transfer_cost":0.0,"port_name":"San Antonio","position":{"lat":29.424349,"lng":-98.491142},"status":"surplus"},{"frame_index":64,"name":"ports_14","capacity":10000,"empty":432,"full":19,"on_shipper":7,"on_consignee":0,"shortage":0,"acc_shortage":0,"booking":5,"acc_booking":582,"fulfillment":5,"acc_fulfillment":582,"transfer_cost":0.0,"port_name":"Santos","position":{"lat":-23.96083,"lng":-46.33361},"status":"surplus"},{"frame_index":64,"name":"ports_15","capacity":10000,"empty":3422,"full":2049,"on_shipper":58,"on_consignee":0,"shortage":0,"acc_shortage":0,"booking":27,"acc_booking":3810,"fulfillment":27,"acc_fulfillment":3810,"transfer_cost":0.0,"port_name":"Seattle","position":{"lat":47.608013,"lng":-122.335167},"status":"surplus"},{"frame_index":64,"name":"ports_16","capacity":10000,"empty":4529,"full":2294,"on_shipper":73,"on_consignee":0,"shortage":0,"acc_shortage":0,"booking":33,"acc_booking":5535,"fulfillment":33,"acc_fulfillment":5535,"transfer_cost":0.0,"port_name":"Shanghai","position":{"lat":31.224361,"lng":121.46917},"status":"surplus"},{"frame_index":64,"name":"ports_17","capacity":10000,"empty":1993,"full":501,"on_shipper":26,"on_consignee":0,"shortage":0,"acc_shortage":0,"booking":16,"acc_booking":2194,"fulfillment":16,"acc_fulfillment":2194,"transfer_cost":0.0,"port_name":"Singapore","position":{"lat":1.29027,"lng":103.851959},"status":"surplus"},{"frame_index":64,"name":"ports_18","capacity":10000,"empty":682,"full":402,"on_shipper":13,"on_consignee":0,"shortage":0,"acc_shortage":0,"booking":6,"acc_booking":821,"fulfillment":6,"acc_fulfillment":821,"transfer_cost":0.0,"port_name":"Sydney","position":{"lat":-33.865143,"lng":151.2099},"status":"surplus"},{"frame_index":64,"name":"ports_19","capacity":10000,"empty":993,"full":411,"on_shipper":17,"on_consignee":0,"shortage":0,"acc_shortage":0,"booking":8,"acc_booking":1119,"fulfillment":8,"acc_fulfillment":1119,"transfer_cost":0.0,"port_name":"Vancouver","position":{"lat":49.246292,"lng":-123.116226},"status":"surplus"},{"frame_index":64,"name":"ports_20","capacity":10000,"empty":3309,"full":1863,"on_shipper":43,"on_consignee":0,"shortage":0,"acc_shortage":0,"booking":26,"acc_booking":3775,"fulfillment":26,"acc_fulfillment":3775,"transfer_cost":0.0,"port_name":"Yantian","position":{"lat":26.8533,"lng":119.8575},"status":"surplus"},{"frame_index":64,"name":"ports_21","capacity":10000,"empty":4453,"full":1395,"on_shipper":36,"on_consignee":0,"shortage":0,"acc_shortage":0,"booking":20,"acc_booking":3656,"fulfillment":20,"acc_fulfillment":3656,"transfer_cost":0.0,"port_name":"Yokohama","position":{"lat":35.443707,"lng":139.638031},"status":"surplus"}]