[{"frame_index":1107,"name":"ports_0","capacity":10000,"empty":0,"full":4034,"on_shipper":0,"on_consignee":0,"shortage":80,"acc_shortage":3142,"booking":80,"acc_booking":143127,"fulfillment":0,"acc_fulfillment":139985,"transfer_cost":0.0,"port_name":"Bremerhaven","position":{"lat":53.549999,"lng":8.583333},"status":"demand"},{"frame_index":1107,"name":"ports_1","capacity":10000,"empty":278,"full":264,"on_shipper":10,"on_consignee":0,"shortage":0,"acc_shortage":113,"booking":6,"acc_booking":9515,"fulfillment":6,"acc_fulfillment":9402,"transfer_cost":0.0,"port_name":"Durban","position":{"lat":-29.8579,"lng":31.0292},"status":"surplus"},{"frame_index":1107,"name":"ports_2","capacity":10000,"empty":681,"full":431,"on_shipper":8,"on_consignee":0,"shortage":0,"acc_shortage":298,"booking":6,"acc_booking":9476,"fulfillment":6,"acc_fulfillment":9178,"transfer_cost":0.0,"port_name":"Itagual","position":{"lat":-22.85222,"lng":-43.77528},"status":"surplus"},{"frame_index":1107,"name":"ports_3","capacity":10000,"empty":5307,"full":1431,"on_shipper":56,"on_consignee":0,"shortage":0,"acc_shortage":0,"booking":34,"acc_booking":54141,"fulfillment":34,"acc_fulfillment":54141,"transfer_cost":0.0,"port_name":"LeHavre","position":{"lat":49.490002,"lng":0.1},"status":"surplus"},{"frame_index":1107,"name":"ports_4","capacity":10000,"empty":708,"full":215,"on_shipper":42,"on_consignee":0,"shortage":0,"acc_shortage":290,"booking":28,"acc_booking":45343,"fulfillment":28,"acc_fulfillment":45053,"transfer_cost":0.0,"port_name":"Los Angeles","position":{"lat":34.052235,"lng":-118.243683},"status":"surplus"},{"frame_index":1107,"name":"ports_5","capacity":10000,"empty":236,"full":874,"on_shipper":48,"on_consignee":0,"shortage":0,"acc_shortage":194,"booking":31,"acc_booking":45420,"fulfillment":31,"acc_fulfillment":45226,"transfer_cost":0.0,"port_name":"Manzanillo","position":{"lat":19.11695,"lng":-104.34214},"status":"surplus"},{"frame_index":1107,"name":"ports_6","capacity":10000,"empty":219,"full":361,"on_shipper":13,"on_consignee":0,"shortage":0,"acc_shortage":2377,"booking":9,"acc_booking":13961,"fulfillment":9,"acc_fulfillment":11584,"transfer_cost":0.0,"port_name":"Melbourne","position":{"lat":-37.840935,"lng":144.946457},"status":"surplus"},{"frame_index":1107,"name":"ports_7","capacity":10000,"empty":1591,"full":35,"on_shipper":13,"on_consignee":0,"shortage":0,"acc_shortage":0,"booking":9,"acc_booking":13961,"fulfillment":9,"acc_fulfillment":13961,"transfer_cost":0.0,"port_name":"Montreal","position":{"lat":45.516136,"lng":-73.65683},"status":"surplus"},{"frame_index":1107,"name":"ports_8","capacity":10000,"empty":3280,"full":97,"on_shipper":18,"on_consignee":0,"shortage":0,"acc_shortage":136,"booking":18,"acc_booking":27308,"fulfillment":18,"acc_fulfillment":27172,"transfer_cost":0.0,"port_name":"New York","position":{"lat":40.73061,"lng":-73.935242},"status":"surplus"},{"frame_index":1107,"name":"ports_9","capacity":10000,"empty":1563,"full":70,"on_shipper":22,"on_consignee":0,"shortage":0,"acc_shortage":45,"booking":18,"acc_booking":27361,"fulfillment":18,"acc_fulfillment":27316,"transfer_cost":0.0,"port_name":"Oakland","position":{"lat":37.804363,"lng":-122.271111},"status":"surplus"},{"frame_index":1107,"name":"ports_10","capacity":10000,"empty":1616,"full":99,"on_shipper":11,"on_consignee":0,"shortage":0,"acc_shortage":314,"booking":8,"acc_booking":13947,"fulfillment":8,"acc_fulfillment":13633,"transfer_cost":0.0,"port_name":"Prince Rupert","position":{"lat":54.312519,"lng":-130.305405},"status":"surplus"},{"frame_index":1107,"name":"ports_11","capacity":10000,"empty":1402,"full":1303,"on_shipper":46,"on_consignee":0,"shortage":0,"acc_shortage":204,"booking":35,"acc_booking":54106,"fulfillment":35,"acc_fulfillment":53902,"transfer_cost":0.0,"port_name":"Pusan","position":{"lat":35.166668,"lng":129.066666},"status":"surplus"},{"frame_index":1107,"name":"ports_12","capacity":10000,"empty":2302,"full":2285,"on_shipper":53,"on_consignee":0,"shortage":0,"acc_shortage":0,"booking":43,"acc_booking":72229,"fulfillment":43,"acc_fulfillment":72229,"transfer_cost":0.0,"port_name":"Qingdao","position":{"lat":36.066898,"lng":120.382698},"status":"surplus"},{"frame_index":1107,"name":"ports_13","capacity":10000,"empty":133,"full":415,"on_shipper":7,"on_consignee":0,"shortage":0,"acc_shortage":459,"booking":6,"acc_booking":9477,"fulfillment":6,"acc_fulfillment":9018,"transfer_cost":0.0,"port_name":"San Antonio","position":{"lat":29.424349,"lng":-98.491142},"status":"surplus"},{"frame_index":1107,"name":"ports_14","capacity":10000,"empty":537,"full":188,"on_shipper":6,"on_consignee":0,"shortage":0,"acc_shortage":1294,"booking":5,"acc_booking":9531,"fulfillment":5,"acc_fulfillment":8237,"transfer_cost":0.0,"port_name":"Santos","position":{"lat":-23.96083,"lng":-46.33361},"status":"surplus"},{"frame_index":1107,"name":"ports_15","capacity":10000,"empty":412,"full":2261,"on_shipper":56,"on_consignee":0,"shortage":0,"acc_shortage":1985,"booking":40,"acc_booking":63136,"fulfillment":40,"acc_fulfillment":61151,"transfer_cost":0.0,"port_name":"Seattle","position":{"lat":47.608013,"lng":-122.335167},"status":"surplus"},{"frame_index":1107,"name":"ports_16","capacity":10000,"empty":1784,"full":896,"on_shipper":64,"on_consignee":231,"shortage":0,"acc_shortage":817,"booking":49,"acc_booking":90010,"fulfillment":49,"acc_fulfillment":89193,"transfer_cost":0.0,"port_name":"Shanghai","position":{"lat":31.224361,"lng":121.46917},"status":"surplus"},{"frame_index":1107,"name":"ports_17","capacity":10000,"empty":1061,"full":1167,"on_shipper":34,"on_consignee":2,"shortage":0,"acc_shortage":619,"booking":22,"acc_booking":36353,"fulfillment":22,"acc_fulfillment":35734,"transfer_cost":0.0,"port_name":"Singapore","position":{"lat":1.29027,"lng":103.851959},"status":"surplus"},{"frame_index":1107,"name":"ports_18","capacity":10000,"empty":406,"full":157,"on_shipper":9,"on_consignee":0,"shortage":0,"acc_shortage":1374,"booking":9,"acc_booking":13952,"fulfillment":9,"acc_fulfillment":12578,"transfer_cost":0.0,"port_name":"Sydney","position":{"lat":-33.865143,"lng":151.2099},"status":"surplus"},{"frame_index":1107,"name":"ports_19","capacity":10000,"empty":430,"full":1052,"on_shipper":14,"on_consignee":0,"shortage":0,"acc_shortage":0,"booking":11,"acc_booking":18480,"fulfillment":11,"acc_fulfillment":18480,"transfer_cost":0.0,"port_name":"Vancouver","position":{"lat":49.246292,"lng":-123.116226},"status":"surplus"},{"frame_index":1107,"name":"ports_20","capacity":10000,"empty":1777,"full":1458,"on_shipper":56,"on_consignee":43,"shortage":0,"acc_shortage":2447,"booking":38,"acc_booking":62947,"fulfillment":38,"acc_fulfillment":60500,"transfer_cost":740.0,"port_name":"Yantian","position":{"lat":26.8533,"lng":119.8575},"status":"surplus"},{"frame_index":1107,"name":"ports_21","capacity":10000,"empty":810,"full":1193,"on_shipper":48,"on_consignee":279,"shortage":0,"acc_shortage":10285,"booking":35,"acc_booking":59917,"fulfillment":35,"acc_fulfillment":49632,"transfer_cost":215.0,"port_name":"Yokohama","position":{"lat":35.443707,"lng":139.638031},"status":"surplus"}]