[{"frame_index":10,"name":"ports_0","capacity":10000,"empty":15535,"full":386,"on_shipper":79,"on_consignee":0,"shortage":0,"acc_shortage":0,"booking":66,"acc_booking":465,"fulfillment":66,"acc_fulfillment":465,"transfer_cost":0.0,"port_name":"Bremerhaven","position":{"lat":53.549999,"lng":8.583333},"status":"surplus"},{"frame_index":10,"name":"ports_1","capacity":10000,"empty":967,"full":27,"on_shipper":6,"on_consignee":0,"shortage":0,"acc_shortage":0,"booking":5,"acc_booking":33,"fulfillment":5,"acc_fulfillment":33,"transfer_cost":0.0,"port_name":"Durban","position":{"lat":-29.8579,"lng":31.0292},"status":"surplus"},{"frame_index":10,"name":"ports_2","capacity":10000,"empty":968,"full":27,"on_shipper":5,"on_consignee":0,"shortage":0,"acc_shortage":0,"booking":5,"acc_booking":32,"fulfillment":5,"acc_fulfillment":32,"transfer_cost":0.0,"port_name":"Itagual","position":{"lat":-22.85222,"lng":-43.77528},"status":"surplus"},{"frame_index":10,"name":"ports_3","capacity":10000,"empty":5817,"full":151,"on_shipper":32,"on_consignee":0,"shortage":0,"acc_shortage":0,"booking":29,"acc_booking":183,"fulfillment":29,"acc_fulfillment":183,"transfer_cost":0.0,"port_name":"LeHavre","position":{"lat":49.490002,"lng":0.1},"status":"surplus"},{"frame_index":10,"name":"ports_4","capacity":10000,"empty":4845,"full":63,"on_shipper":30,"on_consignee":0,"shortage":0,"acc_shortage":0,"booking":25,"acc_booking":155,"fulfillment":25,"acc_fulfillment":155,"transfer_cost":0.0,"port_name":"Los Angeles","position":{"lat":34.052235,"lng":-118.243683},"status":"surplus"},{"frame_index":10,"name":"ports_5","capacity":10000,"empty":4848,"full":34,"on_shipper":27,"on_consignee":0,"shortage":0,"acc_shortage":0,"booking":23,"acc_booking":152,"fulfillment":23,"acc_fulfillment":152,"transfer_cost":0.0,"port_name":"Manzanillo","position":{"lat":19.11695,"lng":-104.34214},"status":"surplus"},{"frame_index":10,"name":"ports_6","capacity":10000,"empty":1450,"full":41,"on_shipper":9,"on_consignee":0,"shortage":0,"acc_shortage":0,"booking":8,"acc_booking":50,"fulfillment":8,"acc_fulfillment":50,"transfer_cost":0.0,"port_name":"Melbourne","position":{"lat":-37.840935,"lng":144.946457},"status":"surplus"},{"frame_index":10,"name":"ports_7","capacity":10000,"empty":1451,"full":40,"on_shipper":9,"on_consignee":0,"shortage":0,"acc_shortage":0,"booking":8,"acc_booking":49,"fulfillment":8,"acc_fulfillment":49,"transfer_cost":0.0,"port_name":"Montreal","position":{"lat":45.516136,"lng":-73.65683},"status":"surplus"},{"frame_index":10,"name":"ports_8","capacity":10000,"empty":2905,"full":77,"on_shipper":18,"on_consignee":0,"shortage":0,"acc_shortage":0,"booking":15,"acc_booking":95,"fulfillment":15,"acc_fulfillment":95,"transfer_cost":0.0,"port_name":"New York","position":{"lat":40.73061,"lng":-73.935242},"status":"surplus"},{"frame_index":10,"name":"ports_9","capacity":10000,"empty":2908,"full":73,"on_shipper":19,"on_consignee":0,"shortage":0,"acc_shortage":0,"booking":17,"acc_booking":92,"fulfillment":17,"acc_fulfillment":92,"transfer_cost":0.0,"port_name":"Oakland","position":{"lat":37.804363,"lng":-122.271111},"status":"surplus"},{"frame_index":10,"name":"ports_10","capacity":10000,"empty":1450,"full":39,"on_shipper":11,"on_consignee":0,"shortage":0,"acc_shortage":0,"booking":7,"acc_booking":50,"fulfillment":7,"acc_fulfillment":50,"transfer_cost":0.0,"port_name":"Prince Rupert","position":{"lat":54.312519,"lng":-130.305405},"status":"surplus"},{"frame_index":10,"name":"ports_11","capacity":10000,"empty":5813,"full":148,"on_shipper":39,"on_consignee":0,"shortage":0,"acc_shortage":0,"booking":30,"acc_booking":187,"fulfillment":30,"acc_fulfillment":187,"transfer_cost":0.0,"port_name":"Pusan","position":{"lat":35.166668,"lng":129.066666},"status":"surplus"},{"frame_index":10,"name":"ports_12","capacity":10000,"empty":7752,"full":193,"on_shipper":42,"on_consignee":0,"shortage":0,"acc_shortage":0,"booking":38,"acc_booking":248,"fulfillment":38,"acc_fulfillment":248,"transfer_cost":0.0,"port_name":"Qingdao","position":{"lat":36.066898,"lng":120.382698},"status":"surplus"},{"frame_index":10,"name":"ports_13","capacity":10000,"empty":967,"full":26,"on_shipper":7,"on_consignee":0,"shortage":0,"acc_shortage":0,"booking":5,"acc_booking":33,"fulfillment":5,"acc_fulfillment":33,"transfer_cost":0.0,"port_name":"San Antonio","position":{"lat":29.424349,"lng":-98.491142},"status":"surplus"},{"frame_index":10,"name":"ports_14","capacity":10000,"empty":964,"full":29,"on_shipper":7,"on_consignee":0,"shortage":0,"acc_shortage":0,"booking":6,"acc_booking":36,"fulfillment":6,"acc_fulfillment":36,"transfer_cost":0.0,"port_name":"Santos","position":{"lat":-23.96083,"lng":-46.33361},"status":"surplus"},{"frame_index":10,"name":"ports_15","capacity":10000,"empty":6787,"full":54,"on_shipper":40,"on_consignee":0,"shortage":0,"acc_shortage":0,"booking":33,"acc_booking":213,"fulfillment":33,"acc_fulfillment":213,"transfer_cost":0.0,"port_name":"Seattle","position":{"lat":47.608013,"lng":-122.335167},"status":"surplus"},{"frame_index":10,"name":"ports_16","capacity":10000,"empty":9702,"full":245,"on_shipper":53,"on_consignee":0,"shortage":0,"acc_shortage":0,"booking":44,"acc_booking":298,"fulfillment":44,"acc_fulfillment":298,"transfer_cost":0.0,"port_name":"Shanghai","position":{"lat":31.224361,"lng":121.46917},"status":"surplus"},{"frame_index":10,"name":"ports_17","capacity":10000,"empty":3874,"full":61,"on_shipper":24,"on_consignee":0,"shortage":0,"acc_shortage":0,"booking":20,"acc_booking":126,"fulfillment":20,"acc_fulfillment":126,"transfer_cost":0.0,"port_name":"Singapore","position":{"lat":1.29027,"lng":103.851959},"status":"surplus"},{"frame_index":10,"name":"ports_18","capacity":10000,"empty":1452,"full":39,"on_shipper":9,"on_consignee":0,"shortage":0,"acc_shortage":0,"booking":8,"acc_booking":48,"fulfillment":8,"acc_fulfillment":48,"transfer_cost":0.0,"port_name":"Sydney","position":{"lat":-33.865143,"lng":151.2099},"status":"surplus"},{"frame_index":10,"name":"ports_19","capacity":10000,"empty":1937,"full":26,"on_shipper":10,"on_consignee":0,"shortage":0,"acc_shortage":0,"booking":9,"acc_booking":63,"fulfillment":9,"acc_fulfillment":63,"transfer_cost":0.0,"port_name":"Vancouver","position":{"lat":49.246292,"lng":-123.116226},"status":"surplus"},{"frame_index":10,"name":"ports_20","capacity":10000,"empty":6780,"full":144,"on_shipper":40,"on_consignee":0,"shortage":0,"acc_shortage":0,"booking":34,"acc_booking":220,"fulfillment":34,"acc_fulfillment":220,"transfer_cost":0.0,"port_name":"Yantian","position":{"lat":26.8533,"lng":119.8575},"status":"surplus"},{"frame_index":10,"name":"ports_21","capacity":10000,"empty":7865,"full":105,"on_shipper":30,"on_consignee":0,"shortage":0,"acc_shortage":0,"booking":28,"acc_booking":135,"fulfillment":28,"acc_fulfillment":135,"transfer_cost":0.0,"port_name":"Yokohama","position":{"lat":35.443707,"lng":139.638031},"status":"surplus"}]