[{"frame_index":433,"name":"ports_0","capacity":10000,"empty":1298,"full":3770,"on_shipper":122,"on_consignee":0,"shortage":0,"acc_shortage":522,"booking":115,"acc_booking":56099,"fulfillment":115,"acc_fulfillment":55577,"transfer_cost":0.0,"port_name":"Bremerhaven","position":{"lat":53.549999,"lng":8.583333},"status":"surplus"},{"frame_index":433,"name":"ports_1","capacity":10000,"empty":393,"full":18,"on_shipper":8,"on_consignee":0,"shortage":0,"acc_shortage":0,"booking":8,"acc_booking":3758,"fulfillment":8,"acc_fulfillment":3758,"transfer_cost":0.0,"port_name":"Durban","position":{"lat":-29.8579,"lng":31.0292},"status":"surplus"},{"frame_index":433,"name":"ports_2","capacity":10000,"empty":410,"full":555,"on_shipper":11,"on_consignee":0,"shortage":0,"acc_shortage":233,"booking":8,"acc_booking":3730,"fulfillment":8,"acc_fulfillment":3497,"transfer_cost":0.0,"port_name":"Itagual","position":{"lat":-22.85222,"lng":-43.77528},"status":"surplus"},{"frame_index":433,"name":"ports_3","capacity":10000,"empty":1200,"full":450,"on_shipper":65,"on_consignee":0,"shortage":0,"acc_shortage":0,"booking":46,"acc_booking":21329,"fulfillment":46,"acc_fulfillment":21329,"transfer_cost":0.0,"port_name":"LeHavre","position":{"lat":49.490002,"lng":0.1},"status":"surplus"},{"frame_index":433,"name":"ports_4","capacity":10000,"empty":1953,"full":1472,"on_shipper":69,"on_consignee":0,"shortage":0,"acc_shortage":0,"booking":39,"acc_booking":17823,"fulfillment":39,"acc_fulfillment":17823,"transfer_cost":0.0,"port_name":"Los Angeles","position":{"lat":34.052235,"lng":-118.243683},"status":"surplus"},{"frame_index":433,"name":"ports_5","capacity":10000,"empty":1168,"full":754,"on_shipper":58,"on_consignee":0,"shortage":0,"acc_shortage":123,"booking":38,"acc_booking":17900,"fulfillment":38,"acc_fulfillment":17777,"transfer_cost":0.0,"port_name":"Manzanillo","position":{"lat":19.11695,"lng":-104.34214},"status":"surplus"},{"frame_index":433,"name":"ports_6","capacity":10000,"empty":345,"full":159,"on_shipper":19,"on_consignee":0,"shortage":0,"acc_shortage":819,"booking":12,"acc_booking":5486,"fulfillment":12,"acc_fulfillment":4667,"transfer_cost":0.0,"port_name":"Melbourne","position":{"lat":-37.840935,"lng":144.946457},"status":"surplus"},{"frame_index":433,"name":"ports_7","capacity":10000,"empty":1733,"full":109,"on_shipper":12,"on_consignee":0,"shortage":0,"acc_shortage":0,"booking":12,"acc_booking":5490,"fulfillment":12,"acc_fulfillment":5490,"transfer_cost":0.0,"port_name":"Montreal","position":{"lat":45.516136,"lng":-73.65683},"status":"surplus"},{"frame_index":433,"name":"ports_8","capacity":10000,"empty":1610,"full":411,"on_shipper":25,"on_consignee":0,"shortage":0,"acc_shortage":0,"booking":25,"acc_booking":10721,"fulfillment":25,"acc_fulfillment":10721,"transfer_cost":0.0,"port_name":"New York","position":{"lat":40.73061,"lng":-73.935242},"status":"surplus"},{"frame_index":433,"name":"ports_9","capacity":10000,"empty":308,"full":1364,"on_shipper":25,"on_consignee":0,"shortage":0,"acc_shortage":0,"booking":21,"acc_booking":10718,"fulfillment":21,"acc_fulfillment":10718,"transfer_cost":0.0,"port_name":"Oakland","position":{"lat":37.804363,"lng":-122.271111},"status":"surplus"},{"frame_index":433,"name":"ports_10","capacity":10000,"empty":1374,"full":94,"on_shipper":17,"on_consignee":0,"shortage":0,"acc_shortage":0,"booking":11,"acc_booking":5487,"fulfillment":11,"acc_fulfillment":5487,"transfer_cost":0.0,"port_name":"Prince Rupert","position":{"lat":54.312519,"lng":-130.305405},"status":"surplus"},{"frame_index":433,"name":"ports_11","capacity":10000,"empty":815,"full":973,"on_shipper":70,"on_consignee":0,"shortage":0,"acc_shortage":204,"booking":48,"acc_booking":21263,"fulfillment":48,"acc_fulfillment":21059,"transfer_cost":0.0,"port_name":"Pusan","position":{"lat":35.166668,"lng":129.066666},"status":"surplus"},{"frame_index":433,"name":"ports_12","capacity":10000,"empty":1925,"full":1361,"on_shipper":98,"on_consignee":0,"shortage":0,"acc_shortage":0,"booking":62,"acc_booking":28422,"fulfillment":62,"acc_fulfillment":28422,"transfer_cost":0.0,"port_name":"Qingdao","position":{"lat":36.066898,"lng":120.382698},"status":"surplus"},{"frame_index":433,"name":"ports_13","capacity":10000,"empty":0,"full":560,"on_shipper":0,"on_consignee":0,"shortage":8,"acc_shortage":243,"booking":8,"acc_booking":3726,"fulfillment":0,"acc_fulfillment":3483,"transfer_cost":0.0,"port_name":"San Antonio","position":{"lat":29.424349,"lng":-98.491142},"status":"balance"},{"frame_index":433,"name":"ports_14","capacity":10000,"empty":294,"full":25,"on_shipper":12,"on_consignee":0,"shortage":0,"acc_shortage":697,"booking":7,"acc_booking":3763,"fulfillment":7,"acc_fulfillment":3066,"transfer_cost":0.0,"port_name":"Santos","position":{"lat":-23.96083,"lng":-46.33361},"status":"surplus"},{"frame_index":433,"name":"ports_15","capacity":10000,"empty":2806,"full":647,"on_shipper":78,"on_consignee":141,"shortage":0,"acc_shortage":0,"booking":54,"acc_booking":24829,"fulfillment":54,"acc_fulfillment":24829,"transfer_cost":0.0,"port_name":"Seattle","position":{"lat":47.608013,"lng":-122.335167},"status":"surplus"},{"frame_index":433,"name":"ports_16","capacity":10000,"empty":459,"full":729,"on_shipper":116,"on_consignee":1150,"shortage":0,"acc_shortage":0,"booking":77,"acc_booking":35471,"fulfillment":77,"acc_fulfillment":35471,"transfer_cost":28.0,"port_name":"Shanghai","position":{"lat":31.224361,"lng":121.46917},"status":"surplus"},{"frame_index":433,"name":"ports_17","capacity":10000,"empty":2579,"full":563,"on_shipper":37,"on_consignee":0,"shortage":0,"acc_shortage":40,"booking":31,"acc_booking":14302,"fulfillment":31,"acc_fulfillment":14262,"transfer_cost":0.0,"port_name":"Singapore","position":{"lat":1.29027,"lng":103.851959},"status":"surplus"},{"frame_index":433,"name":"ports_18","capacity":10000,"empty":0,"full":382,"on_shipper":0,"on_consignee":0,"shortage":11,"acc_shortage":652,"booking":11,"acc_booking":5455,"fulfillment":0,"acc_fulfillment":4803,"transfer_cost":0.0,"port_name":"Sydney","position":{"lat":-33.865143,"lng":151.2099},"status":"demand"},{"frame_index":433,"name":"ports_19","capacity":10000,"empty":22,"full":1048,"on_shipper":17,"on_consignee":0,"shortage":0,"acc_shortage":0,"booking":17,"acc_booking":7295,"fulfillment":17,"acc_fulfillment":7295,"transfer_cost":0.0,"port_name":"Vancouver","position":{"lat":49.246292,"lng":-123.116226},"status":"demand"},{"frame_index":433,"name":"ports_20","capacity":10000,"empty":520,"full":723,"on_shipper":79,"on_consignee":0,"shortage":0,"acc_shortage":350,"booking":55,"acc_booking":24567,"fulfillment":55,"acc_fulfillment":24217,"transfer_cost":0.0,"port_name":"Yantian","position":{"lat":26.8533,"lng":119.8575},"status":"surplus"},{"frame_index":433,"name":"ports_21","capacity":10000,"empty":135,"full":664,"on_shipper":67,"on_consignee":0,"shortage":0,"acc_shortage":2740,"booking":53,"acc_booking":23584,"fulfillment":53,"acc_fulfillment":20844,"transfer_cost":0.0,"port_name":"Yokohama","position":{"lat":35.443707,"lng":139.638031},"status":"demand"}]