[{"frame_index":156,"name":"ports_0","capacity":10000,"empty":4792,"full":3183,"on_shipper":380,"on_consignee":0,"shortage":0,"acc_shortage":0,"booking":315,"acc_booking":19043,"fulfillment":315,"acc_fulfillment":19043,"transfer_cost":0.0,"port_name":"Bremerhaven","position":{"lat":53.549999,"lng":8.583333},"status":"surplus"},{"frame_index":156,"name":"ports_1","capacity":10000,"empty":802,"full":85,"on_shipper":30,"on_consignee":0,"shortage":0,"acc_shortage":0,"booking":20,"acc_booking":1287,"fulfillment":20,"acc_fulfillment":1287,"transfer_cost":0.0,"port_name":"Durban","position":{"lat":-29.8579,"lng":31.0292},"status":"surplus"},{"frame_index":156,"name":"ports_2","capacity":10000,"empty":0,"full":720,"on_shipper":0,"on_consignee":0,"shortage":17,"acc_shortage":191,"booking":17,"acc_booking":1271,"fulfillment":0,"acc_fulfillment":1080,"transfer_cost":0.0,"port_name":"Itagual","position":{"lat":-22.85222,"lng":-43.77528},"status":"demand"},{"frame_index":156,"name":"ports_3","capacity":10000,"empty":1159,"full":1406,"on_shipper":169,"on_consignee":0,"shortage":0,"acc_shortage":0,"booking":107,"acc_booking":7289,"fulfillment":107,"acc_fulfillment":7289,"transfer_cost":0.0,"port_name":"LeHavre","position":{"lat":49.490002,"lng":0.1},"status":"surplus"},{"frame_index":156,"name":"ports_4","capacity":10000,"empty":2065,"full":1505,"on_shipper":132,"on_consignee":0,"shortage":0,"acc_shortage":0,"booking":86,"acc_booking":6083,"fulfillment":86,"acc_fulfillment":6083,"transfer_cost":0.0,"port_name":"Los Angeles","position":{"lat":34.052235,"lng":-118.243683},"status":"surplus"},{"frame_index":156,"name":"ports_5","capacity":10000,"empty":2082,"full":500,"on_shipper":147,"on_consignee":0,"shortage":0,"acc_shortage":0,"booking":101,"acc_booking":6059,"fulfillment":101,"acc_fulfillment":6059,"transfer_cost":0.0,"port_name":"Manzanillo","position":{"lat":19.11695,"lng":-104.34214},"status":"surplus"},{"frame_index":156,"name":"ports_6","capacity":10000,"empty":563,"full":112,"on_shipper":35,"on_consignee":0,"shortage":0,"acc_shortage":0,"booking":26,"acc_booking":1876,"fulfillment":26,"acc_fulfillment":1876,"transfer_cost":0.0,"port_name":"Melbourne","position":{"lat":-37.840935,"lng":144.946457},"status":"surplus"},{"frame_index":156,"name":"ports_7","capacity":10000,"empty":2451,"full":225,"on_shipper":39,"on_consignee":0,"shortage":0,"acc_shortage":0,"booking":27,"acc_booking":1872,"fulfillment":27,"acc_fulfillment":1872,"transfer_cost":0.0,"port_name":"Montreal","position":{"lat":45.516136,"lng":-73.65683},"status":"surplus"},{"frame_index":156,"name":"ports_8","capacity":10000,"empty":911,"full":900,"on_shipper":74,"on_consignee":0,"shortage":0,"acc_shortage":0,"booking":50,"acc_booking":3658,"fulfillment":50,"acc_fulfillment":3658,"transfer_cost":0.0,"port_name":"New York","position":{"lat":40.73061,"lng":-73.935242},"status":"surplus"},{"frame_index":156,"name":"ports_9","capacity":10000,"empty":1594,"full":719,"on_shipper":103,"on_consignee":0,"shortage":0,"acc_shortage":0,"booking":44,"acc_booking":3644,"fulfillment":44,"acc_fulfillment":3644,"transfer_cost":0.0,"port_name":"Oakland","position":{"lat":37.804363,"lng":-122.271111},"status":"surplus"},{"frame_index":156,"name":"ports_10","capacity":10000,"empty":962,"full":131,"on_shipper":45,"on_consignee":0,"shortage":0,"acc_shortage":0,"booking":30,"acc_booking":1874,"fulfillment":30,"acc_fulfillment":1874,"transfer_cost":0.0,"port_name":"Prince Rupert","position":{"lat":54.312519,"lng":-130.305405},"status":"surplus"},{"frame_index":156,"name":"ports_11","capacity":10000,"empty":1860,"full":734,"on_shipper":151,"on_consignee":0,"shortage":0,"acc_shortage":0,"booking":105,"acc_booking":7248,"fulfillment":105,"acc_fulfillment":7248,"transfer_cost":0.0,"port_name":"Pusan","position":{"lat":35.166668,"lng":129.066666},"status":"surplus"},{"frame_index":156,"name":"ports_12","capacity":10000,"empty":3430,"full":1160,"on_shipper":152,"on_consignee":0,"shortage":0,"acc_shortage":0,"booking":130,"acc_booking":9690,"fulfillment":130,"acc_fulfillment":9690,"transfer_cost":0.0,"port_name":"Qingdao","position":{"lat":36.066898,"lng":120.382698},"status":"surplus"},{"frame_index":156,"name":"ports_13","capacity":10000,"empty":123,"full":332,"on_shipper":30,"on_consignee":0,"shortage":0,"acc_shortage":0,"booking":17,"acc_booking":1281,"fulfillment":17,"acc_fulfillment":1281,"transfer_cost":0.0,"port_name":"San Antonio","position":{"lat":29.424349,"lng":-98.491142},"status":"balance"},{"frame_index":156,"name":"ports_14","capacity":10000,"empty":0,"full":224,"on_shipper":0,"on_consignee":0,"shortage":18,"acc_shortage":115,"booking":18,"acc_booking":1291,"fulfillment":0,"acc_fulfillment":1176,"transfer_cost":0.0,"port_name":"Santos","position":{"lat":-23.96083,"lng":-46.33361},"status":"demand"},{"frame_index":156,"name":"ports_15","capacity":10000,"empty":2943,"full":980,"on_shipper":196,"on_consignee":0,"shortage":0,"acc_shortage":0,"booking":120,"acc_booking":8463,"fulfillment":120,"acc_fulfillment":8463,"transfer_cost":0.0,"port_name":"Seattle","position":{"lat":47.608013,"lng":-122.335167},"status":"surplus"},{"frame_index":156,"name":"ports_16","capacity":10000,"empty":1675,"full":1268,"on_shipper":211,"on_consignee":798,"shortage":0,"acc_shortage":0,"booking":157,"acc_booking":12162,"fulfillment":157,"acc_fulfillment":12162,"transfer_cost":0.0,"port_name":"Shanghai","position":{"lat":31.224361,"lng":121.46917},"status":"surplus"},{"frame_index":156,"name":"ports_17","capacity":10000,"empty":1072,"full":405,"on_shipper":104,"on_consignee":68,"shortage":0,"acc_shortage":0,"booking":70,"acc_booking":4890,"fulfillment":70,"acc_fulfillment":4890,"transfer_cost":0.0,"port_name":"Singapore","position":{"lat":1.29027,"lng":103.851959},"status":"surplus"},{"frame_index":156,"name":"ports_18","capacity":10000,"empty":580,"full":212,"on_shipper":52,"on_consignee":0,"shortage":0,"acc_shortage":0,"booking":27,"acc_booking":1854,"fulfillment":27,"acc_fulfillment":1854,"transfer_cost":0.0,"port_name":"Sydney","position":{"lat":-33.865143,"lng":151.2099},"status":"surplus"},{"frame_index":156,"name":"ports_19","capacity":10000,"empty":1037,"full":479,"on_shipper":56,"on_consignee":0,"shortage":0,"acc_shortage":0,"booking":35,"acc_booking":2483,"fulfillment":35,"acc_fulfillment":2483,"transfer_cost":0.0,"port_name":"Vancouver","position":{"lat":49.246292,"lng":-123.116226},"status":"surplus"},{"frame_index":156,"name":"ports_20","capacity":10000,"empty":1759,"full":696,"on_shipper":178,"on_consignee":0,"shortage":0,"acc_shortage":0,"booking":113,"acc_booking":8318,"fulfillment":113,"acc_fulfillment":8318,"transfer_cost":0.0,"port_name":"Yantian","position":{"lat":26.8533,"lng":119.8575},"status":"surplus"},{"frame_index":156,"name":"ports_21","capacity":10000,"empty":2751,"full":734,"on_shipper":191,"on_consignee":0,"shortage":0,"acc_shortage":0,"booking":129,"acc_booking":7945,"fulfillment":129,"acc_fulfillment":7945,"transfer_cost":0.0,"port_name":"Yokohama","position":{"lat":35.443707,"lng":139.638031},"status":"surplus"}]