[{"frame_index":412,"name":"ports_0","capacity":10000,"empty":1986,"full":4771,"on_shipper":297,"on_consignee":0,"shortage":0,"acc_shortage":522,"booking":153,"acc_booking":53559,"fulfillment":153,"acc_fulfillment":53037,"transfer_cost":0.0,"port_name":"Bremerhaven","position":{"lat":53.549999,"lng":8.583333},"status":"surplus"},{"frame_index":412,"name":"ports_1","capacity":10000,"empty":187,"full":289,"on_shipper":18,"on_consignee":0,"shortage":0,"acc_shortage":0,"booking":10,"acc_booking":3589,"fulfillment":10,"acc_fulfillment":3589,"transfer_cost":0.0,"port_name":"Durban","position":{"lat":-29.8579,"lng":31.0292},"status":"surplus"},{"frame_index":412,"name":"ports_2","capacity":10000,"empty":580,"full":378,"on_shipper":18,"on_consignee":0,"shortage":0,"acc_shortage":233,"booking":9,"acc_booking":3560,"fulfillment":9,"acc_fulfillment":3327,"transfer_cost":0.0,"port_name":"Itagual","position":{"lat":-22.85222,"lng":-43.77528},"status":"surplus"},{"frame_index":412,"name":"ports_3","capacity":10000,"empty":1110,"full":141,"on_shipper":91,"on_consignee":122,"shortage":0,"acc_shortage":0,"booking":50,"acc_booking":20380,"fulfillment":50,"acc_fulfillment":20380,"transfer_cost":1.0,"port_name":"LeHavre","position":{"lat":49.490002,"lng":0.1},"status":"surplus"},{"frame_index":412,"name":"ports_4","capacity":10000,"empty":1083,"full":2347,"on_shipper":53,"on_consignee":0,"shortage":0,"acc_shortage":0,"booking":42,"acc_booking":17037,"fulfillment":42,"acc_fulfillment":17037,"transfer_cost":0.0,"port_name":"Los Angeles","position":{"lat":34.052235,"lng":-118.243683},"status":"surplus"},{"frame_index":412,"name":"ports_5","capacity":10000,"empty":41,"full":1334,"on_shipper":77,"on_consignee":0,"shortage":0,"acc_shortage":123,"booking":44,"acc_booking":17113,"fulfillment":44,"acc_fulfillment":16990,"transfer_cost":0.0,"port_name":"Manzanillo","position":{"lat":19.11695,"lng":-104.34214},"status":"demand"},{"frame_index":412,"name":"ports_6","capacity":10000,"empty":276,"full":58,"on_shipper":18,"on_consignee":0,"shortage":0,"acc_shortage":819,"booking":13,"acc_booking":5243,"fulfillment":13,"acc_fulfillment":4424,"transfer_cost":0.0,"port_name":"Melbourne","position":{"lat":-37.840935,"lng":144.946457},"status":"surplus"},{"frame_index":412,"name":"ports_7","capacity":10000,"empty":1842,"full":873,"on_shipper":23,"on_consignee":0,"shortage":0,"acc_shortage":0,"booking":13,"acc_booking":5243,"fulfillment":13,"acc_fulfillment":5243,"transfer_cost":0.0,"port_name":"Montreal","position":{"lat":45.516136,"lng":-73.65683},"status":"surplus"},{"frame_index":412,"name":"ports_8","capacity":10000,"empty":1288,"full":707,"on_shipper":46,"on_consignee":0,"shortage":0,"acc_shortage":0,"booking":28,"acc_booking":10237,"fulfillment":28,"acc_fulfillment":10237,"transfer_cost":0.0,"port_name":"New York","position":{"lat":40.73061,"lng":-73.935242},"status":"surplus"},{"frame_index":412,"name":"ports_9","capacity":10000,"empty":784,"full":888,"on_shipper":25,"on_consignee":0,"shortage":0,"acc_shortage":0,"booking":25,"acc_booking":10242,"fulfillment":25,"acc_fulfillment":10242,"transfer_cost":0.0,"port_name":"Oakland","position":{"lat":37.804363,"lng":-122.271111},"status":"surplus"},{"frame_index":412,"name":"ports_10","capacity":10000,"empty":469,"full":1019,"on_shipper":27,"on_consignee":0,"shortage":0,"acc_shortage":0,"booking":12,"acc_booking":5234,"fulfillment":12,"acc_fulfillment":5234,"transfer_cost":0.0,"port_name":"Prince Rupert","position":{"lat":54.312519,"lng":-130.305405},"status":"surplus"},{"frame_index":412,"name":"ports_11","capacity":10000,"empty":536,"full":1002,"on_shipper":75,"on_consignee":0,"shortage":0,"acc_shortage":204,"booking":49,"acc_booking":20325,"fulfillment":49,"acc_fulfillment":20121,"transfer_cost":0.0,"port_name":"Pusan","position":{"lat":35.166668,"lng":129.066666},"status":"surplus"},{"frame_index":412,"name":"ports_12","capacity":10000,"empty":2019,"full":1202,"on_shipper":118,"on_consignee":0,"shortage":0,"acc_shortage":0,"booking":65,"acc_booking":27186,"fulfillment":65,"acc_fulfillment":27186,"transfer_cost":0.0,"port_name":"Qingdao","position":{"lat":36.066898,"lng":120.382698},"status":"surplus"},{"frame_index":412,"name":"ports_13","capacity":10000,"empty":48,"full":495,"on_shipper":17,"on_consignee":0,"shortage":0,"acc_shortage":123,"booking":9,"acc_booking":3558,"fulfillment":9,"acc_fulfillment":3435,"transfer_cost":0.0,"port_name":"San Antonio","position":{"lat":29.424349,"lng":-98.491142},"status":"balance"},{"frame_index":412,"name":"ports_14","capacity":10000,"empty":159,"full":733,"on_shipper":11,"on_consignee":0,"shortage":0,"acc_shortage":697,"booking":8,"acc_booking":3605,"fulfillment":8,"acc_fulfillment":2908,"transfer_cost":0.0,"port_name":"Santos","position":{"lat":-23.96083,"lng":-46.33361},"status":"surplus"},{"frame_index":412,"name":"ports_15","capacity":10000,"empty":2485,"full":1258,"on_shipper":83,"on_consignee":716,"shortage":0,"acc_shortage":0,"booking":62,"acc_booking":23730,"fulfillment":62,"acc_fulfillment":23730,"transfer_cost":0.0,"port_name":"Seattle","position":{"lat":47.608013,"lng":-122.335167},"status":"surplus"},{"frame_index":412,"name":"ports_16","capacity":10000,"empty":241,"full":3328,"on_shipper":137,"on_consignee":38,"shortage":0,"acc_shortage":0,"booking":99,"acc_booking":33890,"fulfillment":99,"acc_fulfillment":33890,"transfer_cost":0.0,"port_name":"Shanghai","position":{"lat":31.224361,"lng":121.46917},"status":"demand"},{"frame_index":412,"name":"ports_17","capacity":10000,"empty":2052,"full":1209,"on_shipper":54,"on_consignee":0,"shortage":0,"acc_shortage":40,"booking":33,"acc_booking":13672,"fulfillment":33,"acc_fulfillment":13632,"transfer_cost":0.0,"port_name":"Singapore","position":{"lat":1.29027,"lng":103.851959},"status":"surplus"},{"frame_index":412,"name":"ports_18","capacity":10000,"empty":8,"full":341,"on_shipper":33,"on_consignee":0,"shortage":0,"acc_shortage":419,"booking":13,"acc_booking":5214,"fulfillment":13,"acc_fulfillment":4795,"transfer_cost":0.0,"port_name":"Sydney","position":{"lat":-33.865143,"lng":151.2099},"status":"demand"},{"frame_index":412,"name":"ports_19","capacity":10000,"empty":347,"full":705,"on_shipper":35,"on_consignee":0,"shortage":0,"acc_shortage":0,"booking":19,"acc_booking":6970,"fulfillment":19,"acc_fulfillment":6970,"transfer_cost":0.0,"port_name":"Vancouver","position":{"lat":49.246292,"lng":-123.116226},"status":"surplus"},{"frame_index":412,"name":"ports_20","capacity":10000,"empty":24,"full":1239,"on_shipper":101,"on_consignee":0,"shortage":0,"acc_shortage":325,"booking":53,"acc_booking":23496,"fulfillment":53,"acc_fulfillment":23171,"transfer_cost":0.0,"port_name":"Yantian","position":{"lat":26.8533,"lng":119.8575},"status":"demand"},{"frame_index":412,"name":"ports_21","capacity":10000,"empty":197,"full":331,"on_shipper":123,"on_consignee":210,"shortage":0,"acc_shortage":2444,"booking":57,"acc_booking":22563,"fulfillment":57,"acc_fulfillment":20119,"transfer_cost":16.0,"port_name":"Yokohama","position":{"lat":35.443707,"lng":139.638031},"status":"demand"}]