[{"frame_index":116,"name":"ports_0","capacity":10000,"empty":5240,"full":2779,"on_shipper":78,"on_consignee":0,"shortage":0,"acc_shortage":0,"booking":36,"acc_booking":14377,"fulfillment":36,"acc_fulfillment":14377,"transfer_cost":0.0,"port_name":"Bremerhaven","position":{"lat":53.549999,"lng":8.583333},"status":"surplus"},{"frame_index":116,"name":"ports_1","capacity":10000,"empty":537,"full":163,"on_shipper":7,"on_consignee":0,"shortage":0,"acc_shortage":0,"booking":3,"acc_booking":968,"fulfillment":3,"acc_fulfillment":968,"transfer_cost":0.0,"port_name":"Durban","position":{"lat":-29.8579,"lng":31.0292},"status":"surplus"},{"frame_index":116,"name":"ports_2","capacity":10000,"empty":126,"full":589,"on_shipper":5,"on_consignee":0,"shortage":0,"acc_shortage":0,"booking":3,"acc_booking":954,"fulfillment":3,"acc_fulfillment":954,"transfer_cost":0.0,"port_name":"Itagual","position":{"lat":-22.85222,"lng":-43.77528},"status":"surplus"},{"frame_index":116,"name":"ports_3","capacity":10000,"empty":1973,"full":1150,"on_shipper":33,"on_consignee":0,"shortage":0,"acc_shortage":0,"booking":16,"acc_booking":5476,"fulfillment":16,"acc_fulfillment":5476,"transfer_cost":0.0,"port_name":"LeHavre","position":{"lat":49.490002,"lng":0.1},"status":"surplus"},{"frame_index":116,"name":"ports_4","capacity":10000,"empty":3578,"full":107,"on_shipper":17,"on_consignee":0,"shortage":0,"acc_shortage":0,"booking":13,"acc_booking":4570,"fulfillment":13,"acc_fulfillment":4570,"transfer_cost":0.0,"port_name":"Los Angeles","position":{"lat":34.052235,"lng":-118.243683},"status":"surplus"},{"frame_index":116,"name":"ports_5","capacity":10000,"empty":765,"full":489,"on_shipper":25,"on_consignee":0,"shortage":0,"acc_shortage":0,"booking":15,"acc_booking":4527,"fulfillment":15,"acc_fulfillment":4527,"transfer_cost":0.0,"port_name":"Manzanillo","position":{"lat":19.11695,"lng":-104.34214},"status":"surplus"},{"frame_index":116,"name":"ports_6","capacity":10000,"empty":570,"full":178,"on_shipper":8,"on_consignee":0,"shortage":0,"acc_shortage":0,"booking":4,"acc_booking":1412,"fulfillment":4,"acc_fulfillment":1412,"transfer_cost":0.0,"port_name":"Melbourne","position":{"lat":-37.840935,"lng":144.946457},"status":"surplus"},{"frame_index":116,"name":"ports_7","capacity":10000,"empty":1453,"full":280,"on_shipper":4,"on_consignee":0,"shortage":0,"acc_shortage":0,"booking":4,"acc_booking":1406,"fulfillment":4,"acc_fulfillment":1406,"transfer_cost":0.0,"port_name":"Montreal","position":{"lat":45.516136,"lng":-73.65683},"status":"surplus"},{"frame_index":116,"name":"ports_8","capacity":10000,"empty":1807,"full":70,"on_shipper":8,"on_consignee":0,"shortage":0,"acc_shortage":0,"booking":8,"acc_booking":2762,"fulfillment":8,"acc_fulfillment":2762,"transfer_cost":0.0,"port_name":"New York","position":{"lat":40.73061,"lng":-73.935242},"status":"surplus"},{"frame_index":116,"name":"ports_9","capacity":10000,"empty":1410,"full":278,"on_shipper":11,"on_consignee":0,"shortage":0,"acc_shortage":0,"booking":8,"acc_booking":2733,"fulfillment":8,"acc_fulfillment":2733,"transfer_cost":0.0,"port_name":"Oakland","position":{"lat":37.804363,"lng":-122.271111},"status":"surplus"},{"frame_index":116,"name":"ports_10","capacity":10000,"empty":436,"full":256,"on_shipper":7,"on_consignee":0,"shortage":0,"acc_shortage":0,"booking":5,"acc_booking":1405,"fulfillment":5,"acc_fulfillment":1405,"transfer_cost":0.0,"port_name":"Prince Rupert","position":{"lat":54.312519,"lng":-130.305405},"status":"surplus"},{"frame_index":116,"name":"ports_11","capacity":10000,"empty":1592,"full":955,"on_shipper":25,"on_consignee":0,"shortage":0,"acc_shortage":0,"booking":16,"acc_booking":5457,"fulfillment":16,"acc_fulfillment":5457,"transfer_cost":0.0,"port_name":"Pusan","position":{"lat":35.166668,"lng":129.066666},"status":"surplus"},{"frame_index":116,"name":"ports_12","capacity":10000,"empty":3133,"full":901,"on_shipper":35,"on_consignee":26,"shortage":0,"acc_shortage":0,"booking":23,"acc_booking":7264,"fulfillment":23,"acc_fulfillment":7264,"transfer_cost":0.0,"port_name":"Qingdao","position":{"lat":36.066898,"lng":120.382698},"status":"surplus"},{"frame_index":116,"name":"ports_13","capacity":10000,"empty":442,"full":37,"on_shipper":6,"on_consignee":0,"shortage":0,"acc_shortage":0,"booking":3,"acc_booking":962,"fulfillment":3,"acc_fulfillment":962,"transfer_cost":0.0,"port_name":"San Antonio","position":{"lat":29.424349,"lng":-98.491142},"status":"surplus"},{"frame_index":116,"name":"ports_14","capacity":10000,"empty":208,"full":11,"on_shipper":5,"on_consignee":0,"shortage":0,"acc_shortage":0,"booking":3,"acc_booking":968,"fulfillment":3,"acc_fulfillment":968,"transfer_cost":0.0,"port_name":"Santos","position":{"lat":-23.96083,"lng":-46.33361},"status":"surplus"},{"frame_index":116,"name":"ports_15","capacity":10000,"empty":2303,"full":1533,"on_shipper":37,"on_consignee":0,"shortage":0,"acc_shortage":0,"booking":18,"acc_booking":6377,"fulfillment":18,"acc_fulfillment":6377,"transfer_cost":0.0,"port_name":"Seattle","position":{"lat":47.608013,"lng":-122.335167},"status":"surplus"},{"frame_index":116,"name":"ports_16","capacity":10000,"empty":2404,"full":749,"on_shipper":46,"on_consignee":67,"shortage":0,"acc_shortage":0,"booking":26,"acc_booking":9128,"fulfillment":26,"acc_fulfillment":9128,"transfer_cost":0.0,"port_name":"Shanghai","position":{"lat":31.224361,"lng":121.46917},"status":"surplus"},{"frame_index":116,"name":"ports_17","capacity":10000,"empty":2092,"full":127,"on_shipper":19,"on_consignee":204,"shortage":0,"acc_shortage":0,"booking":11,"acc_booking":3675,"fulfillment":11,"acc_fulfillment":3675,"transfer_cost":0.0,"port_name":"Singapore","position":{"lat":1.29027,"lng":103.851959},"status":"surplus"},{"frame_index":116,"name":"ports_18","capacity":10000,"empty":804,"full":40,"on_shipper":7,"on_consignee":0,"shortage":0,"acc_shortage":0,"booking":4,"acc_booking":1387,"fulfillment":4,"acc_fulfillment":1387,"transfer_cost":0.0,"port_name":"Sydney","position":{"lat":-33.865143,"lng":151.2099},"status":"surplus"},{"frame_index":116,"name":"ports_19","capacity":10000,"empty":643,"full":414,"on_shipper":13,"on_consignee":0,"shortage":0,"acc_shortage":0,"booking":6,"acc_booking":1874,"fulfillment":6,"acc_fulfillment":1874,"transfer_cost":0.0,"port_name":"Vancouver","position":{"lat":49.246292,"lng":-123.116226},"status":"surplus"},{"frame_index":116,"name":"ports_20","capacity":10000,"empty":2172,"full":209,"on_shipper":28,"on_consignee":31,"shortage":0,"acc_shortage":0,"booking":17,"acc_booking":6245,"fulfillment":17,"acc_fulfillment":6245,"transfer_cost":0.0,"port_name":"Yantian","position":{"lat":26.8533,"lng":119.8575},"status":"surplus"},{"frame_index":116,"name":"ports_21","capacity":10000,"empty":3598,"full":113,"on_shipper":22,"on_consignee":0,"shortage":0,"acc_shortage":0,"booking":11,"acc_booking":5986,"fulfillment":11,"acc_fulfillment":5986,"transfer_cost":0.0,"port_name":"Yokohama","position":{"lat":35.443707,"lng":139.638031},"status":"surplus"}]