[{"frame_index":605,"name":"ports_0","capacity":10000,"empty":4260,"full":4846,"on_shipper":334,"on_consignee":0,"shortage":0,"acc_shortage":522,"booking":281,"acc_booking":76759,"fulfillment":281,"acc_fulfillment":76237,"transfer_cost":0.0,"port_name":"Bremerhaven","position":{"lat":53.549999,"lng":8.583333},"status":"surplus"},{"frame_index":605,"name":"ports_1","capacity":10000,"empty":481,"full":96,"on_shipper":26,"on_consignee":0,"shortage":0,"acc_shortage":0,"booking":16,"acc_booking":5104,"fulfillment":16,"acc_fulfillment":5104,"transfer_cost":0.0,"port_name":"Durban","position":{"lat":-29.8579,"lng":31.0292},"status":"surplus"},{"frame_index":605,"name":"ports_2","capacity":10000,"empty":311,"full":250,"on_shipper":28,"on_consignee":0,"shortage":0,"acc_shortage":233,"booking":17,"acc_booking":5075,"fulfillment":17,"acc_fulfillment":4842,"transfer_cost":0.0,"port_name":"Itagual","position":{"lat":-22.85222,"lng":-43.77528},"status":"surplus"},{"frame_index":605,"name":"ports_3","capacity":10000,"empty":345,"full":367,"on_shipper":204,"on_consignee":1740,"shortage":0,"acc_shortage":0,"booking":105,"acc_booking":29026,"fulfillment":105,"acc_fulfillment":29026,"transfer_cost":0.0,"port_name":"LeHavre","position":{"lat":49.490002,"lng":0.1},"status":"demand"},{"frame_index":605,"name":"ports_4","capacity":10000,"empty":465,"full":1319,"on_shipper":144,"on_consignee":0,"shortage":0,"acc_shortage":0,"booking":85,"acc_booking":24287,"fulfillment":85,"acc_fulfillment":24287,"transfer_cost":0.0,"port_name":"Los Angeles","position":{"lat":34.052235,"lng":-118.243683},"status":"balance"},{"frame_index":605,"name":"ports_5","capacity":10000,"empty":2224,"full":612,"on_shipper":141,"on_consignee":0,"shortage":0,"acc_shortage":123,"booking":83,"acc_booking":24310,"fulfillment":83,"acc_fulfillment":24187,"transfer_cost":0.0,"port_name":"Manzanillo","position":{"lat":19.11695,"lng":-104.34214},"status":"surplus"},{"frame_index":605,"name":"ports_6","capacity":10000,"empty":273,"full":321,"on_shipper":43,"on_consignee":0,"shortage":0,"acc_shortage":1259,"booking":26,"acc_booking":7477,"fulfillment":26,"acc_fulfillment":6218,"transfer_cost":0.0,"port_name":"Melbourne","position":{"lat":-37.840935,"lng":144.946457},"status":"surplus"},{"frame_index":605,"name":"ports_7","capacity":10000,"empty":1723,"full":280,"on_shipper":39,"on_consignee":0,"shortage":0,"acc_shortage":0,"booking":26,"acc_booking":7482,"fulfillment":26,"acc_fulfillment":7482,"transfer_cost":0.0,"port_name":"Montreal","position":{"lat":45.516136,"lng":-73.65683},"status":"surplus"},{"frame_index":605,"name":"ports_8","capacity":10000,"empty":2654,"full":198,"on_shipper":70,"on_consignee":0,"shortage":0,"acc_shortage":0,"booking":50,"acc_booking":14622,"fulfillment":50,"acc_fulfillment":14622,"transfer_cost":0.0,"port_name":"New York","position":{"lat":40.73061,"lng":-73.935242},"status":"surplus"},{"frame_index":605,"name":"ports_9","capacity":10000,"empty":1034,"full":358,"on_shipper":113,"on_consignee":0,"shortage":0,"acc_shortage":45,"booking":55,"acc_booking":14645,"fulfillment":55,"acc_fulfillment":14600,"transfer_cost":0.0,"port_name":"Oakland","position":{"lat":37.804363,"lng":-122.271111},"status":"surplus"},{"frame_index":605,"name":"ports_10","capacity":10000,"empty":1467,"full":276,"on_shipper":28,"on_consignee":0,"shortage":0,"acc_shortage":314,"booking":28,"acc_booking":7504,"fulfillment":28,"acc_fulfillment":7190,"transfer_cost":0.0,"port_name":"Prince Rupert","position":{"lat":54.312519,"lng":-130.305405},"status":"surplus"},{"frame_index":605,"name":"ports_11","capacity":10000,"empty":3033,"full":639,"on_shipper":137,"on_consignee":0,"shortage":0,"acc_shortage":204,"booking":105,"acc_booking":28966,"fulfillment":105,"acc_fulfillment":28762,"transfer_cost":0.0,"port_name":"Pusan","position":{"lat":35.166668,"lng":129.066666},"status":"surplus"},{"frame_index":605,"name":"ports_12","capacity":10000,"empty":3750,"full":687,"on_shipper":207,"on_consignee":76,"shortage":0,"acc_shortage":0,"booking":139,"acc_booking":38703,"fulfillment":139,"acc_fulfillment":38703,"transfer_cost":42.0,"port_name":"Qingdao","position":{"lat":36.066898,"lng":120.382698},"status":"surplus"},{"frame_index":605,"name":"ports_13","capacity":10000,"empty":195,"full":269,"on_shipper":26,"on_consignee":0,"shortage":0,"acc_shortage":286,"booking":16,"acc_booking":5070,"fulfillment":16,"acc_fulfillment":4784,"transfer_cost":0.0,"port_name":"San Antonio","position":{"lat":29.424349,"lng":-98.491142},"status":"surplus"},{"frame_index":605,"name":"ports_14","capacity":10000,"empty":1310,"full":97,"on_shipper":23,"on_consignee":0,"shortage":0,"acc_shortage":762,"booking":15,"acc_booking":5116,"fulfillment":15,"acc_fulfillment":4354,"transfer_cost":0.0,"port_name":"Santos","position":{"lat":-23.96083,"lng":-46.33361},"status":"surplus"},{"frame_index":605,"name":"ports_15","capacity":10000,"empty":3536,"full":928,"on_shipper":154,"on_consignee":0,"shortage":0,"acc_shortage":0,"booking":114,"acc_booking":33814,"fulfillment":114,"acc_fulfillment":33814,"transfer_cost":0.0,"port_name":"Seattle","position":{"lat":47.608013,"lng":-122.335167},"status":"surplus"},{"frame_index":605,"name":"ports_16","capacity":10000,"empty":1435,"full":760,"on_shipper":243,"on_consignee":0,"shortage":0,"acc_shortage":470,"booking":163,"acc_booking":48169,"fulfillment":163,"acc_fulfillment":47699,"transfer_cost":0.0,"port_name":"Shanghai","position":{"lat":31.224361,"lng":121.46917},"status":"surplus"},{"frame_index":605,"name":"ports_17","capacity":10000,"empty":689,"full":319,"on_shipper":109,"on_consignee":6,"shortage":0,"acc_shortage":40,"booking":68,"acc_booking":19486,"fulfillment":68,"acc_fulfillment":19446,"transfer_cost":161.0,"port_name":"Singapore","position":{"lat":1.29027,"lng":103.851959},"status":"surplus"},{"frame_index":605,"name":"ports_18","capacity":10000,"empty":619,"full":125,"on_shipper":57,"on_consignee":0,"shortage":0,"acc_shortage":957,"booking":28,"acc_booking":7445,"fulfillment":28,"acc_fulfillment":6488,"transfer_cost":0.0,"port_name":"Sydney","position":{"lat":-33.865143,"lng":151.2099},"status":"surplus"},{"frame_index":605,"name":"ports_19","capacity":10000,"empty":1040,"full":361,"on_shipper":52,"on_consignee":0,"shortage":0,"acc_shortage":0,"booking":33,"acc_booking":9940,"fulfillment":33,"acc_fulfillment":9940,"transfer_cost":0.0,"port_name":"Vancouver","position":{"lat":49.246292,"lng":-123.116226},"status":"surplus"},{"frame_index":605,"name":"ports_20","capacity":10000,"empty":786,"full":745,"on_shipper":185,"on_consignee":0,"shortage":0,"acc_shortage":395,"booking":119,"acc_booking":33595,"fulfillment":119,"acc_fulfillment":33200,"transfer_cost":0.0,"port_name":"Yantian","position":{"lat":26.8533,"lng":119.8575},"status":"surplus"},{"frame_index":605,"name":"ports_21","capacity":10000,"empty":6,"full":1631,"on_shipper":182,"on_consignee":0,"shortage":0,"acc_shortage":3258,"booking":123,"acc_booking":31978,"fulfillment":123,"acc_fulfillment":28720,"transfer_cost":0.0,"port_name":"Yokohama","position":{"lat":35.443707,"lng":139.638031},"status":"demand"}]