[{"frame_index":1059,"name":"ports_0","capacity":10000,"empty":4206,"full":1927,"on_shipper":146,"on_consignee":0,"shortage":0,"acc_shortage":861,"booking":124,"acc_booking":135716,"fulfillment":124,"acc_fulfillment":134855,"transfer_cost":0.0,"port_name":"Bremerhaven","position":{"lat":53.549999,"lng":8.583333},"status":"surplus"},{"frame_index":1059,"name":"ports_1","capacity":10000,"empty":512,"full":98,"on_shipper":14,"on_consignee":0,"shortage":0,"acc_shortage":113,"booking":10,"acc_booking":9019,"fulfillment":10,"acc_fulfillment":8906,"transfer_cost":0.0,"port_name":"Durban","position":{"lat":-29.8579,"lng":31.0292},"status":"surplus"},{"frame_index":1059,"name":"ports_2","capacity":10000,"empty":574,"full":179,"on_shipper":9,"on_consignee":0,"shortage":0,"acc_shortage":298,"booking":8,"acc_booking":8981,"fulfillment":8,"acc_fulfillment":8683,"transfer_cost":0.0,"port_name":"Itagual","position":{"lat":-22.85222,"lng":-43.77528},"status":"surplus"},{"frame_index":1059,"name":"ports_3","capacity":10000,"empty":5712,"full":1460,"on_shipper":69,"on_consignee":0,"shortage":0,"acc_shortage":0,"booking":51,"acc_booking":51309,"fulfillment":51,"acc_fulfillment":51309,"transfer_cost":0.0,"port_name":"LeHavre","position":{"lat":49.490002,"lng":0.1},"status":"surplus"},{"frame_index":1059,"name":"ports_4","capacity":10000,"empty":2041,"full":1124,"on_shipper":47,"on_consignee":0,"shortage":0,"acc_shortage":290,"booking":41,"acc_booking":42972,"fulfillment":41,"acc_fulfillment":42682,"transfer_cost":0.0,"port_name":"Los Angeles","position":{"lat":34.052235,"lng":-118.243683},"status":"surplus"},{"frame_index":1059,"name":"ports_5","capacity":10000,"empty":1244,"full":1161,"on_shipper":54,"on_consignee":0,"shortage":0,"acc_shortage":194,"booking":42,"acc_booking":43006,"fulfillment":42,"acc_fulfillment":42812,"transfer_cost":0.0,"port_name":"Manzanillo","position":{"lat":19.11695,"lng":-104.34214},"status":"surplus"},{"frame_index":1059,"name":"ports_6","capacity":10000,"empty":401,"full":194,"on_shipper":13,"on_consignee":0,"shortage":0,"acc_shortage":2108,"booking":13,"acc_booking":13235,"fulfillment":13,"acc_fulfillment":11127,"transfer_cost":0.0,"port_name":"Melbourne","position":{"lat":-37.840935,"lng":144.946457},"status":"surplus"},{"frame_index":1059,"name":"ports_7","capacity":10000,"empty":1536,"full":164,"on_shipper":20,"on_consignee":0,"shortage":0,"acc_shortage":0,"booking":13,"acc_booking":13238,"fulfillment":13,"acc_fulfillment":13238,"transfer_cost":0.0,"port_name":"Montreal","position":{"lat":45.516136,"lng":-73.65683},"status":"surplus"},{"frame_index":1059,"name":"ports_8","capacity":10000,"empty":5745,"full":180,"on_shipper":27,"on_consignee":0,"shortage":0,"acc_shortage":136,"booking":27,"acc_booking":25869,"fulfillment":27,"acc_fulfillment":25733,"transfer_cost":0.0,"port_name":"New York","position":{"lat":40.73061,"lng":-73.935242},"status":"surplus"},{"frame_index":1059,"name":"ports_9","capacity":10000,"empty":2167,"full":44,"on_shipper":27,"on_consignee":0,"shortage":0,"acc_shortage":45,"booking":22,"acc_booking":25907,"fulfillment":22,"acc_fulfillment":25862,"transfer_cost":0.0,"port_name":"Oakland","position":{"lat":37.804363,"lng":-122.271111},"status":"surplus"},{"frame_index":1059,"name":"ports_10","capacity":10000,"empty":1710,"full":52,"on_shipper":18,"on_consignee":0,"shortage":0,"acc_shortage":314,"booking":14,"acc_booking":13231,"fulfillment":14,"acc_fulfillment":12917,"transfer_cost":0.0,"port_name":"Prince Rupert","position":{"lat":54.312519,"lng":-130.305405},"status":"surplus"},{"frame_index":1059,"name":"ports_11","capacity":10000,"empty":1336,"full":2691,"on_shipper":59,"on_consignee":0,"shortage":0,"acc_shortage":204,"booking":48,"acc_booking":51256,"fulfillment":48,"acc_fulfillment":51052,"transfer_cost":0.0,"port_name":"Pusan","position":{"lat":35.166668,"lng":129.066666},"status":"surplus"},{"frame_index":1059,"name":"ports_12","capacity":10000,"empty":3990,"full":1575,"on_shipper":83,"on_consignee":0,"shortage":0,"acc_shortage":0,"booking":71,"acc_booking":68508,"fulfillment":71,"acc_fulfillment":68508,"transfer_cost":0.0,"port_name":"Qingdao","position":{"lat":36.066898,"lng":120.382698},"status":"surplus"},{"frame_index":1059,"name":"ports_13","capacity":10000,"empty":419,"full":134,"on_shipper":11,"on_consignee":0,"shortage":0,"acc_shortage":459,"booking":8,"acc_booking":8983,"fulfillment":8,"acc_fulfillment":8524,"transfer_cost":0.0,"port_name":"San Antonio","position":{"lat":29.424349,"lng":-98.491142},"status":"surplus"},{"frame_index":1059,"name":"ports_14","capacity":10000,"empty":0,"full":369,"on_shipper":9,"on_consignee":0,"shortage":1,"acc_shortage":878,"booking":8,"acc_booking":9040,"fulfillment":7,"acc_fulfillment":8162,"transfer_cost":0.0,"port_name":"Santos","position":{"lat":-23.96083,"lng":-46.33361},"status":"balance"},{"frame_index":1059,"name":"ports_15","capacity":10000,"empty":2515,"full":745,"on_shipper":63,"on_consignee":0,"shortage":0,"acc_shortage":1489,"booking":59,"acc_booking":59840,"fulfillment":59,"acc_fulfillment":58351,"transfer_cost":0.0,"port_name":"Seattle","position":{"lat":47.608013,"lng":-122.335167},"status":"surplus"},{"frame_index":1059,"name":"ports_16","capacity":10000,"empty":2721,"full":2349,"on_shipper":101,"on_consignee":0,"shortage":0,"acc_shortage":817,"booking":88,"acc_booking":85349,"fulfillment":88,"acc_fulfillment":84532,"transfer_cost":0.0,"port_name":"Shanghai","position":{"lat":31.224361,"lng":121.46917},"status":"surplus"},{"frame_index":1059,"name":"ports_17","capacity":10000,"empty":3239,"full":497,"on_shipper":44,"on_consignee":140,"shortage":0,"acc_shortage":619,"booking":33,"acc_booking":34456,"fulfillment":33,"acc_fulfillment":33837,"transfer_cost":0.0,"port_name":"Singapore","position":{"lat":1.29027,"lng":103.851959},"status":"surplus"},{"frame_index":1059,"name":"ports_18","capacity":10000,"empty":484,"full":489,"on_shipper":11,"on_consignee":0,"shortage":0,"acc_shortage":1374,"booking":11,"acc_booking":13225,"fulfillment":11,"acc_fulfillment":11851,"transfer_cost":0.0,"port_name":"Sydney","position":{"lat":-33.865143,"lng":151.2099},"status":"surplus"},{"frame_index":1059,"name":"ports_19","capacity":10000,"empty":1189,"full":504,"on_shipper":18,"on_consignee":0,"shortage":0,"acc_shortage":0,"booking":17,"acc_booking":17513,"fulfillment":17,"acc_fulfillment":17513,"transfer_cost":0.0,"port_name":"Vancouver","position":{"lat":49.246292,"lng":-123.116226},"status":"surplus"},{"frame_index":1059,"name":"ports_20","capacity":10000,"empty":700,"full":1560,"on_shipper":64,"on_consignee":0,"shortage":0,"acc_shortage":1425,"booking":51,"acc_booking":59554,"fulfillment":51,"acc_fulfillment":58129,"transfer_cost":0.0,"port_name":"Yantian","position":{"lat":26.8533,"lng":119.8575},"status":"surplus"},{"frame_index":1059,"name":"ports_21","capacity":10000,"empty":581,"full":489,"on_shipper":63,"on_consignee":6,"shortage":0,"acc_shortage":8488,"booking":57,"acc_booking":56667,"fulfillment":57,"acc_fulfillment":48179,"transfer_cost":13.0,"port_name":"Yokohama","position":{"lat":35.443707,"lng":139.638031},"status":"surplus"}]