[{"frame_index":682,"name":"ports_0","capacity":10000,"empty":4127,"full":2943,"on_shipper":94,"on_consignee":752,"shortage":0,"acc_shortage":522,"booking":52,"acc_booking":86410,"fulfillment":52,"acc_fulfillment":85888,"transfer_cost":1769.0,"port_name":"Bremerhaven","position":{"lat":53.549999,"lng":8.583333},"status":"surplus"},{"frame_index":682,"name":"ports_1","capacity":10000,"empty":48,"full":192,"on_shipper":6,"on_consignee":0,"shortage":0,"acc_shortage":0,"booking":4,"acc_booking":5745,"fulfillment":4,"acc_fulfillment":5745,"transfer_cost":0.0,"port_name":"Durban","position":{"lat":-29.8579,"lng":31.0292},"status":"balance"},{"frame_index":682,"name":"ports_2","capacity":10000,"empty":402,"full":126,"on_shipper":7,"on_consignee":0,"shortage":0,"acc_shortage":298,"booking":4,"acc_booking":5726,"fulfillment":4,"acc_fulfillment":5428,"transfer_cost":0.0,"port_name":"Itagual","position":{"lat":-22.85222,"lng":-43.77528},"status":"surplus"},{"frame_index":682,"name":"ports_3","capacity":10000,"empty":2982,"full":252,"on_shipper":25,"on_consignee":0,"shortage":0,"acc_shortage":0,"booking":22,"acc_booking":32695,"fulfillment":22,"acc_fulfillment":32695,"transfer_cost":0.0,"port_name":"LeHavre","position":{"lat":49.490002,"lng":0.1},"status":"surplus"},{"frame_index":682,"name":"ports_4","capacity":10000,"empty":1003,"full":123,"on_shipper":35,"on_consignee":0,"shortage":0,"acc_shortage":150,"booking":18,"acc_booking":27361,"fulfillment":18,"acc_fulfillment":27211,"transfer_cost":0.0,"port_name":"Los Angeles","position":{"lat":34.052235,"lng":-118.243683},"status":"surplus"},{"frame_index":682,"name":"ports_5","capacity":10000,"empty":2855,"full":78,"on_shipper":25,"on_consignee":0,"shortage":0,"acc_shortage":123,"booking":18,"acc_booking":27430,"fulfillment":18,"acc_fulfillment":27307,"transfer_cost":0.0,"port_name":"Manzanillo","position":{"lat":19.11695,"lng":-104.34214},"status":"surplus"},{"frame_index":682,"name":"ports_6","capacity":10000,"empty":407,"full":105,"on_shipper":6,"on_consignee":0,"shortage":0,"acc_shortage":1336,"booking":6,"acc_booking":8424,"fulfillment":6,"acc_fulfillment":7088,"transfer_cost":0.0,"port_name":"Melbourne","position":{"lat":-37.840935,"lng":144.946457},"status":"surplus"},{"frame_index":682,"name":"ports_7","capacity":10000,"empty":742,"full":39,"on_shipper":6,"on_consignee":0,"shortage":0,"acc_shortage":0,"booking":6,"acc_booking":8431,"fulfillment":6,"acc_fulfillment":8431,"transfer_cost":0.0,"port_name":"Montreal","position":{"lat":45.516136,"lng":-73.65683},"status":"surplus"},{"frame_index":682,"name":"ports_8","capacity":10000,"empty":4816,"full":170,"on_shipper":10,"on_consignee":0,"shortage":0,"acc_shortage":0,"booking":10,"acc_booking":16477,"fulfillment":10,"acc_fulfillment":16477,"transfer_cost":0.0,"port_name":"New York","position":{"lat":40.73061,"lng":-73.935242},"status":"surplus"},{"frame_index":682,"name":"ports_9","capacity":10000,"empty":630,"full":395,"on_shipper":14,"on_consignee":0,"shortage":0,"acc_shortage":45,"booking":10,"acc_booking":16536,"fulfillment":10,"acc_fulfillment":16491,"transfer_cost":0.0,"port_name":"Oakland","position":{"lat":37.804363,"lng":-122.271111},"status":"surplus"},{"frame_index":682,"name":"ports_10","capacity":10000,"empty":1493,"full":36,"on_shipper":8,"on_consignee":0,"shortage":0,"acc_shortage":314,"booking":5,"acc_booking":8448,"fulfillment":5,"acc_fulfillment":8134,"transfer_cost":0.0,"port_name":"Prince Rupert","position":{"lat":54.312519,"lng":-130.305405},"status":"surplus"},{"frame_index":682,"name":"ports_11","capacity":10000,"empty":3877,"full":788,"on_shipper":24,"on_consignee":275,"shortage":0,"acc_shortage":204,"booking":21,"acc_booking":32658,"fulfillment":21,"acc_fulfillment":32454,"transfer_cost":0.0,"port_name":"Pusan","position":{"lat":35.166668,"lng":129.066666},"status":"surplus"},{"frame_index":682,"name":"ports_12","capacity":10000,"empty":2879,"full":1545,"on_shipper":45,"on_consignee":0,"shortage":0,"acc_shortage":0,"booking":27,"acc_booking":43590,"fulfillment":27,"acc_fulfillment":43590,"transfer_cost":0.0,"port_name":"Qingdao","position":{"lat":36.066898,"lng":120.382698},"status":"surplus"},{"frame_index":682,"name":"ports_13","capacity":10000,"empty":522,"full":17,"on_shipper":6,"on_consignee":0,"shortage":0,"acc_shortage":325,"booking":4,"acc_booking":5724,"fulfillment":4,"acc_fulfillment":5399,"transfer_cost":0.0,"port_name":"San Antonio","position":{"lat":29.424349,"lng":-98.491142},"status":"surplus"},{"frame_index":682,"name":"ports_14","capacity":10000,"empty":543,"full":29,"on_shipper":6,"on_consignee":0,"shortage":0,"acc_shortage":762,"booking":4,"acc_booking":5771,"fulfillment":4,"acc_fulfillment":5009,"transfer_cost":0.0,"port_name":"Santos","position":{"lat":-23.96083,"lng":-46.33361},"status":"surplus"},{"frame_index":682,"name":"ports_15","capacity":10000,"empty":3825,"full":158,"on_shipper":41,"on_consignee":0,"shortage":0,"acc_shortage":0,"booking":24,"acc_booking":38091,"fulfillment":24,"acc_fulfillment":38091,"transfer_cost":0.0,"port_name":"Seattle","position":{"lat":47.608013,"lng":-122.335167},"status":"surplus"},{"frame_index":682,"name":"ports_16","capacity":10000,"empty":1684,"full":978,"on_shipper":53,"on_consignee":76,"shortage":0,"acc_shortage":712,"booking":32,"acc_booking":54257,"fulfillment":32,"acc_fulfillment":53545,"transfer_cost":230.0,"port_name":"Shanghai","position":{"lat":31.224361,"lng":121.46917},"status":"surplus"},{"frame_index":682,"name":"ports_17","capacity":10000,"empty":1584,"full":95,"on_shipper":26,"on_consignee":0,"shortage":0,"acc_shortage":283,"booking":15,"acc_booking":21963,"fulfillment":15,"acc_fulfillment":21680,"transfer_cost":0.0,"port_name":"Singapore","position":{"lat":1.29027,"lng":103.851959},"status":"surplus"},{"frame_index":682,"name":"ports_18","capacity":10000,"empty":427,"full":54,"on_shipper":10,"on_consignee":0,"shortage":0,"acc_shortage":1082,"booking":6,"acc_booking":8398,"fulfillment":6,"acc_fulfillment":7316,"transfer_cost":0.0,"port_name":"Sydney","position":{"lat":-33.865143,"lng":151.2099},"status":"surplus"},{"frame_index":682,"name":"ports_19","capacity":10000,"empty":658,"full":664,"on_shipper":12,"on_consignee":0,"shortage":0,"acc_shortage":0,"booking":8,"acc_booking":11189,"fulfillment":8,"acc_fulfillment":11189,"transfer_cost":0.0,"port_name":"Vancouver","position":{"lat":49.246292,"lng":-123.116226},"status":"surplus"},{"frame_index":682,"name":"ports_20","capacity":10000,"empty":515,"full":501,"on_shipper":42,"on_consignee":42,"shortage":0,"acc_shortage":395,"booking":27,"acc_booking":37846,"fulfillment":27,"acc_fulfillment":37451,"transfer_cost":0.0,"port_name":"Yantian","position":{"lat":26.8533,"lng":119.8575},"status":"surplus"},{"frame_index":682,"name":"ports_21","capacity":10000,"empty":486,"full":20,"on_shipper":26,"on_consignee":226,"shortage":0,"acc_shortage":4175,"booking":18,"acc_booking":36024,"fulfillment":18,"acc_fulfillment":31849,"transfer_cost":0.0,"port_name":"Yokohama","position":{"lat":35.443707,"lng":139.638031},"status":"surplus"}]