[{"frame_index":181,"name":"ports_0","capacity":10000,"empty":4642,"full":5282,"on_shipper":315,"on_consignee":0,"shortage":0,"acc_shortage":0,"booking":268,"acc_booking":23826,"fulfillment":268,"acc_fulfillment":23826,"transfer_cost":0.0,"port_name":"Bremerhaven","position":{"lat":53.549999,"lng":8.583333},"status":"surplus"},{"frame_index":181,"name":"ports_1","capacity":10000,"empty":495,"full":406,"on_shipper":16,"on_consignee":0,"shortage":0,"acc_shortage":0,"booking":14,"acc_booking":1594,"fulfillment":14,"acc_fulfillment":1594,"transfer_cost":0.0,"port_name":"Durban","position":{"lat":-29.8579,"lng":31.0292},"status":"surplus"},{"frame_index":181,"name":"ports_2","capacity":10000,"empty":316,"full":379,"on_shipper":25,"on_consignee":0,"shortage":0,"acc_shortage":233,"booking":17,"acc_booking":1583,"fulfillment":17,"acc_fulfillment":1350,"transfer_cost":0.0,"port_name":"Itagual","position":{"lat":-22.85222,"lng":-43.77528},"status":"surplus"},{"frame_index":181,"name":"ports_3","capacity":10000,"empty":3228,"full":915,"on_shipper":138,"on_consignee":0,"shortage":0,"acc_shortage":0,"booking":90,"acc_booking":9040,"fulfillment":90,"acc_fulfillment":9040,"transfer_cost":0.0,"port_name":"LeHavre","position":{"lat":49.490002,"lng":0.1},"status":"surplus"},{"frame_index":181,"name":"ports_4","capacity":10000,"empty":2981,"full":355,"on_shipper":107,"on_consignee":0,"shortage":0,"acc_shortage":0,"booking":75,"acc_booking":7560,"fulfillment":75,"acc_fulfillment":7560,"transfer_cost":0.0,"port_name":"Los Angeles","position":{"lat":34.052235,"lng":-118.243683},"status":"surplus"},{"frame_index":181,"name":"ports_5","capacity":10000,"empty":1195,"full":56,"on_shipper":126,"on_consignee":116,"shortage":0,"acc_shortage":0,"booking":85,"acc_booking":7560,"fulfillment":85,"acc_fulfillment":7560,"transfer_cost":0.0,"port_name":"Manzanillo","position":{"lat":19.11695,"lng":-104.34214},"status":"surplus"},{"frame_index":181,"name":"ports_6","capacity":10000,"empty":324,"full":195,"on_shipper":38,"on_consignee":0,"shortage":0,"acc_shortage":0,"booking":23,"acc_booking":2325,"fulfillment":23,"acc_fulfillment":2325,"transfer_cost":0.0,"port_name":"Melbourne","position":{"lat":-37.840935,"lng":144.946457},"status":"surplus"},{"frame_index":181,"name":"ports_7","capacity":10000,"empty":2546,"full":51,"on_shipper":33,"on_consignee":0,"shortage":0,"acc_shortage":0,"booking":23,"acc_booking":2323,"fulfillment":23,"acc_fulfillment":2323,"transfer_cost":0.0,"port_name":"Montreal","position":{"lat":45.516136,"lng":-73.65683},"status":"surplus"},{"frame_index":181,"name":"ports_8","capacity":10000,"empty":3759,"full":596,"on_shipper":94,"on_consignee":0,"shortage":0,"acc_shortage":0,"booking":48,"acc_booking":4550,"fulfillment":48,"acc_fulfillment":4550,"transfer_cost":0.0,"port_name":"New York","position":{"lat":40.73061,"lng":-73.935242},"status":"surplus"},{"frame_index":181,"name":"ports_9","capacity":10000,"empty":714,"full":1634,"on_shipper":68,"on_consignee":0,"shortage":0,"acc_shortage":0,"booking":39,"acc_booking":4524,"fulfillment":39,"acc_fulfillment":4524,"transfer_cost":0.0,"port_name":"Oakland","position":{"lat":37.804363,"lng":-122.271111},"status":"surplus"},{"frame_index":181,"name":"ports_10","capacity":10000,"empty":870,"full":183,"on_shipper":40,"on_consignee":0,"shortage":0,"acc_shortage":0,"booking":24,"acc_booking":2314,"fulfillment":24,"acc_fulfillment":2314,"transfer_cost":0.0,"port_name":"Prince Rupert","position":{"lat":54.312519,"lng":-130.305405},"status":"surplus"},{"frame_index":181,"name":"ports_11","capacity":10000,"empty":1874,"full":394,"on_shipper":151,"on_consignee":0,"shortage":0,"acc_shortage":0,"booking":95,"acc_booking":9020,"fulfillment":95,"acc_fulfillment":9020,"transfer_cost":0.0,"port_name":"Pusan","position":{"lat":35.166668,"lng":129.066666},"status":"surplus"},{"frame_index":181,"name":"ports_12","capacity":10000,"empty":1569,"full":2178,"on_shipper":168,"on_consignee":0,"shortage":0,"acc_shortage":0,"booking":135,"acc_booking":12026,"fulfillment":135,"acc_fulfillment":12026,"transfer_cost":0.0,"port_name":"Qingdao","position":{"lat":36.066898,"lng":120.382698},"status":"surplus"},{"frame_index":181,"name":"ports_13","capacity":10000,"empty":400,"full":44,"on_shipper":27,"on_consignee":0,"shortage":0,"acc_shortage":55,"booking":15,"acc_booking":1582,"fulfillment":15,"acc_fulfillment":1527,"transfer_cost":0.0,"port_name":"San Antonio","position":{"lat":29.424349,"lng":-98.491142},"status":"surplus"},{"frame_index":181,"name":"ports_14","capacity":10000,"empty":0,"full":224,"on_shipper":0,"on_consignee":0,"shortage":17,"acc_shortage":424,"booking":17,"acc_booking":1600,"fulfillment":0,"acc_fulfillment":1176,"transfer_cost":0.0,"port_name":"Santos","position":{"lat":-23.96083,"lng":-46.33361},"status":"demand"},{"frame_index":181,"name":"ports_15","capacity":10000,"empty":2725,"full":921,"on_shipper":154,"on_consignee":0,"shortage":0,"acc_shortage":0,"booking":109,"acc_booking":10525,"fulfillment":109,"acc_fulfillment":10525,"transfer_cost":0.0,"port_name":"Seattle","position":{"lat":47.608013,"lng":-122.335167},"status":"surplus"},{"frame_index":181,"name":"ports_16","capacity":10000,"empty":2217,"full":1192,"on_shipper":155,"on_consignee":470,"shortage":0,"acc_shortage":0,"booking":126,"acc_booking":14976,"fulfillment":126,"acc_fulfillment":14976,"transfer_cost":0.0,"port_name":"Shanghai","position":{"lat":31.224361,"lng":121.46917},"status":"surplus"},{"frame_index":181,"name":"ports_17","capacity":10000,"empty":477,"full":385,"on_shipper":85,"on_consignee":0,"shortage":0,"acc_shortage":0,"booking":63,"acc_booking":6073,"fulfillment":63,"acc_fulfillment":6073,"transfer_cost":0.0,"port_name":"Singapore","position":{"lat":1.29027,"lng":103.851959},"status":"surplus"},{"frame_index":181,"name":"ports_18","capacity":10000,"empty":254,"full":373,"on_shipper":33,"on_consignee":0,"shortage":0,"acc_shortage":0,"booking":25,"acc_booking":2303,"fulfillment":25,"acc_fulfillment":2303,"transfer_cost":0.0,"port_name":"Sydney","position":{"lat":-33.865143,"lng":151.2099},"status":"surplus"},{"frame_index":181,"name":"ports_19","capacity":10000,"empty":663,"full":255,"on_shipper":47,"on_consignee":0,"shortage":0,"acc_shortage":0,"booking":30,"acc_booking":3076,"fulfillment":30,"acc_fulfillment":3076,"transfer_cost":0.0,"port_name":"Vancouver","position":{"lat":49.246292,"lng":-123.116226},"status":"surplus"},{"frame_index":181,"name":"ports_20","capacity":10000,"empty":1398,"full":1418,"on_shipper":176,"on_consignee":0,"shortage":0,"acc_shortage":0,"booking":105,"acc_booking":10341,"fulfillment":105,"acc_fulfillment":10341,"transfer_cost":0.0,"port_name":"Yantian","position":{"lat":26.8533,"lng":119.8575},"status":"surplus"},{"frame_index":181,"name":"ports_21","capacity":10000,"empty":896,"full":2350,"on_shipper":127,"on_consignee":142,"shortage":0,"acc_shortage":0,"booking":109,"acc_booking":10027,"fulfillment":109,"acc_fulfillment":10027,"transfer_cost":0.0,"port_name":"Yokohama","position":{"lat":35.443707,"lng":139.638031},"status":"surplus"}]