[{"frame_index":922,"name":"ports_0","capacity":10000,"empty":3189,"full":1353,"on_shipper":243,"on_consignee":0,"shortage":0,"acc_shortage":522,"booking":131,"acc_booking":116982,"fulfillment":131,"acc_fulfillment":116460,"transfer_cost":0.0,"port_name":"Bremerhaven","position":{"lat":53.549999,"lng":8.583333},"status":"surplus"},{"frame_index":922,"name":"ports_1","capacity":10000,"empty":388,"full":101,"on_shipper":13,"on_consignee":0,"shortage":0,"acc_shortage":113,"booking":7,"acc_booking":7782,"fulfillment":7,"acc_fulfillment":7669,"transfer_cost":0.0,"port_name":"Durban","position":{"lat":-29.8579,"lng":31.0292},"status":"surplus"},{"frame_index":922,"name":"ports_2","capacity":10000,"empty":777,"full":76,"on_shipper":11,"on_consignee":0,"shortage":0,"acc_shortage":298,"booking":8,"acc_booking":7744,"fulfillment":8,"acc_fulfillment":7446,"transfer_cost":0.0,"port_name":"Itagual","position":{"lat":-22.85222,"lng":-43.77528},"status":"surplus"},{"frame_index":922,"name":"ports_3","capacity":10000,"empty":2007,"full":1904,"on_shipper":82,"on_consignee":0,"shortage":0,"acc_shortage":0,"booking":44,"acc_booking":44265,"fulfillment":44,"acc_fulfillment":44265,"transfer_cost":0.0,"port_name":"LeHavre","position":{"lat":49.490002,"lng":0.1},"status":"surplus"},{"frame_index":922,"name":"ports_4","capacity":10000,"empty":3475,"full":165,"on_shipper":47,"on_consignee":0,"shortage":0,"acc_shortage":290,"booking":37,"acc_booking":37074,"fulfillment":37,"acc_fulfillment":36784,"transfer_cost":0.0,"port_name":"Los Angeles","position":{"lat":34.052235,"lng":-118.243683},"status":"surplus"},{"frame_index":922,"name":"ports_5","capacity":10000,"empty":1036,"full":334,"on_shipper":66,"on_consignee":0,"shortage":0,"acc_shortage":163,"booking":39,"acc_booking":37177,"fulfillment":39,"acc_fulfillment":37014,"transfer_cost":0.0,"port_name":"Manzanillo","position":{"lat":19.11695,"lng":-104.34214},"status":"surplus"},{"frame_index":922,"name":"ports_6","capacity":10000,"empty":433,"full":199,"on_shipper":22,"on_consignee":0,"shortage":0,"acc_shortage":1855,"booking":12,"acc_booking":11416,"fulfillment":12,"acc_fulfillment":9561,"transfer_cost":0.0,"port_name":"Melbourne","position":{"lat":-37.840935,"lng":144.946457},"status":"surplus"},{"frame_index":922,"name":"ports_7","capacity":10000,"empty":1451,"full":125,"on_shipper":24,"on_consignee":0,"shortage":0,"acc_shortage":0,"booking":12,"acc_booking":11425,"fulfillment":12,"acc_fulfillment":11425,"transfer_cost":0.0,"port_name":"Montreal","position":{"lat":45.516136,"lng":-73.65683},"status":"surplus"},{"frame_index":922,"name":"ports_8","capacity":10000,"empty":2836,"full":202,"on_shipper":35,"on_consignee":0,"shortage":0,"acc_shortage":136,"booking":22,"acc_booking":22315,"fulfillment":22,"acc_fulfillment":22179,"transfer_cost":0.0,"port_name":"New York","position":{"lat":40.73061,"lng":-73.935242},"status":"surplus"},{"frame_index":922,"name":"ports_9","capacity":10000,"empty":576,"full":305,"on_shipper":28,"on_consignee":0,"shortage":0,"acc_shortage":45,"booking":22,"acc_booking":22334,"fulfillment":22,"acc_fulfillment":22289,"transfer_cost":0.0,"port_name":"Oakland","position":{"lat":37.804363,"lng":-122.271111},"status":"surplus"},{"frame_index":922,"name":"ports_10","capacity":10000,"empty":952,"full":226,"on_shipper":15,"on_consignee":0,"shortage":0,"acc_shortage":314,"booking":10,"acc_booking":11449,"fulfillment":10,"acc_fulfillment":11135,"transfer_cost":0.0,"port_name":"Prince Rupert","position":{"lat":54.312519,"lng":-130.305405},"status":"surplus"},{"frame_index":922,"name":"ports_11","capacity":10000,"empty":949,"full":330,"on_shipper":81,"on_consignee":0,"shortage":0,"acc_shortage":204,"booking":46,"acc_booking":44214,"fulfillment":46,"acc_fulfillment":44010,"transfer_cost":0.0,"port_name":"Pusan","position":{"lat":35.166668,"lng":129.066666},"status":"surplus"},{"frame_index":922,"name":"ports_12","capacity":10000,"empty":5317,"full":438,"on_shipper":61,"on_consignee":505,"shortage":0,"acc_shortage":0,"booking":53,"acc_booking":59089,"fulfillment":53,"acc_fulfillment":59089,"transfer_cost":0.0,"port_name":"Qingdao","position":{"lat":36.066898,"lng":120.382698},"status":"surplus"},{"frame_index":922,"name":"ports_13","capacity":10000,"empty":316,"full":59,"on_shipper":12,"on_consignee":0,"shortage":0,"acc_shortage":449,"booking":8,"acc_booking":7752,"fulfillment":8,"acc_fulfillment":7303,"transfer_cost":0.0,"port_name":"San Antonio","position":{"lat":29.424349,"lng":-98.491142},"status":"surplus"},{"frame_index":922,"name":"ports_14","capacity":10000,"empty":205,"full":120,"on_shipper":11,"on_consignee":0,"shortage":0,"acc_shortage":819,"booking":9,"acc_booking":7806,"fulfillment":9,"acc_fulfillment":6987,"transfer_cost":0.0,"port_name":"Santos","position":{"lat":-23.96083,"lng":-46.33361},"status":"surplus"},{"frame_index":922,"name":"ports_15","capacity":10000,"empty":1248,"full":1185,"on_shipper":90,"on_consignee":0,"shortage":0,"acc_shortage":0,"booking":51,"acc_booking":51637,"fulfillment":51,"acc_fulfillment":51637,"transfer_cost":0.0,"port_name":"Seattle","position":{"lat":47.608013,"lng":-122.335167},"status":"surplus"},{"frame_index":922,"name":"ports_16","capacity":10000,"empty":1821,"full":1402,"on_shipper":119,"on_consignee":483,"shortage":0,"acc_shortage":817,"booking":84,"acc_booking":73520,"fulfillment":84,"acc_fulfillment":72703,"transfer_cost":250.0,"port_name":"Shanghai","position":{"lat":31.224361,"lng":121.46917},"status":"surplus"},{"frame_index":922,"name":"ports_17","capacity":10000,"empty":1667,"full":237,"on_shipper":42,"on_consignee":0,"shortage":0,"acc_shortage":283,"booking":31,"acc_booking":29730,"fulfillment":31,"acc_fulfillment":29447,"transfer_cost":0.0,"port_name":"Singapore","position":{"lat":1.29027,"lng":103.851959},"status":"surplus"},{"frame_index":922,"name":"ports_18","capacity":10000,"empty":939,"full":243,"on_shipper":24,"on_consignee":0,"shortage":0,"acc_shortage":1374,"booking":12,"acc_booking":11431,"fulfillment":12,"acc_fulfillment":10057,"transfer_cost":0.0,"port_name":"Sydney","position":{"lat":-33.865143,"lng":151.2099},"status":"surplus"},{"frame_index":922,"name":"ports_19","capacity":10000,"empty":1298,"full":368,"on_shipper":17,"on_consignee":0,"shortage":0,"acc_shortage":0,"booking":16,"acc_booking":15129,"fulfillment":16,"acc_fulfillment":15129,"transfer_cost":0.0,"port_name":"Vancouver","position":{"lat":49.246292,"lng":-123.116226},"status":"surplus"},{"frame_index":922,"name":"ports_20","capacity":10000,"empty":1761,"full":2052,"on_shipper":101,"on_consignee":27,"shortage":0,"acc_shortage":1292,"booking":54,"acc_booking":51335,"fulfillment":54,"acc_fulfillment":50043,"transfer_cost":745.0,"port_name":"Yantian","position":{"lat":26.8533,"lng":119.8575},"status":"surplus"},{"frame_index":922,"name":"ports_21","capacity":10000,"empty":755,"full":636,"on_shipper":74,"on_consignee":0,"shortage":0,"acc_shortage":7235,"booking":48,"acc_booking":48819,"fulfillment":48,"acc_fulfillment":41584,"transfer_cost":0.0,"port_name":"Yokohama","position":{"lat":35.443707,"lng":139.638031},"status":"surplus"}]