[{"frame_index":728,"name":"ports_0","capacity":10000,"empty":2681,"full":4424,"on_shipper":336,"on_consignee":0,"shortage":0,"acc_shortage":522,"booking":253,"acc_booking":92994,"fulfillment":253,"acc_fulfillment":92472,"transfer_cost":0.0,"port_name":"Bremerhaven","position":{"lat":53.549999,"lng":8.583333},"status":"surplus"},{"frame_index":728,"name":"ports_1","capacity":10000,"empty":185,"full":225,"on_shipper":31,"on_consignee":0,"shortage":0,"acc_shortage":0,"booking":20,"acc_booking":6189,"fulfillment":20,"acc_fulfillment":6189,"transfer_cost":0.0,"port_name":"Durban","position":{"lat":-29.8579,"lng":31.0292},"status":"surplus"},{"frame_index":728,"name":"ports_2","capacity":10000,"empty":590,"full":80,"on_shipper":19,"on_consignee":0,"shortage":0,"acc_shortage":298,"booking":18,"acc_booking":6165,"fulfillment":18,"acc_fulfillment":5867,"transfer_cost":0.0,"port_name":"Itagual","position":{"lat":-22.85222,"lng":-43.77528},"status":"surplus"},{"frame_index":728,"name":"ports_3","capacity":10000,"empty":2289,"full":1286,"on_shipper":152,"on_consignee":0,"shortage":0,"acc_shortage":0,"booking":106,"acc_booking":35236,"fulfillment":106,"acc_fulfillment":35236,"transfer_cost":0.0,"port_name":"LeHavre","position":{"lat":49.490002,"lng":0.1},"status":"surplus"},{"frame_index":728,"name":"ports_4","capacity":10000,"empty":0,"full":615,"on_shipper":27,"on_consignee":595,"shortage":86,"acc_shortage":290,"booking":86,"acc_booking":29489,"fulfillment":0,"acc_fulfillment":29199,"transfer_cost":0.0,"port_name":"Los Angeles","position":{"lat":34.052235,"lng":-118.243683},"status":"demand"},{"frame_index":728,"name":"ports_5","capacity":10000,"empty":1563,"full":263,"on_shipper":152,"on_consignee":0,"shortage":0,"acc_shortage":123,"booking":96,"acc_booking":29577,"fulfillment":96,"acc_fulfillment":29454,"transfer_cost":0.0,"port_name":"Manzanillo","position":{"lat":19.11695,"lng":-104.34214},"status":"surplus"},{"frame_index":728,"name":"ports_6","capacity":10000,"empty":111,"full":512,"on_shipper":26,"on_consignee":0,"shortage":0,"acc_shortage":1336,"booking":26,"acc_booking":9078,"fulfillment":26,"acc_fulfillment":7742,"transfer_cost":0.0,"port_name":"Melbourne","position":{"lat":-37.840935,"lng":144.946457},"status":"balance"},{"frame_index":728,"name":"ports_7","capacity":10000,"empty":665,"full":47,"on_shipper":52,"on_consignee":0,"shortage":0,"acc_shortage":0,"booking":27,"acc_booking":9085,"fulfillment":27,"acc_fulfillment":9085,"transfer_cost":0.0,"port_name":"Montreal","position":{"lat":45.516136,"lng":-73.65683},"status":"surplus"},{"frame_index":728,"name":"ports_8","capacity":10000,"empty":3704,"full":410,"on_shipper":83,"on_consignee":0,"shortage":0,"acc_shortage":0,"booking":56,"acc_booking":17747,"fulfillment":56,"acc_fulfillment":17747,"transfer_cost":0.0,"port_name":"New York","position":{"lat":40.73061,"lng":-73.935242},"status":"surplus"},{"frame_index":728,"name":"ports_9","capacity":10000,"empty":912,"full":417,"on_shipper":68,"on_consignee":0,"shortage":0,"acc_shortage":45,"booking":46,"acc_booking":17797,"fulfillment":46,"acc_fulfillment":17752,"transfer_cost":0.0,"port_name":"Oakland","position":{"lat":37.804363,"lng":-122.271111},"status":"surplus"},{"frame_index":728,"name":"ports_10","capacity":10000,"empty":1316,"full":498,"on_shipper":31,"on_consignee":0,"shortage":0,"acc_shortage":314,"booking":25,"acc_booking":9095,"fulfillment":25,"acc_fulfillment":8781,"transfer_cost":0.0,"port_name":"Prince Rupert","position":{"lat":54.312519,"lng":-130.305405},"status":"surplus"},{"frame_index":728,"name":"ports_11","capacity":10000,"empty":1656,"full":3074,"on_shipper":166,"on_consignee":0,"shortage":0,"acc_shortage":204,"booking":102,"acc_booking":35180,"fulfillment":102,"acc_fulfillment":34976,"transfer_cost":0.0,"port_name":"Pusan","position":{"lat":35.166668,"lng":129.066666},"status":"surplus"},{"frame_index":728,"name":"ports_12","capacity":10000,"empty":2464,"full":1130,"on_shipper":248,"on_consignee":342,"shortage":0,"acc_shortage":0,"booking":157,"acc_booking":47000,"fulfillment":157,"acc_fulfillment":47000,"transfer_cost":632.0,"port_name":"Qingdao","position":{"lat":36.066898,"lng":120.382698},"status":"surplus"},{"frame_index":728,"name":"ports_13","capacity":10000,"empty":349,"full":234,"on_shipper":34,"on_consignee":0,"shortage":0,"acc_shortage":325,"booking":19,"acc_booking":6175,"fulfillment":19,"acc_fulfillment":5850,"transfer_cost":0.0,"port_name":"San Antonio","position":{"lat":29.424349,"lng":-98.491142},"status":"surplus"},{"frame_index":728,"name":"ports_14","capacity":10000,"empty":598,"full":283,"on_shipper":27,"on_consignee":0,"shortage":0,"acc_shortage":762,"booking":15,"acc_booking":6207,"fulfillment":15,"acc_fulfillment":5445,"transfer_cost":0.0,"port_name":"Santos","position":{"lat":-23.96083,"lng":-46.33361},"status":"surplus"},{"frame_index":728,"name":"ports_15","capacity":10000,"empty":2306,"full":1568,"on_shipper":165,"on_consignee":0,"shortage":0,"acc_shortage":0,"booking":125,"acc_booking":41066,"fulfillment":125,"acc_fulfillment":41066,"transfer_cost":0.0,"port_name":"Seattle","position":{"lat":47.608013,"lng":-122.335167},"status":"surplus"},{"frame_index":728,"name":"ports_16","capacity":10000,"empty":861,"full":2745,"on_shipper":320,"on_consignee":2,"shortage":0,"acc_shortage":712,"booking":198,"acc_booking":58520,"fulfillment":198,"acc_fulfillment":57808,"transfer_cost":0.0,"port_name":"Shanghai","position":{"lat":31.224361,"lng":121.46917},"status":"demand"},{"frame_index":728,"name":"ports_17","capacity":10000,"empty":2828,"full":555,"on_shipper":97,"on_consignee":0,"shortage":0,"acc_shortage":283,"booking":69,"acc_booking":23674,"fulfillment":69,"acc_fulfillment":23391,"transfer_cost":0.0,"port_name":"Singapore","position":{"lat":1.29027,"lng":103.851959},"status":"surplus"},{"frame_index":728,"name":"ports_18","capacity":10000,"empty":53,"full":158,"on_shipper":46,"on_consignee":0,"shortage":0,"acc_shortage":1082,"booking":29,"acc_booking":9074,"fulfillment":29,"acc_fulfillment":7992,"transfer_cost":0.0,"port_name":"Sydney","position":{"lat":-33.865143,"lng":151.2099},"status":"demand"},{"frame_index":728,"name":"ports_19","capacity":10000,"empty":763,"full":684,"on_shipper":51,"on_consignee":0,"shortage":0,"acc_shortage":0,"booking":38,"acc_booking":12042,"fulfillment":38,"acc_fulfillment":12042,"transfer_cost":0.0,"port_name":"Vancouver","position":{"lat":49.246292,"lng":-123.116226},"status":"surplus"},{"frame_index":728,"name":"ports_20","capacity":10000,"empty":0,"full":1492,"on_shipper":64,"on_consignee":0,"shortage":115,"acc_shortage":816,"booking":125,"acc_booking":40841,"fulfillment":10,"acc_fulfillment":40025,"transfer_cost":0.0,"port_name":"Yantian","position":{"lat":26.8533,"lng":119.8575},"status":"demand"},{"frame_index":728,"name":"ports_21","capacity":10000,"empty":0,"full":609,"on_shipper":137,"on_consignee":0,"shortage":72,"acc_shortage":4247,"booking":127,"acc_booking":38891,"fulfillment":55,"acc_fulfillment":34644,"transfer_cost":0.0,"port_name":"Yokohama","position":{"lat":35.443707,"lng":139.638031},"status":"demand"}]