[{"frame_index":854,"name":"ports_0","capacity":10000,"empty":2441,"full":1243,"on_shipper":362,"on_consignee":187,"shortage":0,"acc_shortage":522,"booking":251,"acc_booking":110377,"fulfillment":251,"acc_fulfillment":109855,"transfer_cost":0.0,"port_name":"Bremerhaven","position":{"lat":53.549999,"lng":8.583333},"status":"surplus"},{"frame_index":854,"name":"ports_1","capacity":10000,"empty":180,"full":86,"on_shipper":35,"on_consignee":0,"shortage":0,"acc_shortage":10,"booking":18,"acc_booking":7339,"fulfillment":18,"acc_fulfillment":7329,"transfer_cost":0.0,"port_name":"Durban","position":{"lat":-29.8579,"lng":31.0292},"status":"surplus"},{"frame_index":854,"name":"ports_2","capacity":10000,"empty":567,"full":112,"on_shipper":29,"on_consignee":0,"shortage":0,"acc_shortage":298,"booking":15,"acc_booking":7306,"fulfillment":15,"acc_fulfillment":7008,"transfer_cost":0.0,"port_name":"Itagual","position":{"lat":-22.85222,"lng":-43.77528},"status":"surplus"},{"frame_index":854,"name":"ports_3","capacity":10000,"empty":4762,"full":1016,"on_shipper":158,"on_consignee":0,"shortage":0,"acc_shortage":0,"booking":95,"acc_booking":41804,"fulfillment":95,"acc_fulfillment":41804,"transfer_cost":0.0,"port_name":"LeHavre","position":{"lat":49.490002,"lng":0.1},"status":"surplus"},{"frame_index":854,"name":"ports_4","capacity":10000,"empty":2023,"full":1507,"on_shipper":119,"on_consignee":0,"shortage":0,"acc_shortage":290,"booking":81,"acc_booking":35004,"fulfillment":81,"acc_fulfillment":34714,"transfer_cost":0.0,"port_name":"Los Angeles","position":{"lat":34.052235,"lng":-118.243683},"status":"surplus"},{"frame_index":854,"name":"ports_5","capacity":10000,"empty":1636,"full":1083,"on_shipper":135,"on_consignee":0,"shortage":0,"acc_shortage":123,"booking":88,"acc_booking":35124,"fulfillment":88,"acc_fulfillment":35001,"transfer_cost":0.0,"port_name":"Manzanillo","position":{"lat":19.11695,"lng":-104.34214},"status":"surplus"},{"frame_index":854,"name":"ports_6","capacity":10000,"empty":261,"full":204,"on_shipper":41,"on_consignee":0,"shortage":0,"acc_shortage":1654,"booking":24,"acc_booking":10769,"fulfillment":24,"acc_fulfillment":9115,"transfer_cost":0.0,"port_name":"Melbourne","position":{"lat":-37.840935,"lng":144.946457},"status":"surplus"},{"frame_index":854,"name":"ports_7","capacity":10000,"empty":763,"full":90,"on_shipper":50,"on_consignee":0,"shortage":0,"acc_shortage":0,"booking":24,"acc_booking":10785,"fulfillment":24,"acc_fulfillment":10785,"transfer_cost":0.0,"port_name":"Montreal","position":{"lat":45.516136,"lng":-73.65683},"status":"surplus"},{"frame_index":854,"name":"ports_8","capacity":10000,"empty":4055,"full":144,"on_shipper":75,"on_consignee":0,"shortage":0,"acc_shortage":136,"booking":50,"acc_booking":21069,"fulfillment":50,"acc_fulfillment":20933,"transfer_cost":0.0,"port_name":"New York","position":{"lat":40.73061,"lng":-73.935242},"status":"surplus"},{"frame_index":854,"name":"ports_9","capacity":10000,"empty":917,"full":597,"on_shipper":89,"on_consignee":0,"shortage":0,"acc_shortage":45,"booking":50,"acc_booking":21091,"fulfillment":50,"acc_fulfillment":21046,"transfer_cost":0.0,"port_name":"Oakland","position":{"lat":37.804363,"lng":-122.271111},"status":"surplus"},{"frame_index":854,"name":"ports_10","capacity":10000,"empty":1397,"full":44,"on_shipper":45,"on_consignee":0,"shortage":0,"acc_shortage":314,"booking":29,"acc_booking":10816,"fulfillment":29,"acc_fulfillment":10502,"transfer_cost":0.0,"port_name":"Prince Rupert","position":{"lat":54.312519,"lng":-130.305405},"status":"surplus"},{"frame_index":854,"name":"ports_11","capacity":10000,"empty":1139,"full":1793,"on_shipper":159,"on_consignee":27,"shortage":0,"acc_shortage":204,"booking":94,"acc_booking":41760,"fulfillment":94,"acc_fulfillment":41556,"transfer_cost":0.0,"port_name":"Pusan","position":{"lat":35.166668,"lng":129.066666},"status":"surplus"},{"frame_index":854,"name":"ports_12","capacity":10000,"empty":2142,"full":2445,"on_shipper":218,"on_consignee":0,"shortage":0,"acc_shortage":0,"booking":137,"acc_booking":55808,"fulfillment":137,"acc_fulfillment":55808,"transfer_cost":0.0,"port_name":"Qingdao","position":{"lat":36.066898,"lng":120.382698},"status":"surplus"},{"frame_index":854,"name":"ports_13","capacity":10000,"empty":434,"full":71,"on_shipper":22,"on_consignee":0,"shortage":0,"acc_shortage":449,"booking":15,"acc_booking":7313,"fulfillment":15,"acc_fulfillment":6864,"transfer_cost":0.0,"port_name":"San Antonio","position":{"lat":29.424349,"lng":-98.491142},"status":"surplus"},{"frame_index":854,"name":"ports_14","capacity":10000,"empty":289,"full":301,"on_shipper":27,"on_consignee":0,"shortage":0,"acc_shortage":819,"booking":16,"acc_booking":7361,"fulfillment":16,"acc_fulfillment":6542,"transfer_cost":0.0,"port_name":"Santos","position":{"lat":-23.96083,"lng":-46.33361},"status":"surplus"},{"frame_index":854,"name":"ports_15","capacity":10000,"empty":305,"full":2401,"on_shipper":167,"on_consignee":0,"shortage":0,"acc_shortage":0,"booking":108,"acc_booking":48771,"fulfillment":108,"acc_fulfillment":48771,"transfer_cost":0.0,"port_name":"Seattle","position":{"lat":47.608013,"lng":-122.335167},"status":"demand"},{"frame_index":854,"name":"ports_16","capacity":10000,"empty":896,"full":2021,"on_shipper":266,"on_consignee":66,"shortage":0,"acc_shortage":760,"booking":184,"acc_booking":69392,"fulfillment":184,"acc_fulfillment":68632,"transfer_cost":0.0,"port_name":"Shanghai","position":{"lat":31.224361,"lng":121.46917},"status":"balance"},{"frame_index":854,"name":"ports_17","capacity":10000,"empty":1039,"full":761,"on_shipper":90,"on_consignee":0,"shortage":0,"acc_shortage":283,"booking":62,"acc_booking":28072,"fulfillment":62,"acc_fulfillment":27789,"transfer_cost":0.0,"port_name":"Singapore","position":{"lat":1.29027,"lng":103.851959},"status":"surplus"},{"frame_index":854,"name":"ports_18","capacity":10000,"empty":484,"full":720,"on_shipper":46,"on_consignee":0,"shortage":0,"acc_shortage":1374,"booking":27,"acc_booking":10798,"fulfillment":27,"acc_fulfillment":9424,"transfer_cost":0.0,"port_name":"Sydney","position":{"lat":-33.865143,"lng":151.2099},"status":"surplus"},{"frame_index":854,"name":"ports_19","capacity":10000,"empty":966,"full":490,"on_shipper":54,"on_consignee":0,"shortage":0,"acc_shortage":0,"booking":34,"acc_booking":14288,"fulfillment":34,"acc_fulfillment":14288,"transfer_cost":0.0,"port_name":"Vancouver","position":{"lat":49.246292,"lng":-123.116226},"status":"surplus"},{"frame_index":854,"name":"ports_20","capacity":10000,"empty":507,"full":1581,"on_shipper":207,"on_consignee":6,"shortage":0,"acc_shortage":942,"booking":120,"acc_booking":48484,"fulfillment":120,"acc_fulfillment":47542,"transfer_cost":8.0,"port_name":"Yantian","position":{"lat":26.8533,"lng":119.8575},"status":"demand"},{"frame_index":854,"name":"ports_21","capacity":10000,"empty":0,"full":1676,"on_shipper":51,"on_consignee":0,"shortage":116,"acc_shortage":6551,"booking":116,"acc_booking":46295,"fulfillment":0,"acc_fulfillment":39744,"transfer_cost":0.0,"port_name":"Yokohama","position":{"lat":35.443707,"lng":139.638031},"status":"demand"}]