[{"frame_index":219,"name":"ports_0","capacity":10000,"empty":3812,"full":1895,"on_shipper":88,"on_consignee":0,"shortage":0,"acc_shortage":0,"booking":53,"acc_booking":28334,"fulfillment":53,"acc_fulfillment":28334,"transfer_cost":0.0,"port_name":"Bremerhaven","position":{"lat":53.549999,"lng":8.583333},"status":"surplus"},{"frame_index":219,"name":"ports_1","capacity":10000,"empty":645,"full":236,"on_shipper":4,"on_consignee":0,"shortage":0,"acc_shortage":0,"booking":4,"acc_booking":1897,"fulfillment":4,"acc_fulfillment":1897,"transfer_cost":0.0,"port_name":"Durban","position":{"lat":-29.8579,"lng":31.0292},"status":"surplus"},{"frame_index":219,"name":"ports_2","capacity":10000,"empty":816,"full":55,"on_shipper":6,"on_consignee":0,"shortage":0,"acc_shortage":233,"booking":3,"acc_booking":1885,"fulfillment":3,"acc_fulfillment":1652,"transfer_cost":0.0,"port_name":"Itagual","position":{"lat":-22.85222,"lng":-43.77528},"status":"surplus"},{"frame_index":219,"name":"ports_3","capacity":10000,"empty":1927,"full":166,"on_shipper":27,"on_consignee":0,"shortage":0,"acc_shortage":0,"booking":18,"acc_booking":10760,"fulfillment":18,"acc_fulfillment":10760,"transfer_cost":0.0,"port_name":"LeHavre","position":{"lat":49.490002,"lng":0.1},"status":"surplus"},{"frame_index":219,"name":"ports_4","capacity":10000,"empty":1517,"full":488,"on_shipper":20,"on_consignee":0,"shortage":0,"acc_shortage":0,"booking":15,"acc_booking":8990,"fulfillment":15,"acc_fulfillment":8990,"transfer_cost":0.0,"port_name":"Los Angeles","position":{"lat":34.052235,"lng":-118.243683},"status":"surplus"},{"frame_index":219,"name":"ports_5","capacity":10000,"empty":1261,"full":149,"on_shipper":21,"on_consignee":0,"shortage":0,"acc_shortage":0,"booking":15,"acc_booking":9022,"fulfillment":15,"acc_fulfillment":9022,"transfer_cost":0.0,"port_name":"Manzanillo","position":{"lat":19.11695,"lng":-104.34214},"status":"surplus"},{"frame_index":219,"name":"ports_6","capacity":10000,"empty":276,"full":228,"on_shipper":5,"on_consignee":0,"shortage":0,"acc_shortage":0,"booking":5,"acc_booking":2764,"fulfillment":5,"acc_fulfillment":2764,"transfer_cost":0.0,"port_name":"Melbourne","position":{"lat":-37.840935,"lng":144.946457},"status":"surplus"},{"frame_index":219,"name":"ports_7","capacity":10000,"empty":2304,"full":122,"on_shipper":9,"on_consignee":0,"shortage":0,"acc_shortage":0,"booking":5,"acc_booking":2765,"fulfillment":5,"acc_fulfillment":2765,"transfer_cost":0.0,"port_name":"Montreal","position":{"lat":45.516136,"lng":-73.65683},"status":"surplus"},{"frame_index":219,"name":"ports_8","capacity":10000,"empty":2898,"full":1541,"on_shipper":10,"on_consignee":0,"shortage":0,"acc_shortage":0,"booking":10,"acc_booking":5411,"fulfillment":10,"acc_fulfillment":5411,"transfer_cost":0.0,"port_name":"New York","position":{"lat":40.73061,"lng":-73.935242},"status":"surplus"},{"frame_index":219,"name":"ports_9","capacity":10000,"empty":1808,"full":128,"on_shipper":15,"on_consignee":0,"shortage":0,"acc_shortage":0,"booking":9,"acc_booking":5393,"fulfillment":9,"acc_fulfillment":5393,"transfer_cost":0.0,"port_name":"Oakland","position":{"lat":37.804363,"lng":-122.271111},"status":"surplus"},{"frame_index":219,"name":"ports_10","capacity":10000,"empty":439,"full":646,"on_shipper":8,"on_consignee":0,"shortage":0,"acc_shortage":0,"booking":5,"acc_booking":2745,"fulfillment":5,"acc_fulfillment":2745,"transfer_cost":0.0,"port_name":"Prince Rupert","position":{"lat":54.312519,"lng":-130.305405},"status":"surplus"},{"frame_index":219,"name":"ports_11","capacity":10000,"empty":1661,"full":962,"on_shipper":23,"on_consignee":0,"shortage":0,"acc_shortage":0,"booking":18,"acc_booking":10729,"fulfillment":18,"acc_fulfillment":10729,"transfer_cost":0.0,"port_name":"Pusan","position":{"lat":35.166668,"lng":129.066666},"status":"surplus"},{"frame_index":219,"name":"ports_12","capacity":10000,"empty":2048,"full":1618,"on_shipper":38,"on_consignee":201,"shortage":0,"acc_shortage":0,"booking":22,"acc_booking":14309,"fulfillment":22,"acc_fulfillment":14309,"transfer_cost":0.0,"port_name":"Qingdao","position":{"lat":36.066898,"lng":120.382698},"status":"surplus"},{"frame_index":219,"name":"ports_13","capacity":10000,"empty":597,"full":54,"on_shipper":6,"on_consignee":0,"shortage":0,"acc_shortage":55,"booking":3,"acc_booking":1883,"fulfillment":3,"acc_fulfillment":1828,"transfer_cost":0.0,"port_name":"San Antonio","position":{"lat":29.424349,"lng":-98.491142},"status":"surplus"},{"frame_index":219,"name":"ports_14","capacity":10000,"empty":696,"full":28,"on_shipper":4,"on_consignee":0,"shortage":0,"acc_shortage":697,"booking":4,"acc_booking":1905,"fulfillment":4,"acc_fulfillment":1208,"transfer_cost":0.0,"port_name":"Santos","position":{"lat":-23.96083,"lng":-46.33361},"status":"surplus"},{"frame_index":219,"name":"ports_15","capacity":10000,"empty":1976,"full":870,"on_shipper":23,"on_consignee":0,"shortage":0,"acc_shortage":0,"booking":20,"acc_booking":12518,"fulfillment":20,"acc_fulfillment":12518,"transfer_cost":0.0,"port_name":"Seattle","position":{"lat":47.608013,"lng":-122.335167},"status":"surplus"},{"frame_index":219,"name":"ports_16","capacity":10000,"empty":703,"full":2069,"on_shipper":49,"on_consignee":91,"shortage":0,"acc_shortage":0,"booking":29,"acc_booking":17822,"fulfillment":29,"acc_fulfillment":17822,"transfer_cost":0.0,"port_name":"Shanghai","position":{"lat":31.224361,"lng":121.46917},"status":"surplus"},{"frame_index":219,"name":"ports_17","capacity":10000,"empty":502,"full":260,"on_shipper":18,"on_consignee":603,"shortage":0,"acc_shortage":40,"booking":12,"acc_booking":7217,"fulfillment":12,"acc_fulfillment":7177,"transfer_cost":12.0,"port_name":"Singapore","position":{"lat":1.29027,"lng":103.851959},"status":"surplus"},{"frame_index":219,"name":"ports_18","capacity":10000,"empty":31,"full":239,"on_shipper":10,"on_consignee":0,"shortage":0,"acc_shortage":0,"booking":4,"acc_booking":2737,"fulfillment":4,"acc_fulfillment":2737,"transfer_cost":0.0,"port_name":"Sydney","position":{"lat":-33.865143,"lng":151.2099},"status":"balance"},{"frame_index":219,"name":"ports_19","capacity":10000,"empty":843,"full":181,"on_shipper":10,"on_consignee":0,"shortage":0,"acc_shortage":0,"booking":6,"acc_booking":3668,"fulfillment":6,"acc_fulfillment":3668,"transfer_cost":0.0,"port_name":"Vancouver","position":{"lat":49.246292,"lng":-123.116226},"status":"surplus"},{"frame_index":219,"name":"ports_20","capacity":10000,"empty":1536,"full":832,"on_shipper":32,"on_consignee":40,"shortage":0,"acc_shortage":0,"booking":22,"acc_booking":12341,"fulfillment":22,"acc_fulfillment":12341,"transfer_cost":0.0,"port_name":"Yantian","position":{"lat":26.8533,"lng":119.8575},"status":"surplus"},{"frame_index":219,"name":"ports_21","capacity":10000,"empty":641,"full":94,"on_shipper":16,"on_consignee":0,"shortage":0,"acc_shortage":492,"booking":12,"acc_booking":11884,"fulfillment":12,"acc_fulfillment":11392,"transfer_cost":0.0,"port_name":"Yokohama","position":{"lat":35.443707,"lng":139.638031},"status":"surplus"}]