[{"frame_index":632,"name":"ports_0","capacity":10000,"empty":2508,"full":4348,"on_shipper":423,"on_consignee":0,"shortage":0,"acc_shortage":522,"booking":230,"acc_booking":81988,"fulfillment":230,"acc_fulfillment":81466,"transfer_cost":0.0,"port_name":"Bremerhaven","position":{"lat":53.549999,"lng":8.583333},"status":"surplus"},{"frame_index":632,"name":"ports_1","capacity":10000,"empty":137,"full":438,"on_shipper":28,"on_consignee":0,"shortage":0,"acc_shortage":0,"booking":16,"acc_booking":5448,"fulfillment":16,"acc_fulfillment":5448,"transfer_cost":0.0,"port_name":"Durban","position":{"lat":-29.8579,"lng":31.0292},"status":"surplus"},{"frame_index":632,"name":"ports_2","capacity":10000,"empty":102,"full":117,"on_shipper":21,"on_consignee":0,"shortage":0,"acc_shortage":233,"booking":16,"acc_booking":5426,"fulfillment":16,"acc_fulfillment":5193,"transfer_cost":0.0,"port_name":"Itagual","position":{"lat":-22.85222,"lng":-43.77528},"status":"balance"},{"frame_index":632,"name":"ports_3","capacity":10000,"empty":370,"full":803,"on_shipper":116,"on_consignee":533,"shortage":0,"acc_shortage":0,"booking":91,"acc_booking":31023,"fulfillment":91,"acc_fulfillment":31023,"transfer_cost":5.0,"port_name":"LeHavre","position":{"lat":49.490002,"lng":0.1},"status":"demand"},{"frame_index":632,"name":"ports_4","capacity":10000,"empty":67,"full":1746,"on_shipper":110,"on_consignee":0,"shortage":0,"acc_shortage":0,"booking":77,"acc_booking":25962,"fulfillment":77,"acc_fulfillment":25962,"transfer_cost":0.0,"port_name":"Los Angeles","position":{"lat":34.052235,"lng":-118.243683},"status":"demand"},{"frame_index":632,"name":"ports_5","capacity":10000,"empty":1408,"full":1180,"on_shipper":107,"on_consignee":0,"shortage":0,"acc_shortage":123,"booking":82,"acc_booking":26039,"fulfillment":82,"acc_fulfillment":25916,"transfer_cost":0.0,"port_name":"Manzanillo","position":{"lat":19.11695,"lng":-104.34214},"status":"surplus"},{"frame_index":632,"name":"ports_6","capacity":10000,"empty":466,"full":122,"on_shipper":40,"on_consignee":0,"shortage":0,"acc_shortage":1336,"booking":24,"acc_booking":7989,"fulfillment":24,"acc_fulfillment":6653,"transfer_cost":0.0,"port_name":"Melbourne","position":{"lat":-37.840935,"lng":144.946457},"status":"surplus"},{"frame_index":632,"name":"ports_7","capacity":10000,"empty":1029,"full":458,"on_shipper":24,"on_consignee":0,"shortage":0,"acc_shortage":0,"booking":24,"acc_booking":7995,"fulfillment":24,"acc_fulfillment":7995,"transfer_cost":0.0,"port_name":"Montreal","position":{"lat":45.516136,"lng":-73.65683},"status":"surplus"},{"frame_index":632,"name":"ports_8","capacity":10000,"empty":1645,"full":1228,"on_shipper":49,"on_consignee":0,"shortage":0,"acc_shortage":0,"booking":49,"acc_booking":15631,"fulfillment":49,"acc_fulfillment":15631,"transfer_cost":0.0,"port_name":"New York","position":{"lat":40.73061,"lng":-73.935242},"status":"surplus"},{"frame_index":632,"name":"ports_9","capacity":10000,"empty":1454,"full":132,"on_shipper":67,"on_consignee":0,"shortage":0,"acc_shortage":45,"booking":41,"acc_booking":15688,"fulfillment":41,"acc_fulfillment":15643,"transfer_cost":0.0,"port_name":"Oakland","position":{"lat":37.804363,"lng":-122.271111},"status":"surplus"},{"frame_index":632,"name":"ports_10","capacity":10000,"empty":1324,"full":450,"on_shipper":31,"on_consignee":0,"shortage":0,"acc_shortage":314,"booking":25,"acc_booking":8017,"fulfillment":25,"acc_fulfillment":7703,"transfer_cost":0.0,"port_name":"Prince Rupert","position":{"lat":54.312519,"lng":-130.305405},"status":"surplus"},{"frame_index":632,"name":"ports_11","capacity":10000,"empty":3049,"full":925,"on_shipper":132,"on_consignee":183,"shortage":0,"acc_shortage":204,"booking":92,"acc_booking":30981,"fulfillment":92,"acc_fulfillment":30777,"transfer_cost":0.0,"port_name":"Pusan","position":{"lat":35.166668,"lng":129.066666},"status":"surplus"},{"frame_index":632,"name":"ports_12","capacity":10000,"empty":1801,"full":1878,"on_shipper":169,"on_consignee":104,"shortage":0,"acc_shortage":0,"booking":132,"acc_booking":41390,"fulfillment":132,"acc_fulfillment":41390,"transfer_cost":0.0,"port_name":"Qingdao","position":{"lat":36.066898,"lng":120.382698},"status":"surplus"},{"frame_index":632,"name":"ports_13","capacity":10000,"empty":412,"full":100,"on_shipper":21,"on_consignee":0,"shortage":0,"acc_shortage":325,"booking":15,"acc_booking":5425,"fulfillment":15,"acc_fulfillment":5100,"transfer_cost":0.0,"port_name":"San Antonio","position":{"lat":29.424349,"lng":-98.491142},"status":"surplus"},{"frame_index":632,"name":"ports_14","capacity":10000,"empty":959,"full":449,"on_shipper":22,"on_consignee":0,"shortage":0,"acc_shortage":762,"booking":14,"acc_booking":5467,"fulfillment":14,"acc_fulfillment":4705,"transfer_cost":0.0,"port_name":"Santos","position":{"lat":-23.96083,"lng":-46.33361},"status":"surplus"},{"frame_index":632,"name":"ports_15","capacity":10000,"empty":1205,"full":3254,"on_shipper":159,"on_consignee":0,"shortage":0,"acc_shortage":0,"booking":109,"acc_booking":36145,"fulfillment":109,"acc_fulfillment":36145,"transfer_cost":0.0,"port_name":"Seattle","position":{"lat":47.608013,"lng":-122.335167},"status":"surplus"},{"frame_index":632,"name":"ports_16","capacity":10000,"empty":260,"full":1168,"on_shipper":32,"on_consignee":442,"shortage":139,"acc_shortage":712,"booking":143,"acc_booking":51471,"fulfillment":4,"acc_fulfillment":50759,"transfer_cost":260.0,"port_name":"Shanghai","position":{"lat":31.224361,"lng":121.46917},"status":"demand"},{"frame_index":632,"name":"ports_17","capacity":10000,"empty":243,"full":591,"on_shipper":67,"on_consignee":206,"shortage":0,"acc_shortage":283,"booking":63,"acc_booking":20837,"fulfillment":63,"acc_fulfillment":20554,"transfer_cost":237.0,"port_name":"Singapore","position":{"lat":1.29027,"lng":103.851959},"status":"demand"},{"frame_index":632,"name":"ports_18","capacity":10000,"empty":170,"full":392,"on_shipper":37,"on_consignee":0,"shortage":0,"acc_shortage":957,"booking":21,"acc_booking":7959,"fulfillment":21,"acc_fulfillment":7002,"transfer_cost":0.0,"port_name":"Sydney","position":{"lat":-33.865143,"lng":151.2099},"status":"surplus"},{"frame_index":632,"name":"ports_19","capacity":10000,"empty":781,"full":582,"on_shipper":37,"on_consignee":0,"shortage":0,"acc_shortage":0,"booking":31,"acc_booking":10614,"fulfillment":31,"acc_fulfillment":10614,"transfer_cost":0.0,"port_name":"Vancouver","position":{"lat":49.246292,"lng":-123.116226},"status":"surplus"},{"frame_index":632,"name":"ports_20","capacity":10000,"empty":675,"full":837,"on_shipper":167,"on_consignee":1,"shortage":0,"acc_shortage":395,"booking":111,"acc_booking":35869,"fulfillment":111,"acc_fulfillment":35474,"transfer_cost":0.0,"port_name":"Yantian","position":{"lat":26.8533,"lng":119.8575},"status":"surplus"},{"frame_index":632,"name":"ports_21","capacity":10000,"empty":552,"full":1892,"on_shipper":160,"on_consignee":0,"shortage":0,"acc_shortage":3563,"booking":112,"acc_booking":34351,"fulfillment":112,"acc_fulfillment":30788,"transfer_cost":0.0,"port_name":"Yokohama","position":{"lat":35.443707,"lng":139.638031},"status":"balance"}]