[{"frame_index":310,"name":"ports_0","capacity":10000,"empty":2021,"full":2937,"on_shipper":236,"on_consignee":0,"shortage":0,"acc_shortage":522,"booking":148,"acc_booking":40804,"fulfillment":148,"acc_fulfillment":40282,"transfer_cost":0.0,"port_name":"Bremerhaven","position":{"lat":53.549999,"lng":8.583333},"status":"surplus"},{"frame_index":310,"name":"ports_1","capacity":10000,"empty":540,"full":122,"on_shipper":14,"on_consignee":0,"shortage":0,"acc_shortage":0,"booking":9,"acc_booking":2712,"fulfillment":9,"acc_fulfillment":2712,"transfer_cost":0.0,"port_name":"Durban","position":{"lat":-29.8579,"lng":31.0292},"status":"surplus"},{"frame_index":310,"name":"ports_2","capacity":10000,"empty":543,"full":415,"on_shipper":13,"on_consignee":0,"shortage":0,"acc_shortage":233,"booking":8,"acc_booking":2691,"fulfillment":8,"acc_fulfillment":2458,"transfer_cost":0.0,"port_name":"Itagual","position":{"lat":-22.85222,"lng":-43.77528},"status":"surplus"},{"frame_index":310,"name":"ports_3","capacity":10000,"empty":1642,"full":968,"on_shipper":76,"on_consignee":0,"shortage":0,"acc_shortage":0,"booking":50,"acc_booking":15450,"fulfillment":50,"acc_fulfillment":15450,"transfer_cost":0.0,"port_name":"LeHavre","position":{"lat":49.490002,"lng":0.1},"status":"surplus"},{"frame_index":310,"name":"ports_4","capacity":10000,"empty":575,"full":1431,"on_shipper":101,"on_consignee":0,"shortage":0,"acc_shortage":0,"booking":42,"acc_booking":12906,"fulfillment":42,"acc_fulfillment":12906,"transfer_cost":0.0,"port_name":"Los Angeles","position":{"lat":34.052235,"lng":-118.243683},"status":"surplus"},{"frame_index":310,"name":"ports_5","capacity":10000,"empty":1059,"full":40,"on_shipper":63,"on_consignee":16,"shortage":0,"acc_shortage":123,"booking":41,"acc_booking":12937,"fulfillment":41,"acc_fulfillment":12814,"transfer_cost":0.0,"port_name":"Manzanillo","position":{"lat":19.11695,"lng":-104.34214},"status":"surplus"},{"frame_index":310,"name":"ports_6","capacity":10000,"empty":0,"full":287,"on_shipper":0,"on_consignee":0,"shortage":13,"acc_shortage":237,"booking":13,"acc_booking":3964,"fulfillment":0,"acc_fulfillment":3727,"transfer_cost":0.0,"port_name":"Melbourne","position":{"lat":-37.840935,"lng":144.946457},"status":"demand"},{"frame_index":310,"name":"ports_7","capacity":10000,"empty":1707,"full":177,"on_shipper":31,"on_consignee":0,"shortage":0,"acc_shortage":0,"booking":13,"acc_booking":3971,"fulfillment":13,"acc_fulfillment":3971,"transfer_cost":0.0,"port_name":"Montreal","position":{"lat":45.516136,"lng":-73.65683},"status":"surplus"},{"frame_index":310,"name":"ports_8","capacity":10000,"empty":678,"full":565,"on_shipper":58,"on_consignee":0,"shortage":0,"acc_shortage":0,"booking":25,"acc_booking":7760,"fulfillment":25,"acc_fulfillment":7760,"transfer_cost":0.0,"port_name":"New York","position":{"lat":40.73061,"lng":-73.935242},"status":"surplus"},{"frame_index":310,"name":"ports_9","capacity":10000,"empty":1221,"full":484,"on_shipper":40,"on_consignee":0,"shortage":0,"acc_shortage":0,"booking":22,"acc_booking":7725,"fulfillment":22,"acc_fulfillment":7725,"transfer_cost":0.0,"port_name":"Oakland","position":{"lat":37.804363,"lng":-122.271111},"status":"surplus"},{"frame_index":310,"name":"ports_10","capacity":10000,"empty":632,"full":977,"on_shipper":20,"on_consignee":0,"shortage":0,"acc_shortage":0,"booking":15,"acc_booking":3957,"fulfillment":15,"acc_fulfillment":3957,"transfer_cost":0.0,"port_name":"Prince Rupert","position":{"lat":54.312519,"lng":-130.305405},"status":"surplus"},{"frame_index":310,"name":"ports_11","capacity":10000,"empty":1188,"full":931,"on_shipper":83,"on_consignee":0,"shortage":0,"acc_shortage":0,"booking":47,"acc_booking":15396,"fulfillment":47,"acc_fulfillment":15396,"transfer_cost":0.0,"port_name":"Pusan","position":{"lat":35.166668,"lng":129.066666},"status":"surplus"},{"frame_index":310,"name":"ports_12","capacity":10000,"empty":2400,"full":920,"on_shipper":108,"on_consignee":0,"shortage":0,"acc_shortage":0,"booking":70,"acc_booking":20583,"fulfillment":70,"acc_fulfillment":20583,"transfer_cost":0.0,"port_name":"Qingdao","position":{"lat":36.066898,"lng":120.382698},"status":"surplus"},{"frame_index":310,"name":"ports_13","capacity":10000,"empty":498,"full":0,"on_shipper":8,"on_consignee":273,"shortage":0,"acc_shortage":123,"booking":8,"acc_booking":2689,"fulfillment":8,"acc_fulfillment":2566,"transfer_cost":0.0,"port_name":"San Antonio","position":{"lat":29.424349,"lng":-98.491142},"status":"surplus"},{"frame_index":310,"name":"ports_14","capacity":10000,"empty":636,"full":643,"on_shipper":10,"on_consignee":0,"shortage":0,"acc_shortage":697,"booking":10,"acc_booking":2740,"fulfillment":10,"acc_fulfillment":2043,"transfer_cost":0.0,"port_name":"Santos","position":{"lat":-23.96083,"lng":-46.33361},"status":"surplus"},{"frame_index":310,"name":"ports_15","capacity":10000,"empty":2491,"full":1725,"on_shipper":82,"on_consignee":0,"shortage":0,"acc_shortage":0,"booking":56,"acc_booking":17954,"fulfillment":56,"acc_fulfillment":17954,"transfer_cost":0.0,"port_name":"Seattle","position":{"lat":47.608013,"lng":-122.335167},"status":"surplus"},{"frame_index":310,"name":"ports_16","capacity":10000,"empty":852,"full":2695,"on_shipper":142,"on_consignee":0,"shortage":0,"acc_shortage":0,"booking":78,"acc_booking":25628,"fulfillment":78,"acc_fulfillment":25628,"transfer_cost":0.0,"port_name":"Shanghai","position":{"lat":31.224361,"lng":121.46917},"status":"surplus"},{"frame_index":310,"name":"ports_17","capacity":10000,"empty":2566,"full":761,"on_shipper":52,"on_consignee":92,"shortage":0,"acc_shortage":40,"booking":32,"acc_booking":10349,"fulfillment":32,"acc_fulfillment":10309,"transfer_cost":0.0,"port_name":"Singapore","position":{"lat":1.29027,"lng":103.851959},"status":"surplus"},{"frame_index":310,"name":"ports_18","capacity":10000,"empty":156,"full":77,"on_shipper":27,"on_consignee":0,"shortage":0,"acc_shortage":377,"booking":14,"acc_booking":3942,"fulfillment":14,"acc_fulfillment":3565,"transfer_cost":0.0,"port_name":"Sydney","position":{"lat":-33.865143,"lng":151.2099},"status":"surplus"},{"frame_index":310,"name":"ports_19","capacity":10000,"empty":379,"full":531,"on_shipper":38,"on_consignee":0,"shortage":0,"acc_shortage":0,"booking":17,"acc_booking":5272,"fulfillment":17,"acc_fulfillment":5272,"transfer_cost":0.0,"port_name":"Vancouver","position":{"lat":49.246292,"lng":-123.116226},"status":"surplus"},{"frame_index":310,"name":"ports_20","capacity":10000,"empty":688,"full":752,"on_shipper":87,"on_consignee":0,"shortage":0,"acc_shortage":0,"booking":51,"acc_booking":17740,"fulfillment":51,"acc_fulfillment":17740,"transfer_cost":0.0,"port_name":"Yantian","position":{"lat":26.8533,"lng":119.8575},"status":"surplus"},{"frame_index":310,"name":"ports_21","capacity":10000,"empty":864,"full":1156,"on_shipper":54,"on_consignee":103,"shortage":0,"acc_shortage":1887,"booking":54,"acc_booking":17093,"fulfillment":54,"acc_fulfillment":15206,"transfer_cost":0.0,"port_name":"Yokohama","position":{"lat":35.443707,"lng":139.638031},"status":"surplus"}]