[{"frame_index":648,"name":"ports_0","capacity":10000,"empty":1024,"full":5947,"on_shipper":139,"on_consignee":0,"shortage":0,"acc_shortage":522,"booking":130,"acc_booking":84239,"fulfillment":130,"acc_fulfillment":83717,"transfer_cost":0.0,"port_name":"Bremerhaven","position":{"lat":53.549999,"lng":8.583333},"status":"surplus"},{"frame_index":648,"name":"ports_1","capacity":10000,"empty":198,"full":40,"on_shipper":8,"on_consignee":0,"shortage":0,"acc_shortage":0,"booking":8,"acc_booking":5595,"fulfillment":8,"acc_fulfillment":5595,"transfer_cost":0.0,"port_name":"Durban","position":{"lat":-29.8579,"lng":31.0292},"status":"surplus"},{"frame_index":648,"name":"ports_2","capacity":10000,"empty":0,"full":240,"on_shipper":0,"on_consignee":0,"shortage":8,"acc_shortage":280,"booking":8,"acc_booking":5575,"fulfillment":0,"acc_fulfillment":5295,"transfer_cost":0.0,"port_name":"Itagual","position":{"lat":-22.85222,"lng":-43.77528},"status":"balance"},{"frame_index":648,"name":"ports_3","capacity":10000,"empty":1636,"full":1115,"on_shipper":80,"on_consignee":0,"shortage":0,"acc_shortage":0,"booking":46,"acc_booking":31878,"fulfillment":46,"acc_fulfillment":31878,"transfer_cost":0.0,"port_name":"LeHavre","position":{"lat":49.490002,"lng":0.1},"status":"surplus"},{"frame_index":648,"name":"ports_4","capacity":10000,"empty":1029,"full":404,"on_shipper":47,"on_consignee":0,"shortage":0,"acc_shortage":150,"booking":38,"acc_booking":26676,"fulfillment":38,"acc_fulfillment":26526,"transfer_cost":0.0,"port_name":"Los Angeles","position":{"lat":34.052235,"lng":-118.243683},"status":"surplus"},{"frame_index":648,"name":"ports_5","capacity":10000,"empty":1738,"full":82,"on_shipper":88,"on_consignee":0,"shortage":0,"acc_shortage":123,"booking":37,"acc_booking":26768,"fulfillment":37,"acc_fulfillment":26645,"transfer_cost":0.0,"port_name":"Manzanillo","position":{"lat":19.11695,"lng":-104.34214},"status":"surplus"},{"frame_index":648,"name":"ports_6","capacity":10000,"empty":247,"full":354,"on_shipper":27,"on_consignee":0,"shortage":0,"acc_shortage":1336,"booking":12,"acc_booking":8208,"fulfillment":12,"acc_fulfillment":6872,"transfer_cost":0.0,"port_name":"Melbourne","position":{"lat":-37.840935,"lng":144.946457},"status":"surplus"},{"frame_index":648,"name":"ports_7","capacity":10000,"empty":810,"full":681,"on_shipper":20,"on_consignee":0,"shortage":0,"acc_shortage":0,"booking":12,"acc_booking":8214,"fulfillment":12,"acc_fulfillment":8214,"transfer_cost":0.0,"port_name":"Montreal","position":{"lat":45.516136,"lng":-73.65683},"status":"surplus"},{"frame_index":648,"name":"ports_8","capacity":10000,"empty":1217,"full":1654,"on_shipper":51,"on_consignee":0,"shortage":0,"acc_shortage":0,"booking":22,"acc_booking":16059,"fulfillment":22,"acc_fulfillment":16059,"transfer_cost":0.0,"port_name":"New York","position":{"lat":40.73061,"lng":-73.935242},"status":"surplus"},{"frame_index":648,"name":"ports_9","capacity":10000,"empty":1020,"full":596,"on_shipper":37,"on_consignee":0,"shortage":0,"acc_shortage":45,"booking":23,"acc_booking":16122,"fulfillment":23,"acc_fulfillment":16077,"transfer_cost":0.0,"port_name":"Oakland","position":{"lat":37.804363,"lng":-122.271111},"status":"surplus"},{"frame_index":648,"name":"ports_10","capacity":10000,"empty":807,"full":16,"on_shipper":16,"on_consignee":265,"shortage":0,"acc_shortage":314,"booking":11,"acc_booking":8232,"fulfillment":11,"acc_fulfillment":7918,"transfer_cost":0.0,"port_name":"Prince Rupert","position":{"lat":54.312519,"lng":-130.305405},"status":"surplus"},{"frame_index":648,"name":"ports_11","capacity":10000,"empty":2782,"full":1092,"on_shipper":57,"on_consignee":0,"shortage":0,"acc_shortage":204,"booking":45,"acc_booking":31838,"fulfillment":45,"acc_fulfillment":31634,"transfer_cost":0.0,"port_name":"Pusan","position":{"lat":35.166668,"lng":129.066666},"status":"surplus"},{"frame_index":648,"name":"ports_12","capacity":10000,"empty":1488,"full":1974,"on_shipper":89,"on_consignee":138,"shortage":0,"acc_shortage":0,"booking":55,"acc_booking":42512,"fulfillment":55,"acc_fulfillment":42512,"transfer_cost":78.0,"port_name":"Qingdao","position":{"lat":36.066898,"lng":120.382698},"status":"surplus"},{"frame_index":648,"name":"ports_13","capacity":10000,"empty":678,"full":41,"on_shipper":13,"on_consignee":0,"shortage":0,"acc_shortage":325,"booking":8,"acc_booking":5574,"fulfillment":8,"acc_fulfillment":5249,"transfer_cost":0.0,"port_name":"San Antonio","position":{"lat":29.424349,"lng":-98.491142},"status":"surplus"},{"frame_index":648,"name":"ports_14","capacity":10000,"empty":646,"full":113,"on_shipper":12,"on_consignee":0,"shortage":0,"acc_shortage":762,"booking":9,"acc_booking":5623,"fulfillment":9,"acc_fulfillment":4861,"transfer_cost":0.0,"port_name":"Santos","position":{"lat":-23.96083,"lng":-46.33361},"status":"surplus"},{"frame_index":648,"name":"ports_15","capacity":10000,"empty":1734,"full":2116,"on_shipper":106,"on_consignee":0,"shortage":0,"acc_shortage":0,"booking":55,"acc_booking":37146,"fulfillment":55,"acc_fulfillment":37146,"transfer_cost":0.0,"port_name":"Seattle","position":{"lat":47.608013,"lng":-122.335167},"status":"surplus"},{"frame_index":648,"name":"ports_16","capacity":10000,"empty":1063,"full":931,"on_shipper":112,"on_consignee":0,"shortage":0,"acc_shortage":712,"booking":75,"acc_booking":52907,"fulfillment":75,"acc_fulfillment":52195,"transfer_cost":0.0,"port_name":"Shanghai","position":{"lat":31.224361,"lng":121.46917},"status":"surplus"},{"frame_index":648,"name":"ports_17","capacity":10000,"empty":717,"full":758,"on_shipper":39,"on_consignee":0,"shortage":0,"acc_shortage":283,"booking":30,"acc_booking":21411,"fulfillment":30,"acc_fulfillment":21128,"transfer_cost":0.0,"port_name":"Singapore","position":{"lat":1.29027,"lng":103.851959},"status":"surplus"},{"frame_index":648,"name":"ports_18","capacity":10000,"empty":32,"full":211,"on_shipper":22,"on_consignee":0,"shortage":0,"acc_shortage":957,"booking":12,"acc_booking":8177,"fulfillment":12,"acc_fulfillment":7220,"transfer_cost":0.0,"port_name":"Sydney","position":{"lat":-33.865143,"lng":151.2099},"status":"balance"},{"frame_index":648,"name":"ports_19","capacity":10000,"empty":722,"full":589,"on_shipper":23,"on_consignee":0,"shortage":0,"acc_shortage":0,"booking":16,"acc_booking":10901,"fulfillment":16,"acc_fulfillment":10901,"transfer_cost":0.0,"port_name":"Vancouver","position":{"lat":49.246292,"lng":-123.116226},"status":"surplus"},{"frame_index":648,"name":"ports_20","capacity":10000,"empty":1072,"full":527,"on_shipper":110,"on_consignee":0,"shortage":0,"acc_shortage":395,"booking":55,"acc_booking":36899,"fulfillment":55,"acc_fulfillment":36504,"transfer_cost":0.0,"port_name":"Yantian","position":{"lat":26.8533,"lng":119.8575},"status":"surplus"},{"frame_index":648,"name":"ports_21","capacity":10000,"empty":0,"full":2389,"on_shipper":43,"on_consignee":0,"shortage":48,"acc_shortage":3611,"booking":54,"acc_booking":35324,"fulfillment":6,"acc_fulfillment":31713,"transfer_cost":0.0,"port_name":"Yokohama","position":{"lat":35.443707,"lng":139.638031},"status":"demand"}]