[{"frame_index":937,"name":"ports_0","capacity":10000,"empty":4477,"full":1717,"on_shipper":314,"on_consignee":0,"shortage":0,"acc_shortage":522,"booking":256,"acc_booking":119291,"fulfillment":256,"acc_fulfillment":118769,"transfer_cost":0.0,"port_name":"Bremerhaven","position":{"lat":53.549999,"lng":8.583333},"status":"surplus"},{"frame_index":937,"name":"ports_1","capacity":10000,"empty":483,"full":109,"on_shipper":28,"on_consignee":0,"shortage":0,"acc_shortage":113,"booking":16,"acc_booking":7936,"fulfillment":16,"acc_fulfillment":7823,"transfer_cost":0.0,"port_name":"Durban","position":{"lat":-29.8579,"lng":31.0292},"status":"surplus"},{"frame_index":937,"name":"ports_2","capacity":10000,"empty":733,"full":80,"on_shipper":24,"on_consignee":0,"shortage":0,"acc_shortage":298,"booking":15,"acc_booking":7895,"fulfillment":15,"acc_fulfillment":7597,"transfer_cost":0.0,"port_name":"Itagual","position":{"lat":-22.85222,"lng":-43.77528},"status":"surplus"},{"frame_index":937,"name":"ports_3","capacity":10000,"empty":1314,"full":2158,"on_shipper":158,"on_consignee":0,"shortage":0,"acc_shortage":0,"booking":83,"acc_booking":45143,"fulfillment":83,"acc_fulfillment":45143,"transfer_cost":0.0,"port_name":"LeHavre","position":{"lat":49.490002,"lng":0.1},"status":"surplus"},{"frame_index":937,"name":"ports_4","capacity":10000,"empty":2887,"full":579,"on_shipper":145,"on_consignee":0,"shortage":0,"acc_shortage":290,"booking":72,"acc_booking":37816,"fulfillment":72,"acc_fulfillment":37526,"transfer_cost":0.0,"port_name":"Los Angeles","position":{"lat":34.052235,"lng":-118.243683},"status":"surplus"},{"frame_index":937,"name":"ports_5","capacity":10000,"empty":723,"full":37,"on_shipper":128,"on_consignee":728,"shortage":0,"acc_shortage":163,"booking":80,"acc_booking":37881,"fulfillment":80,"acc_fulfillment":37718,"transfer_cost":0.0,"port_name":"Manzanillo","position":{"lat":19.11695,"lng":-104.34214},"status":"surplus"},{"frame_index":937,"name":"ports_6","capacity":10000,"empty":418,"full":192,"on_shipper":30,"on_consignee":0,"shortage":0,"acc_shortage":1855,"booking":22,"acc_booking":11640,"fulfillment":22,"acc_fulfillment":9785,"transfer_cost":0.0,"port_name":"Melbourne","position":{"lat":-37.840935,"lng":144.946457},"status":"surplus"},{"frame_index":937,"name":"ports_7","capacity":10000,"empty":1225,"full":344,"on_shipper":31,"on_consignee":0,"shortage":0,"acc_shortage":0,"booking":22,"acc_booking":11651,"fulfillment":22,"acc_fulfillment":11651,"transfer_cost":0.0,"port_name":"Montreal","position":{"lat":45.516136,"lng":-73.65683},"status":"surplus"},{"frame_index":937,"name":"ports_8","capacity":10000,"empty":2392,"full":595,"on_shipper":86,"on_consignee":0,"shortage":0,"acc_shortage":136,"booking":41,"acc_booking":22759,"fulfillment":41,"acc_fulfillment":22623,"transfer_cost":0.0,"port_name":"New York","position":{"lat":40.73061,"lng":-73.935242},"status":"surplus"},{"frame_index":937,"name":"ports_9","capacity":10000,"empty":1699,"full":91,"on_shipper":85,"on_consignee":0,"shortage":0,"acc_shortage":45,"booking":47,"acc_booking":22780,"fulfillment":47,"acc_fulfillment":22735,"transfer_cost":0.0,"port_name":"Oakland","position":{"lat":37.804363,"lng":-122.271111},"status":"surplus"},{"frame_index":937,"name":"ports_10","capacity":10000,"empty":1710,"full":96,"on_shipper":33,"on_consignee":0,"shortage":0,"acc_shortage":314,"booking":19,"acc_booking":11675,"fulfillment":19,"acc_fulfillment":11361,"transfer_cost":0.0,"port_name":"Prince Rupert","position":{"lat":54.312519,"lng":-130.305405},"status":"surplus"},{"frame_index":937,"name":"ports_11","capacity":10000,"empty":3077,"full":340,"on_shipper":148,"on_consignee":49,"shortage":0,"acc_shortage":204,"booking":88,"acc_booking":45096,"fulfillment":88,"acc_fulfillment":44892,"transfer_cost":0.0,"port_name":"Pusan","position":{"lat":35.166668,"lng":129.066666},"status":"surplus"},{"frame_index":937,"name":"ports_12","capacity":10000,"empty":5108,"full":963,"on_shipper":163,"on_consignee":0,"shortage":0,"acc_shortage":0,"booking":110,"acc_booking":60248,"fulfillment":110,"acc_fulfillment":60248,"transfer_cost":0.0,"port_name":"Qingdao","position":{"lat":36.066898,"lng":120.382698},"status":"surplus"},{"frame_index":937,"name":"ports_13","capacity":10000,"empty":370,"full":22,"on_shipper":21,"on_consignee":0,"shortage":0,"acc_shortage":449,"booking":15,"acc_booking":7902,"fulfillment":15,"acc_fulfillment":7453,"transfer_cost":0.0,"port_name":"San Antonio","position":{"lat":29.424349,"lng":-98.491142},"status":"surplus"},{"frame_index":937,"name":"ports_14","capacity":10000,"empty":53,"full":257,"on_shipper":26,"on_consignee":0,"shortage":0,"acc_shortage":819,"booking":17,"acc_booking":7958,"fulfillment":17,"acc_fulfillment":7139,"transfer_cost":0.0,"port_name":"Santos","position":{"lat":-23.96083,"lng":-46.33361},"status":"balance"},{"frame_index":937,"name":"ports_15","capacity":10000,"empty":550,"full":1673,"on_shipper":153,"on_consignee":0,"shortage":0,"acc_shortage":0,"booking":98,"acc_booking":52652,"fulfillment":98,"acc_fulfillment":52652,"transfer_cost":0.0,"port_name":"Seattle","position":{"lat":47.608013,"lng":-122.335167},"status":"surplus"},{"frame_index":937,"name":"ports_16","capacity":10000,"empty":1524,"full":2564,"on_shipper":259,"on_consignee":0,"shortage":0,"acc_shortage":817,"booking":163,"acc_booking":75049,"fulfillment":163,"acc_fulfillment":74232,"transfer_cost":0.0,"port_name":"Shanghai","position":{"lat":31.224361,"lng":121.46917},"status":"surplus"},{"frame_index":937,"name":"ports_17","capacity":10000,"empty":963,"full":685,"on_shipper":89,"on_consignee":0,"shortage":0,"acc_shortage":283,"booking":56,"acc_booking":30321,"fulfillment":56,"acc_fulfillment":30038,"transfer_cost":0.0,"port_name":"Singapore","position":{"lat":1.29027,"lng":103.851959},"status":"surplus"},{"frame_index":937,"name":"ports_18","capacity":10000,"empty":710,"full":467,"on_shipper":29,"on_consignee":0,"shortage":0,"acc_shortage":1374,"booking":21,"acc_booking":11660,"fulfillment":21,"acc_fulfillment":10286,"transfer_cost":0.0,"port_name":"Sydney","position":{"lat":-33.865143,"lng":151.2099},"status":"surplus"},{"frame_index":937,"name":"ports_19","capacity":10000,"empty":1003,"full":643,"on_shipper":37,"on_consignee":0,"shortage":0,"acc_shortage":0,"booking":29,"acc_booking":15424,"fulfillment":29,"acc_fulfillment":15424,"transfer_cost":0.0,"port_name":"Vancouver","position":{"lat":49.246292,"lng":-123.116226},"status":"surplus"},{"frame_index":937,"name":"ports_20","capacity":10000,"empty":1084,"full":2515,"on_shipper":166,"on_consignee":14,"shortage":0,"acc_shortage":1292,"booking":96,"acc_booking":52343,"fulfillment":96,"acc_fulfillment":51051,"transfer_cost":49.0,"port_name":"Yantian","position":{"lat":26.8533,"lng":119.8575},"status":"surplus"},{"frame_index":937,"name":"ports_21","capacity":10000,"empty":968,"full":587,"on_shipper":157,"on_consignee":0,"shortage":0,"acc_shortage":7235,"booking":106,"acc_booking":49822,"fulfillment":106,"acc_fulfillment":42587,"transfer_cost":0.0,"port_name":"Yokohama","position":{"lat":35.443707,"lng":139.638031},"status":"surplus"}]