[{"frame_index":345,"name":"ports_0","capacity":10000,"empty":6244,"full":1045,"on_shipper":79,"on_consignee":0,"shortage":0,"acc_shortage":522,"booking":60,"acc_booking":43144,"fulfillment":60,"acc_fulfillment":42622,"transfer_cost":0.0,"port_name":"Bremerhaven","position":{"lat":53.549999,"lng":8.583333},"status":"surplus"},{"frame_index":345,"name":"ports_1","capacity":10000,"empty":473,"full":47,"on_shipper":8,"on_consignee":0,"shortage":0,"acc_shortage":0,"booking":5,"acc_booking":2874,"fulfillment":5,"acc_fulfillment":2874,"transfer_cost":0.0,"port_name":"Durban","position":{"lat":-29.8579,"lng":31.0292},"status":"surplus"},{"frame_index":345,"name":"ports_2","capacity":10000,"empty":378,"full":585,"on_shipper":8,"on_consignee":0,"shortage":0,"acc_shortage":233,"booking":5,"acc_booking":2856,"fulfillment":5,"acc_fulfillment":2623,"transfer_cost":0.0,"port_name":"Itagual","position":{"lat":-22.85222,"lng":-43.77528},"status":"surplus"},{"frame_index":345,"name":"ports_3","capacity":10000,"empty":1531,"full":391,"on_shipper":40,"on_consignee":0,"shortage":0,"acc_shortage":0,"booking":27,"acc_booking":16357,"fulfillment":27,"acc_fulfillment":16357,"transfer_cost":0.0,"port_name":"LeHavre","position":{"lat":49.490002,"lng":0.1},"status":"surplus"},{"frame_index":345,"name":"ports_4","capacity":10000,"empty":819,"full":1406,"on_shipper":31,"on_consignee":0,"shortage":0,"acc_shortage":0,"booking":22,"acc_booking":13663,"fulfillment":22,"acc_fulfillment":13663,"transfer_cost":0.0,"port_name":"Los Angeles","position":{"lat":34.052235,"lng":-118.243683},"status":"surplus"},{"frame_index":345,"name":"ports_5","capacity":10000,"empty":1471,"full":0,"on_shipper":28,"on_consignee":958,"shortage":0,"acc_shortage":123,"booking":20,"acc_booking":13693,"fulfillment":20,"acc_fulfillment":13570,"transfer_cost":0.0,"port_name":"Manzanillo","position":{"lat":19.11695,"lng":-104.34214},"status":"surplus"},{"frame_index":345,"name":"ports_6","capacity":10000,"empty":286,"full":57,"on_shipper":7,"on_consignee":47,"shortage":0,"acc_shortage":340,"booking":7,"acc_booking":4204,"fulfillment":7,"acc_fulfillment":3864,"transfer_cost":0.0,"port_name":"Melbourne","position":{"lat":-37.840935,"lng":144.946457},"status":"surplus"},{"frame_index":345,"name":"ports_7","capacity":10000,"empty":1670,"full":206,"on_shipper":7,"on_consignee":0,"shortage":0,"acc_shortage":0,"booking":7,"acc_booking":4211,"fulfillment":7,"acc_fulfillment":4211,"transfer_cost":0.0,"port_name":"Montreal","position":{"lat":45.516136,"lng":-73.65683},"status":"surplus"},{"frame_index":345,"name":"ports_8","capacity":10000,"empty":4358,"full":84,"on_shipper":20,"on_consignee":0,"shortage":0,"acc_shortage":0,"booking":14,"acc_booking":8220,"fulfillment":14,"acc_fulfillment":8220,"transfer_cost":0.0,"port_name":"New York","position":{"lat":40.73061,"lng":-73.935242},"status":"surplus"},{"frame_index":345,"name":"ports_9","capacity":10000,"empty":763,"full":962,"on_shipper":20,"on_consignee":0,"shortage":0,"acc_shortage":0,"booking":15,"acc_booking":8183,"fulfillment":15,"acc_fulfillment":8183,"transfer_cost":0.0,"port_name":"Oakland","position":{"lat":37.804363,"lng":-122.271111},"status":"surplus"},{"frame_index":345,"name":"ports_10","capacity":10000,"empty":1399,"full":4,"on_shipper":9,"on_consignee":103,"shortage":0,"acc_shortage":0,"booking":7,"acc_booking":4201,"fulfillment":7,"acc_fulfillment":4201,"transfer_cost":0.0,"port_name":"Prince Rupert","position":{"lat":54.312519,"lng":-130.305405},"status":"surplus"},{"frame_index":345,"name":"ports_11","capacity":10000,"empty":2027,"full":274,"on_shipper":30,"on_consignee":365,"shortage":0,"acc_shortage":0,"booking":25,"acc_booking":16296,"fulfillment":25,"acc_fulfillment":16296,"transfer_cost":0.0,"port_name":"Pusan","position":{"lat":35.166668,"lng":129.066666},"status":"surplus"},{"frame_index":345,"name":"ports_12","capacity":10000,"empty":1905,"full":664,"on_shipper":46,"on_consignee":49,"shortage":0,"acc_shortage":0,"booking":34,"acc_booking":21773,"fulfillment":34,"acc_fulfillment":21773,"transfer_cost":384.0,"port_name":"Qingdao","position":{"lat":36.066898,"lng":120.382698},"status":"surplus"},{"frame_index":345,"name":"ports_13","capacity":10000,"empty":579,"full":3,"on_shipper":6,"on_consignee":31,"shortage":0,"acc_shortage":123,"booking":5,"acc_booking":2854,"fulfillment":5,"acc_fulfillment":2731,"transfer_cost":0.0,"port_name":"San Antonio","position":{"lat":29.424349,"lng":-98.491142},"status":"surplus"},{"frame_index":345,"name":"ports_14","capacity":10000,"empty":855,"full":40,"on_shipper":8,"on_consignee":0,"shortage":0,"acc_shortage":697,"booking":5,"acc_booking":2909,"fulfillment":5,"acc_fulfillment":2212,"transfer_cost":0.0,"port_name":"Santos","position":{"lat":-23.96083,"lng":-46.33361},"status":"surplus"},{"frame_index":345,"name":"ports_15","capacity":10000,"empty":5378,"full":303,"on_shipper":39,"on_consignee":0,"shortage":0,"acc_shortage":0,"booking":31,"acc_booking":19007,"fulfillment":31,"acc_fulfillment":19007,"transfer_cost":0.0,"port_name":"Seattle","position":{"lat":47.608013,"lng":-122.335167},"status":"surplus"},{"frame_index":345,"name":"ports_16","capacity":10000,"empty":2664,"full":412,"on_shipper":57,"on_consignee":0,"shortage":0,"acc_shortage":0,"booking":50,"acc_booking":27145,"fulfillment":50,"acc_fulfillment":27145,"transfer_cost":0.0,"port_name":"Shanghai","position":{"lat":31.224361,"lng":121.46917},"status":"surplus"},{"frame_index":345,"name":"ports_17","capacity":10000,"empty":1493,"full":587,"on_shipper":24,"on_consignee":0,"shortage":0,"acc_shortage":40,"booking":18,"acc_booking":10960,"fulfillment":18,"acc_fulfillment":10920,"transfer_cost":0.0,"port_name":"Singapore","position":{"lat":1.29027,"lng":103.851959},"status":"surplus"},{"frame_index":345,"name":"ports_18","capacity":10000,"empty":223,"full":148,"on_shipper":9,"on_consignee":0,"shortage":0,"acc_shortage":377,"booking":7,"acc_booking":4179,"fulfillment":7,"acc_fulfillment":3802,"transfer_cost":0.0,"port_name":"Sydney","position":{"lat":-33.865143,"lng":151.2099},"status":"surplus"},{"frame_index":345,"name":"ports_19","capacity":10000,"empty":487,"full":624,"on_shipper":10,"on_consignee":0,"shortage":0,"acc_shortage":0,"booking":9,"acc_booking":5588,"fulfillment":9,"acc_fulfillment":5588,"transfer_cost":0.0,"port_name":"Vancouver","position":{"lat":49.246292,"lng":-123.116226},"status":"surplus"},{"frame_index":345,"name":"ports_20","capacity":10000,"empty":707,"full":260,"on_shipper":32,"on_consignee":286,"shortage":0,"acc_shortage":0,"booking":29,"acc_booking":18817,"fulfillment":29,"acc_fulfillment":18817,"transfer_cost":157.0,"port_name":"Yantian","position":{"lat":26.8533,"lng":119.8575},"status":"surplus"},{"frame_index":345,"name":"ports_21","capacity":10000,"empty":1677,"full":62,"on_shipper":30,"on_consignee":47,"shortage":0,"acc_shortage":1887,"booking":25,"acc_booking":17916,"fulfillment":25,"acc_fulfillment":16029,"transfer_cost":0.0,"port_name":"Yokohama","position":{"lat":35.443707,"lng":139.638031},"status":"surplus"}]