[{"frame_index":1024,"name":"ports_0","capacity":10000,"empty":5257,"full":238,"on_shipper":152,"on_consignee":0,"shortage":0,"acc_shortage":861,"booking":107,"acc_booking":130551,"fulfillment":107,"acc_fulfillment":129690,"transfer_cost":0.0,"port_name":"Bremerhaven","position":{"lat":53.549999,"lng":8.583333},"status":"surplus"},{"frame_index":1024,"name":"ports_1","capacity":10000,"empty":269,"full":156,"on_shipper":11,"on_consignee":0,"shortage":0,"acc_shortage":113,"booking":7,"acc_booking":8683,"fulfillment":7,"acc_fulfillment":8570,"transfer_cost":0.0,"port_name":"Durban","position":{"lat":-29.8579,"lng":31.0292},"status":"surplus"},{"frame_index":1024,"name":"ports_2","capacity":10000,"empty":261,"full":365,"on_shipper":10,"on_consignee":0,"shortage":0,"acc_shortage":298,"booking":7,"acc_booking":8651,"fulfillment":7,"acc_fulfillment":8353,"transfer_cost":0.0,"port_name":"Itagual","position":{"lat":-22.85222,"lng":-43.77528},"status":"surplus"},{"frame_index":1024,"name":"ports_3","capacity":10000,"empty":6527,"full":243,"on_shipper":55,"on_consignee":0,"shortage":0,"acc_shortage":0,"booking":39,"acc_booking":49420,"fulfillment":39,"acc_fulfillment":49420,"transfer_cost":0.0,"port_name":"LeHavre","position":{"lat":49.490002,"lng":0.1},"status":"surplus"},{"frame_index":1024,"name":"ports_4","capacity":10000,"empty":2813,"full":167,"on_shipper":49,"on_consignee":0,"shortage":0,"acc_shortage":290,"booking":31,"acc_booking":41386,"fulfillment":31,"acc_fulfillment":41096,"transfer_cost":0.0,"port_name":"Los Angeles","position":{"lat":34.052235,"lng":-118.243683},"status":"surplus"},{"frame_index":1024,"name":"ports_5","capacity":10000,"empty":1736,"full":109,"on_shipper":38,"on_consignee":0,"shortage":0,"acc_shortage":194,"booking":27,"acc_booking":41406,"fulfillment":27,"acc_fulfillment":41212,"transfer_cost":0.0,"port_name":"Manzanillo","position":{"lat":19.11695,"lng":-104.34214},"status":"surplus"},{"frame_index":1024,"name":"ports_6","capacity":10000,"empty":360,"full":110,"on_shipper":20,"on_consignee":0,"shortage":0,"acc_shortage":2108,"booking":10,"acc_booking":12746,"fulfillment":10,"acc_fulfillment":10638,"transfer_cost":0.0,"port_name":"Melbourne","position":{"lat":-37.840935,"lng":144.946457},"status":"surplus"},{"frame_index":1024,"name":"ports_7","capacity":10000,"empty":1378,"full":0,"on_shipper":10,"on_consignee":350,"shortage":0,"acc_shortage":0,"booking":10,"acc_booking":12753,"fulfillment":10,"acc_fulfillment":12753,"transfer_cost":0.0,"port_name":"Montreal","position":{"lat":45.516136,"lng":-73.65683},"status":"surplus"},{"frame_index":1024,"name":"ports_8","capacity":10000,"empty":3245,"full":234,"on_shipper":18,"on_consignee":0,"shortage":0,"acc_shortage":136,"booking":18,"acc_booking":24914,"fulfillment":18,"acc_fulfillment":24778,"transfer_cost":0.0,"port_name":"New York","position":{"lat":40.73061,"lng":-73.935242},"status":"surplus"},{"frame_index":1024,"name":"ports_9","capacity":10000,"empty":1774,"full":46,"on_shipper":26,"on_consignee":0,"shortage":0,"acc_shortage":45,"booking":16,"acc_booking":24948,"fulfillment":16,"acc_fulfillment":24903,"transfer_cost":0.0,"port_name":"Oakland","position":{"lat":37.804363,"lng":-122.271111},"status":"surplus"},{"frame_index":1024,"name":"ports_10","capacity":10000,"empty":1567,"full":40,"on_shipper":16,"on_consignee":0,"shortage":0,"acc_shortage":314,"booking":10,"acc_booking":12758,"fulfillment":10,"acc_fulfillment":12444,"transfer_cost":0.0,"port_name":"Prince Rupert","position":{"lat":54.312519,"lng":-130.305405},"status":"surplus"},{"frame_index":1024,"name":"ports_11","capacity":10000,"empty":2815,"full":1002,"on_shipper":46,"on_consignee":0,"shortage":0,"acc_shortage":204,"booking":37,"acc_booking":49365,"fulfillment":37,"acc_fulfillment":49161,"transfer_cost":0.0,"port_name":"Pusan","position":{"lat":35.166668,"lng":129.066666},"status":"surplus"},{"frame_index":1024,"name":"ports_12","capacity":10000,"empty":4321,"full":1673,"on_shipper":76,"on_consignee":0,"shortage":0,"acc_shortage":0,"booking":52,"acc_booking":66015,"fulfillment":52,"acc_fulfillment":66015,"transfer_cost":0.0,"port_name":"Qingdao","position":{"lat":36.066898,"lng":120.382698},"status":"surplus"},{"frame_index":1024,"name":"ports_13","capacity":10000,"empty":276,"full":77,"on_shipper":11,"on_consignee":0,"shortage":0,"acc_shortage":459,"booking":7,"acc_booking":8656,"fulfillment":7,"acc_fulfillment":8197,"transfer_cost":0.0,"port_name":"San Antonio","position":{"lat":29.424349,"lng":-98.491142},"status":"surplus"},{"frame_index":1024,"name":"ports_14","capacity":10000,"empty":39,"full":200,"on_shipper":8,"on_consignee":0,"shortage":0,"acc_shortage":876,"booking":6,"acc_booking":8703,"fulfillment":6,"acc_fulfillment":7827,"transfer_cost":0.0,"port_name":"Santos","position":{"lat":-23.96083,"lng":-46.33361},"status":"balance"},{"frame_index":1024,"name":"ports_15","capacity":10000,"empty":1872,"full":839,"on_shipper":81,"on_consignee":0,"shortage":0,"acc_shortage":1489,"booking":45,"acc_booking":57632,"fulfillment":45,"acc_fulfillment":56143,"transfer_cost":0.0,"port_name":"Seattle","position":{"lat":47.608013,"lng":-122.335167},"status":"surplus"},{"frame_index":1024,"name":"ports_16","capacity":10000,"empty":2924,"full":1001,"on_shipper":99,"on_consignee":0,"shortage":0,"acc_shortage":817,"booking":58,"acc_booking":82233,"fulfillment":58,"acc_fulfillment":81416,"transfer_cost":0.0,"port_name":"Shanghai","position":{"lat":31.224361,"lng":121.46917},"status":"surplus"},{"frame_index":1024,"name":"ports_17","capacity":10000,"empty":588,"full":382,"on_shipper":39,"on_consignee":339,"shortage":0,"acc_shortage":619,"booking":26,"acc_booking":33191,"fulfillment":26,"acc_fulfillment":32572,"transfer_cost":9.0,"port_name":"Singapore","position":{"lat":1.29027,"lng":103.851959},"status":"surplus"},{"frame_index":1024,"name":"ports_18","capacity":10000,"empty":902,"full":20,"on_shipper":9,"on_consignee":53,"shortage":0,"acc_shortage":1374,"booking":9,"acc_booking":12754,"fulfillment":9,"acc_fulfillment":11380,"transfer_cost":0.0,"port_name":"Sydney","position":{"lat":-33.865143,"lng":151.2099},"status":"surplus"},{"frame_index":1024,"name":"ports_19","capacity":10000,"empty":1593,"full":7,"on_shipper":23,"on_consignee":92,"shortage":0,"acc_shortage":0,"booking":14,"acc_booking":16874,"fulfillment":14,"acc_fulfillment":16874,"transfer_cost":0.0,"port_name":"Vancouver","position":{"lat":49.246292,"lng":-123.116226},"status":"surplus"},{"frame_index":1024,"name":"ports_20","capacity":10000,"empty":1083,"full":657,"on_shipper":63,"on_consignee":0,"shortage":0,"acc_shortage":1425,"booking":43,"acc_booking":57344,"fulfillment":43,"acc_fulfillment":55919,"transfer_cost":0.0,"port_name":"Yantian","position":{"lat":26.8533,"lng":119.8575},"status":"surplus"},{"frame_index":1024,"name":"ports_21","capacity":10000,"empty":879,"full":155,"on_shipper":61,"on_consignee":0,"shortage":0,"acc_shortage":7747,"booking":39,"acc_booking":54523,"fulfillment":39,"acc_fulfillment":46776,"transfer_cost":0.0,"port_name":"Yokohama","position":{"lat":35.443707,"lng":139.638031},"status":"surplus"}]