[{"frame_index":791,"name":"ports_0","capacity":10000,"empty":2204,"full":2906,"on_shipper":79,"on_consignee":1081,"shortage":0,"acc_shortage":522,"booking":42,"acc_booking":100839,"fulfillment":42,"acc_fulfillment":100317,"transfer_cost":154.0,"port_name":"Bremerhaven","position":{"lat":53.549999,"lng":8.583333},"status":"surplus"},{"frame_index":791,"name":"ports_1","capacity":10000,"empty":368,"full":6,"on_shipper":6,"on_consignee":47,"shortage":0,"acc_shortage":10,"booking":3,"acc_booking":6703,"fulfillment":3,"acc_fulfillment":6693,"transfer_cost":0.0,"port_name":"Durban","position":{"lat":-29.8579,"lng":31.0292},"status":"surplus"},{"frame_index":791,"name":"ports_2","capacity":10000,"empty":503,"full":80,"on_shipper":5,"on_consignee":0,"shortage":0,"acc_shortage":298,"booking":3,"acc_booking":6680,"fulfillment":3,"acc_fulfillment":6382,"transfer_cost":0.0,"port_name":"Itagual","position":{"lat":-22.85222,"lng":-43.77528},"status":"surplus"},{"frame_index":791,"name":"ports_3","capacity":10000,"empty":3660,"full":86,"on_shipper":27,"on_consignee":374,"shortage":0,"acc_shortage":0,"booking":16,"acc_booking":38172,"fulfillment":16,"acc_fulfillment":38172,"transfer_cost":0.0,"port_name":"LeHavre","position":{"lat":49.490002,"lng":0.1},"status":"surplus"},{"frame_index":791,"name":"ports_4","capacity":10000,"empty":1470,"full":346,"on_shipper":19,"on_consignee":0,"shortage":0,"acc_shortage":290,"booking":13,"acc_booking":31951,"fulfillment":13,"acc_fulfillment":31661,"transfer_cost":0.0,"port_name":"Los Angeles","position":{"lat":34.052235,"lng":-118.243683},"status":"surplus"},{"frame_index":791,"name":"ports_5","capacity":10000,"empty":2252,"full":31,"on_shipper":20,"on_consignee":0,"shortage":0,"acc_shortage":123,"booking":13,"acc_booking":32070,"fulfillment":13,"acc_fulfillment":31947,"transfer_cost":0.0,"port_name":"Manzanillo","position":{"lat":19.11695,"lng":-104.34214},"status":"surplus"},{"frame_index":791,"name":"ports_6","capacity":10000,"empty":273,"full":171,"on_shipper":7,"on_consignee":0,"shortage":0,"acc_shortage":1572,"booking":4,"acc_booking":9838,"fulfillment":4,"acc_fulfillment":8266,"transfer_cost":0.0,"port_name":"Melbourne","position":{"lat":-37.840935,"lng":144.946457},"status":"surplus"},{"frame_index":791,"name":"ports_7","capacity":10000,"empty":994,"full":54,"on_shipper":10,"on_consignee":0,"shortage":0,"acc_shortage":0,"booking":4,"acc_booking":9847,"fulfillment":4,"acc_fulfillment":9847,"transfer_cost":0.0,"port_name":"Montreal","position":{"lat":45.516136,"lng":-73.65683},"status":"surplus"},{"frame_index":791,"name":"ports_8","capacity":10000,"empty":902,"full":0,"on_shipper":14,"on_consignee":1614,"shortage":0,"acc_shortage":136,"booking":8,"acc_booking":19235,"fulfillment":8,"acc_fulfillment":19099,"transfer_cost":3138.0,"port_name":"New York","position":{"lat":40.73061,"lng":-73.935242},"status":"surplus"},{"frame_index":791,"name":"ports_9","capacity":10000,"empty":57,"full":885,"on_shipper":14,"on_consignee":0,"shortage":0,"acc_shortage":45,"booking":8,"acc_booking":19273,"fulfillment":8,"acc_fulfillment":19228,"transfer_cost":0.0,"port_name":"Oakland","position":{"lat":37.804363,"lng":-122.271111},"status":"balance"},{"frame_index":791,"name":"ports_10","capacity":10000,"empty":974,"full":235,"on_shipper":8,"on_consignee":0,"shortage":0,"acc_shortage":314,"booking":5,"acc_booking":9859,"fulfillment":5,"acc_fulfillment":9545,"transfer_cost":0.0,"port_name":"Prince Rupert","position":{"lat":54.312519,"lng":-130.305405},"status":"surplus"},{"frame_index":791,"name":"ports_11","capacity":10000,"empty":3139,"full":189,"on_shipper":27,"on_consignee":62,"shortage":0,"acc_shortage":204,"booking":15,"acc_booking":38121,"fulfillment":15,"acc_fulfillment":37917,"transfer_cost":0.0,"port_name":"Pusan","position":{"lat":35.166668,"lng":129.066666},"status":"surplus"},{"frame_index":791,"name":"ports_12","capacity":10000,"empty":2689,"full":1109,"on_shipper":38,"on_consignee":174,"shortage":0,"acc_shortage":0,"booking":19,"acc_booking":50946,"fulfillment":19,"acc_fulfillment":50946,"transfer_cost":371.0,"port_name":"Qingdao","position":{"lat":36.066898,"lng":120.382698},"status":"surplus"},{"frame_index":791,"name":"ports_13","capacity":10000,"empty":762,"full":8,"on_shipper":4,"on_consignee":0,"shortage":0,"acc_shortage":449,"booking":3,"acc_booking":6687,"fulfillment":3,"acc_fulfillment":6238,"transfer_cost":0.0,"port_name":"San Antonio","position":{"lat":29.424349,"lng":-98.491142},"status":"surplus"},{"frame_index":791,"name":"ports_14","capacity":10000,"empty":250,"full":40,"on_shipper":5,"on_consignee":0,"shortage":0,"acc_shortage":762,"booking":3,"acc_booking":6726,"fulfillment":3,"acc_fulfillment":5964,"transfer_cost":0.0,"port_name":"Santos","position":{"lat":-23.96083,"lng":-46.33361},"status":"surplus"},{"frame_index":791,"name":"ports_15","capacity":10000,"empty":1299,"full":538,"on_shipper":35,"on_consignee":0,"shortage":0,"acc_shortage":0,"booking":18,"acc_booking":44523,"fulfillment":18,"acc_fulfillment":44523,"transfer_cost":0.0,"port_name":"Seattle","position":{"lat":47.608013,"lng":-122.335167},"status":"surplus"},{"frame_index":791,"name":"ports_16","capacity":10000,"empty":2936,"full":164,"on_shipper":34,"on_consignee":85,"shortage":0,"acc_shortage":760,"booking":27,"acc_booking":63354,"fulfillment":27,"acc_fulfillment":62594,"transfer_cost":0.0,"port_name":"Shanghai","position":{"lat":31.224361,"lng":121.46917},"status":"surplus"},{"frame_index":791,"name":"ports_17","capacity":10000,"empty":1500,"full":146,"on_shipper":17,"on_consignee":0,"shortage":0,"acc_shortage":283,"booking":11,"acc_booking":25648,"fulfillment":11,"acc_fulfillment":25365,"transfer_cost":0.0,"port_name":"Singapore","position":{"lat":1.29027,"lng":103.851959},"status":"surplus"},{"frame_index":791,"name":"ports_18","capacity":10000,"empty":0,"full":411,"on_shipper":0,"on_consignee":0,"shortage":5,"acc_shortage":1368,"booking":5,"acc_booking":9850,"fulfillment":0,"acc_fulfillment":8482,"transfer_cost":0.0,"port_name":"Sydney","position":{"lat":-33.865143,"lng":151.2099},"status":"balance"},{"frame_index":791,"name":"ports_19","capacity":10000,"empty":884,"full":475,"on_shipper":11,"on_consignee":0,"shortage":0,"acc_shortage":0,"booking":6,"acc_booking":13055,"fulfillment":6,"acc_fulfillment":13055,"transfer_cost":0.0,"port_name":"Vancouver","position":{"lat":49.246292,"lng":-123.116226},"status":"surplus"},{"frame_index":791,"name":"ports_20","capacity":10000,"empty":1219,"full":329,"on_shipper":26,"on_consignee":0,"shortage":0,"acc_shortage":942,"booking":20,"acc_booking":44226,"fulfillment":20,"acc_fulfillment":43284,"transfer_cost":0.0,"port_name":"Yantian","position":{"lat":26.8533,"lng":119.8575},"status":"surplus"},{"frame_index":791,"name":"ports_21","capacity":10000,"empty":0,"full":383,"on_shipper":0,"on_consignee":0,"shortage":10,"acc_shortage":6167,"booking":10,"acc_booking":42128,"fulfillment":0,"acc_fulfillment":35961,"transfer_cost":0.0,"port_name":"Yokohama","position":{"lat":35.443707,"lng":139.638031},"status":"balance"}]