[{"frame_index":606,"name":"ports_0","capacity":10000,"empty":3980,"full":5150,"on_shipper":310,"on_consignee":0,"shortage":0,"acc_shortage":522,"booking":280,"acc_booking":77039,"fulfillment":280,"acc_fulfillment":76517,"transfer_cost":0.0,"port_name":"Bremerhaven","position":{"lat":53.549999,"lng":8.583333},"status":"surplus"},{"frame_index":606,"name":"ports_1","capacity":10000,"empty":465,"full":119,"on_shipper":19,"on_consignee":0,"shortage":0,"acc_shortage":0,"booking":16,"acc_booking":5120,"fulfillment":16,"acc_fulfillment":5120,"transfer_cost":0.0,"port_name":"Durban","position":{"lat":-29.8579,"lng":31.0292},"status":"surplus"},{"frame_index":606,"name":"ports_2","capacity":10000,"empty":296,"full":270,"on_shipper":23,"on_consignee":0,"shortage":0,"acc_shortage":233,"booking":15,"acc_booking":5090,"fulfillment":15,"acc_fulfillment":4857,"transfer_cost":0.0,"port_name":"Itagual","position":{"lat":-22.85222,"lng":-43.77528},"status":"surplus"},{"frame_index":606,"name":"ports_3","capacity":10000,"empty":1156,"full":551,"on_shipper":112,"on_consignee":837,"shortage":0,"acc_shortage":0,"booking":92,"acc_booking":29118,"fulfillment":92,"acc_fulfillment":29118,"transfer_cost":0.0,"port_name":"LeHavre","position":{"lat":49.490002,"lng":0.1},"status":"surplus"},{"frame_index":606,"name":"ports_4","capacity":10000,"empty":390,"full":1449,"on_shipper":89,"on_consignee":0,"shortage":0,"acc_shortage":0,"booking":75,"acc_booking":24362,"fulfillment":75,"acc_fulfillment":24362,"transfer_cost":0.0,"port_name":"Los Angeles","position":{"lat":34.052235,"lng":-118.243683},"status":"balance"},{"frame_index":606,"name":"ports_5","capacity":10000,"empty":2143,"full":709,"on_shipper":125,"on_consignee":0,"shortage":0,"acc_shortage":123,"booking":81,"acc_booking":24391,"fulfillment":81,"acc_fulfillment":24268,"transfer_cost":0.0,"port_name":"Manzanillo","position":{"lat":19.11695,"lng":-104.34214},"status":"surplus"},{"frame_index":606,"name":"ports_6","capacity":10000,"empty":250,"full":347,"on_shipper":40,"on_consignee":0,"shortage":0,"acc_shortage":1259,"booking":23,"acc_booking":7500,"fulfillment":23,"acc_fulfillment":6241,"transfer_cost":0.0,"port_name":"Melbourne","position":{"lat":-37.840935,"lng":144.946457},"status":"surplus"},{"frame_index":606,"name":"ports_7","capacity":10000,"empty":1700,"full":307,"on_shipper":35,"on_consignee":0,"shortage":0,"acc_shortage":0,"booking":23,"acc_booking":7505,"fulfillment":23,"acc_fulfillment":7505,"transfer_cost":0.0,"port_name":"Montreal","position":{"lat":45.516136,"lng":-73.65683},"status":"surplus"},{"frame_index":606,"name":"ports_8","capacity":10000,"empty":2607,"full":268,"on_shipper":47,"on_consignee":0,"shortage":0,"acc_shortage":0,"booking":47,"acc_booking":14669,"fulfillment":47,"acc_fulfillment":14669,"transfer_cost":0.0,"port_name":"New York","position":{"lat":40.73061,"lng":-73.935242},"status":"surplus"},{"frame_index":606,"name":"ports_9","capacity":10000,"empty":982,"full":444,"on_shipper":79,"on_consignee":0,"shortage":0,"acc_shortage":45,"booking":52,"acc_booking":14697,"fulfillment":52,"acc_fulfillment":14652,"transfer_cost":0.0,"port_name":"Oakland","position":{"lat":37.804363,"lng":-122.271111},"status":"surplus"},{"frame_index":606,"name":"ports_10","capacity":10000,"empty":1448,"full":304,"on_shipper":19,"on_consignee":0,"shortage":0,"acc_shortage":314,"booking":19,"acc_booking":7523,"fulfillment":19,"acc_fulfillment":7209,"transfer_cost":0.0,"port_name":"Prince Rupert","position":{"lat":54.312519,"lng":-130.305405},"status":"surplus"},{"frame_index":606,"name":"ports_11","capacity":10000,"empty":2941,"full":719,"on_shipper":149,"on_consignee":0,"shortage":0,"acc_shortage":204,"booking":92,"acc_booking":29058,"fulfillment":92,"acc_fulfillment":28854,"transfer_cost":0.0,"port_name":"Pusan","position":{"lat":35.166668,"lng":129.066666},"status":"surplus"},{"frame_index":606,"name":"ports_12","capacity":10000,"empty":3643,"full":816,"on_shipper":185,"on_consignee":76,"shortage":0,"acc_shortage":0,"booking":107,"acc_booking":38810,"fulfillment":107,"acc_fulfillment":38810,"transfer_cost":0.0,"port_name":"Qingdao","position":{"lat":36.066898,"lng":120.382698},"status":"surplus"},{"frame_index":606,"name":"ports_13","capacity":10000,"empty":178,"full":285,"on_shipper":27,"on_consignee":0,"shortage":0,"acc_shortage":286,"booking":17,"acc_booking":5087,"fulfillment":17,"acc_fulfillment":4801,"transfer_cost":0.0,"port_name":"San Antonio","position":{"lat":29.424349,"lng":-98.491142},"status":"surplus"},{"frame_index":606,"name":"ports_14","capacity":10000,"empty":1296,"full":117,"on_shipper":17,"on_consignee":0,"shortage":0,"acc_shortage":762,"booking":14,"acc_booking":5130,"fulfillment":14,"acc_fulfillment":4368,"transfer_cost":0.0,"port_name":"Santos","position":{"lat":-23.96083,"lng":-46.33361},"status":"surplus"},{"frame_index":606,"name":"ports_15","capacity":10000,"empty":3428,"full":1024,"on_shipper":166,"on_consignee":0,"shortage":0,"acc_shortage":0,"booking":108,"acc_booking":33922,"fulfillment":108,"acc_fulfillment":33922,"transfer_cost":0.0,"port_name":"Seattle","position":{"lat":47.608013,"lng":-122.335167},"status":"surplus"},{"frame_index":606,"name":"ports_16","capacity":10000,"empty":1302,"full":871,"on_shipper":265,"on_consignee":0,"shortage":0,"acc_shortage":470,"booking":133,"acc_booking":48302,"fulfillment":133,"acc_fulfillment":47832,"transfer_cost":0.0,"port_name":"Shanghai","position":{"lat":31.224361,"lng":121.46917},"status":"surplus"},{"frame_index":606,"name":"ports_17","capacity":10000,"empty":627,"full":406,"on_shipper":84,"on_consignee":6,"shortage":0,"acc_shortage":40,"booking":62,"acc_booking":19548,"fulfillment":62,"acc_fulfillment":19508,"transfer_cost":0.0,"port_name":"Singapore","position":{"lat":1.29027,"lng":103.851959},"status":"surplus"},{"frame_index":606,"name":"ports_18","capacity":10000,"empty":595,"full":163,"on_shipper":43,"on_consignee":0,"shortage":0,"acc_shortage":957,"booking":24,"acc_booking":7469,"fulfillment":24,"acc_fulfillment":6512,"transfer_cost":0.0,"port_name":"Sydney","position":{"lat":-33.865143,"lng":151.2099},"status":"surplus"},{"frame_index":606,"name":"ports_19","capacity":10000,"empty":1008,"full":104,"on_shipper":62,"on_consignee":209,"shortage":0,"acc_shortage":0,"booking":32,"acc_booking":9972,"fulfillment":32,"acc_fulfillment":9972,"transfer_cost":0.0,"port_name":"Vancouver","position":{"lat":49.246292,"lng":-123.116226},"status":"surplus"},{"frame_index":606,"name":"ports_20","capacity":10000,"empty":692,"full":773,"on_shipper":146,"on_consignee":66,"shortage":0,"acc_shortage":395,"booking":94,"acc_booking":33689,"fulfillment":94,"acc_fulfillment":33294,"transfer_cost":0.0,"port_name":"Yantian","position":{"lat":26.8533,"lng":119.8575},"status":"surplus"},{"frame_index":606,"name":"ports_21","capacity":10000,"empty":0,"full":1777,"on_shipper":42,"on_consignee":0,"shortage":101,"acc_shortage":3359,"booking":107,"acc_booking":32085,"fulfillment":6,"acc_fulfillment":28726,"transfer_cost":0.0,"port_name":"Yokohama","position":{"lat":35.443707,"lng":139.638031},"status":"demand"}]