[{"frame_index":504,"name":"ports_0","capacity":10000,"empty":2620,"full":2011,"on_shipper":473,"on_consignee":0,"shortage":0,"acc_shortage":522,"booking":280,"acc_booking":64061,"fulfillment":280,"acc_fulfillment":63539,"transfer_cost":0.0,"port_name":"Bremerhaven","position":{"lat":53.549999,"lng":8.583333},"status":"surplus"},{"frame_index":504,"name":"ports_1","capacity":10000,"empty":405,"full":123,"on_shipper":24,"on_consignee":0,"shortage":0,"acc_shortage":0,"booking":17,"acc_booking":4280,"fulfillment":17,"acc_fulfillment":4280,"transfer_cost":0.0,"port_name":"Durban","position":{"lat":-29.8579,"lng":31.0292},"status":"surplus"},{"frame_index":504,"name":"ports_2","capacity":10000,"empty":926,"full":81,"on_shipper":20,"on_consignee":0,"shortage":0,"acc_shortage":233,"booking":16,"acc_booking":4249,"fulfillment":16,"acc_fulfillment":4016,"transfer_cost":0.0,"port_name":"Itagual","position":{"lat":-22.85222,"lng":-43.77528},"status":"surplus"},{"frame_index":504,"name":"ports_3","capacity":10000,"empty":1559,"full":294,"on_shipper":145,"on_consignee":731,"shortage":0,"acc_shortage":0,"booking":102,"acc_booking":24300,"fulfillment":102,"acc_fulfillment":24300,"transfer_cost":668.0,"port_name":"LeHavre","position":{"lat":49.490002,"lng":0.1},"status":"surplus"},{"frame_index":504,"name":"ports_4","capacity":10000,"empty":1934,"full":1613,"on_shipper":106,"on_consignee":0,"shortage":0,"acc_shortage":0,"booking":83,"acc_booking":20308,"fulfillment":83,"acc_fulfillment":20308,"transfer_cost":0.0,"port_name":"Los Angeles","position":{"lat":34.052235,"lng":-118.243683},"status":"surplus"},{"frame_index":504,"name":"ports_5","capacity":10000,"empty":1863,"full":247,"on_shipper":133,"on_consignee":0,"shortage":0,"acc_shortage":123,"booking":86,"acc_booking":20406,"fulfillment":86,"acc_fulfillment":20283,"transfer_cost":0.0,"port_name":"Manzanillo","position":{"lat":19.11695,"lng":-104.34214},"status":"surplus"},{"frame_index":504,"name":"ports_6","capacity":10000,"empty":254,"full":125,"on_shipper":41,"on_consignee":0,"shortage":0,"acc_shortage":837,"booking":25,"acc_booking":6257,"fulfillment":25,"acc_fulfillment":5420,"transfer_cost":0.0,"port_name":"Melbourne","position":{"lat":-37.840935,"lng":144.946457},"status":"surplus"},{"frame_index":504,"name":"ports_7","capacity":10000,"empty":1880,"full":321,"on_shipper":49,"on_consignee":0,"shortage":0,"acc_shortage":0,"booking":25,"acc_booking":6258,"fulfillment":25,"acc_fulfillment":6258,"transfer_cost":0.0,"port_name":"Montreal","position":{"lat":45.516136,"lng":-73.65683},"status":"surplus"},{"frame_index":504,"name":"ports_8","capacity":10000,"empty":1174,"full":123,"on_shipper":49,"on_consignee":0,"shortage":0,"acc_shortage":0,"booking":49,"acc_booking":12216,"fulfillment":49,"acc_fulfillment":12216,"transfer_cost":0.0,"port_name":"New York","position":{"lat":40.73061,"lng":-73.935242},"status":"surplus"},{"frame_index":504,"name":"ports_9","capacity":10000,"empty":1339,"full":400,"on_shipper":100,"on_consignee":0,"shortage":0,"acc_shortage":45,"booking":46,"acc_booking":12217,"fulfillment":46,"acc_fulfillment":12172,"transfer_cost":0.0,"port_name":"Oakland","position":{"lat":37.804363,"lng":-122.271111},"status":"surplus"},{"frame_index":504,"name":"ports_10","capacity":10000,"empty":0,"full":492,"on_shipper":0,"on_consignee":0,"shortage":30,"acc_shortage":230,"booking":30,"acc_booking":6267,"fulfillment":0,"acc_fulfillment":6037,"transfer_cost":0.0,"port_name":"Prince Rupert","position":{"lat":54.312519,"lng":-130.305405},"status":"demand"},{"frame_index":504,"name":"ports_11","capacity":10000,"empty":2320,"full":1498,"on_shipper":152,"on_consignee":0,"shortage":0,"acc_shortage":204,"booking":103,"acc_booking":24229,"fulfillment":103,"acc_fulfillment":24025,"transfer_cost":0.0,"port_name":"Pusan","position":{"lat":35.166668,"lng":129.066666},"status":"surplus"},{"frame_index":504,"name":"ports_12","capacity":10000,"empty":3293,"full":1936,"on_shipper":160,"on_consignee":2,"shortage":0,"acc_shortage":0,"booking":125,"acc_booking":32410,"fulfillment":125,"acc_fulfillment":32410,"transfer_cost":0.0,"port_name":"Qingdao","position":{"lat":36.066898,"lng":120.382698},"status":"surplus"},{"frame_index":504,"name":"ports_13","capacity":10000,"empty":398,"full":248,"on_shipper":25,"on_consignee":0,"shortage":0,"acc_shortage":286,"booking":16,"acc_booking":4248,"fulfillment":16,"acc_fulfillment":3962,"transfer_cost":0.0,"port_name":"San Antonio","position":{"lat":29.424349,"lng":-98.491142},"status":"surplus"},{"frame_index":504,"name":"ports_14","capacity":10000,"empty":0,"full":425,"on_shipper":5,"on_consignee":0,"shortage":20,"acc_shortage":723,"booking":20,"acc_booking":4282,"fulfillment":0,"acc_fulfillment":3559,"transfer_cost":0.0,"port_name":"Santos","position":{"lat":-23.96083,"lng":-46.33361},"status":"demand"},{"frame_index":504,"name":"ports_15","capacity":10000,"empty":4040,"full":221,"on_shipper":178,"on_consignee":374,"shortage":0,"acc_shortage":0,"booking":121,"acc_booking":28280,"fulfillment":121,"acc_fulfillment":28280,"transfer_cost":0.0,"port_name":"Seattle","position":{"lat":47.608013,"lng":-122.335167},"status":"surplus"},{"frame_index":504,"name":"ports_16","capacity":10000,"empty":160,"full":1277,"on_shipper":290,"on_consignee":628,"shortage":0,"acc_shortage":70,"booking":170,"acc_booking":40334,"fulfillment":170,"acc_fulfillment":40264,"transfer_cost":0.0,"port_name":"Shanghai","position":{"lat":31.224361,"lng":121.46917},"status":"demand"},{"frame_index":504,"name":"ports_17","capacity":10000,"empty":1504,"full":627,"on_shipper":100,"on_consignee":199,"shortage":0,"acc_shortage":40,"booking":67,"acc_booking":16297,"fulfillment":67,"acc_fulfillment":16257,"transfer_cost":346.0,"port_name":"Singapore","position":{"lat":1.29027,"lng":103.851959},"status":"surplus"},{"frame_index":504,"name":"ports_18","capacity":10000,"empty":235,"full":545,"on_shipper":49,"on_consignee":0,"shortage":0,"acc_shortage":774,"booking":24,"acc_booking":6229,"fulfillment":24,"acc_fulfillment":5455,"transfer_cost":0.0,"port_name":"Sydney","position":{"lat":-33.865143,"lng":151.2099},"status":"surplus"},{"frame_index":504,"name":"ports_19","capacity":10000,"empty":471,"full":488,"on_shipper":52,"on_consignee":0,"shortage":0,"acc_shortage":0,"booking":33,"acc_booking":8320,"fulfillment":33,"acc_fulfillment":8320,"transfer_cost":0.0,"port_name":"Vancouver","position":{"lat":49.246292,"lng":-123.116226},"status":"surplus"},{"frame_index":504,"name":"ports_20","capacity":10000,"empty":959,"full":1272,"on_shipper":177,"on_consignee":0,"shortage":0,"acc_shortage":350,"booking":130,"acc_booking":28064,"fulfillment":130,"acc_fulfillment":27714,"transfer_cost":0.0,"port_name":"Yantian","position":{"lat":26.8533,"lng":119.8575},"status":"surplus"},{"frame_index":504,"name":"ports_21","capacity":10000,"empty":1102,"full":1752,"on_shipper":160,"on_consignee":0,"shortage":0,"acc_shortage":2740,"booking":123,"acc_booking":26757,"fulfillment":123,"acc_fulfillment":24017,"transfer_cost":0.0,"port_name":"Yokohama","position":{"lat":35.443707,"lng":139.638031},"status":"surplus"}]