[{"frame_index":679,"name":"ports_0","capacity":10000,"empty":6033,"full":2933,"on_shipper":96,"on_consignee":0,"shortage":0,"acc_shortage":522,"booking":52,"acc_booking":86273,"fulfillment":52,"acc_fulfillment":85751,"transfer_cost":0.0,"port_name":"Bremerhaven","position":{"lat":53.549999,"lng":8.583333},"status":"surplus"},{"frame_index":679,"name":"ports_1","capacity":10000,"empty":58,"full":182,"on_shipper":6,"on_consignee":0,"shortage":0,"acc_shortage":0,"booking":4,"acc_booking":5735,"fulfillment":4,"acc_fulfillment":5735,"transfer_cost":0.0,"port_name":"Durban","position":{"lat":-29.8579,"lng":31.0292},"status":"balance"},{"frame_index":679,"name":"ports_2","capacity":10000,"empty":412,"full":117,"on_shipper":6,"on_consignee":0,"shortage":0,"acc_shortage":298,"booking":4,"acc_booking":5716,"fulfillment":4,"acc_fulfillment":5418,"transfer_cost":0.0,"port_name":"Itagual","position":{"lat":-22.85222,"lng":-43.77528},"status":"surplus"},{"frame_index":679,"name":"ports_3","capacity":10000,"empty":3034,"full":187,"on_shipper":38,"on_consignee":0,"shortage":0,"acc_shortage":0,"booking":24,"acc_booking":32643,"fulfillment":24,"acc_fulfillment":32643,"transfer_cost":0.0,"port_name":"LeHavre","position":{"lat":49.490002,"lng":0.1},"status":"surplus"},{"frame_index":679,"name":"ports_4","capacity":10000,"empty":386,"full":80,"on_shipper":35,"on_consignee":660,"shortage":0,"acc_shortage":150,"booking":20,"acc_booking":27318,"fulfillment":20,"acc_fulfillment":27168,"transfer_cost":1542.0,"port_name":"Los Angeles","position":{"lat":34.052235,"lng":-118.243683},"status":"surplus"},{"frame_index":679,"name":"ports_5","capacity":10000,"empty":2499,"full":34,"on_shipper":23,"on_consignee":402,"shortage":0,"acc_shortage":123,"booking":20,"acc_booking":27384,"fulfillment":20,"acc_fulfillment":27261,"transfer_cost":0.0,"port_name":"Manzanillo","position":{"lat":19.11695,"lng":-104.34214},"status":"surplus"},{"frame_index":679,"name":"ports_6","capacity":10000,"empty":421,"full":91,"on_shipper":6,"on_consignee":0,"shortage":0,"acc_shortage":1336,"booking":6,"acc_booking":8410,"fulfillment":6,"acc_fulfillment":7074,"transfer_cost":0.0,"port_name":"Melbourne","position":{"lat":-37.840935,"lng":144.946457},"status":"surplus"},{"frame_index":679,"name":"ports_7","capacity":10000,"empty":756,"full":21,"on_shipper":10,"on_consignee":0,"shortage":0,"acc_shortage":0,"booking":6,"acc_booking":8417,"fulfillment":6,"acc_fulfillment":8417,"transfer_cost":0.0,"port_name":"Montreal","position":{"lat":45.516136,"lng":-73.65683},"status":"surplus"},{"frame_index":679,"name":"ports_8","capacity":10000,"empty":4840,"full":129,"on_shipper":27,"on_consignee":0,"shortage":0,"acc_shortage":0,"booking":12,"acc_booking":16453,"fulfillment":12,"acc_fulfillment":16453,"transfer_cost":0.0,"port_name":"New York","position":{"lat":40.73061,"lng":-73.935242},"status":"surplus"},{"frame_index":679,"name":"ports_9","capacity":10000,"empty":654,"full":368,"on_shipper":17,"on_consignee":0,"shortage":0,"acc_shortage":45,"booking":11,"acc_booking":16512,"fulfillment":11,"acc_fulfillment":16467,"transfer_cost":0.0,"port_name":"Oakland","position":{"lat":37.804363,"lng":-122.271111},"status":"surplus"},{"frame_index":679,"name":"ports_10","capacity":10000,"empty":1506,"full":19,"on_shipper":12,"on_consignee":0,"shortage":0,"acc_shortage":314,"booking":7,"acc_booking":8435,"fulfillment":7,"acc_fulfillment":8121,"transfer_cost":0.0,"port_name":"Prince Rupert","position":{"lat":54.312519,"lng":-130.305405},"status":"surplus"},{"frame_index":679,"name":"ports_11","capacity":10000,"empty":3927,"full":795,"on_shipper":34,"on_consignee":0,"shortage":0,"acc_shortage":204,"booking":23,"acc_booking":32608,"fulfillment":23,"acc_fulfillment":32404,"transfer_cost":0.0,"port_name":"Pusan","position":{"lat":35.166668,"lng":129.066666},"status":"surplus"},{"frame_index":679,"name":"ports_12","capacity":10000,"empty":2687,"full":1477,"on_shipper":48,"on_consignee":257,"shortage":0,"acc_shortage":0,"booking":33,"acc_booking":43525,"fulfillment":33,"acc_fulfillment":43525,"transfer_cost":0.0,"port_name":"Qingdao","position":{"lat":36.066898,"lng":120.382698},"status":"surplus"},{"frame_index":679,"name":"ports_13","capacity":10000,"empty":514,"full":8,"on_shipper":5,"on_consignee":18,"shortage":0,"acc_shortage":325,"booking":5,"acc_booking":5714,"fulfillment":5,"acc_fulfillment":5389,"transfer_cost":0.0,"port_name":"San Antonio","position":{"lat":29.424349,"lng":-98.491142},"status":"surplus"},{"frame_index":679,"name":"ports_14","capacity":10000,"empty":553,"full":16,"on_shipper":9,"on_consignee":0,"shortage":0,"acc_shortage":762,"booking":5,"acc_booking":5761,"fulfillment":5,"acc_fulfillment":4999,"transfer_cost":0.0,"port_name":"Santos","position":{"lat":-23.96083,"lng":-46.33361},"status":"surplus"},{"frame_index":679,"name":"ports_15","capacity":10000,"empty":3885,"full":86,"on_shipper":53,"on_consignee":0,"shortage":0,"acc_shortage":0,"booking":27,"acc_booking":38031,"fulfillment":27,"acc_fulfillment":38031,"transfer_cost":0.0,"port_name":"Seattle","position":{"lat":47.608013,"lng":-122.335167},"status":"surplus"},{"frame_index":679,"name":"ports_16","capacity":10000,"empty":1488,"full":910,"on_shipper":76,"on_consignee":0,"shortage":0,"acc_shortage":712,"booking":43,"acc_booking":54175,"fulfillment":43,"acc_fulfillment":53463,"transfer_cost":0.0,"port_name":"Shanghai","position":{"lat":31.224361,"lng":121.46917},"status":"surplus"},{"frame_index":679,"name":"ports_17","capacity":10000,"empty":993,"full":193,"on_shipper":26,"on_consignee":143,"shortage":0,"acc_shortage":283,"booking":16,"acc_booking":21928,"fulfillment":16,"acc_fulfillment":21645,"transfer_cost":259.0,"port_name":"Singapore","position":{"lat":1.29027,"lng":103.851959},"status":"surplus"},{"frame_index":679,"name":"ports_18","capacity":10000,"empty":442,"full":44,"on_shipper":5,"on_consignee":0,"shortage":0,"acc_shortage":1082,"booking":5,"acc_booking":8383,"fulfillment":5,"acc_fulfillment":7301,"transfer_cost":0.0,"port_name":"Sydney","position":{"lat":-33.865143,"lng":151.2099},"status":"surplus"},{"frame_index":679,"name":"ports_19","capacity":10000,"empty":677,"full":644,"on_shipper":13,"on_consignee":0,"shortage":0,"acc_shortage":0,"booking":9,"acc_booking":11170,"fulfillment":9,"acc_fulfillment":11170,"transfer_cost":0.0,"port_name":"Vancouver","position":{"lat":49.246292,"lng":-123.116226},"status":"surplus"},{"frame_index":679,"name":"ports_20","capacity":10000,"empty":789,"full":767,"on_shipper":55,"on_consignee":0,"shortage":0,"acc_shortage":395,"booking":30,"acc_booking":37787,"fulfillment":30,"acc_fulfillment":37392,"transfer_cost":0.0,"port_name":"Yantian","position":{"lat":26.8533,"lng":119.8575},"status":"surplus"},{"frame_index":679,"name":"ports_21","capacity":10000,"empty":169,"full":66,"on_shipper":33,"on_consignee":0,"shortage":0,"acc_shortage":4175,"booking":20,"acc_booking":35987,"fulfillment":20,"acc_fulfillment":31812,"transfer_cost":0.0,"port_name":"Yokohama","position":{"lat":35.443707,"lng":139.638031},"status":"surplus"}]