[{"frame_index":279,"name":"ports_0","capacity":10000,"empty":2336,"full":2734,"on_shipper":335,"on_consignee":0,"shortage":0,"acc_shortage":0,"booking":257,"acc_booking":35160,"fulfillment":257,"acc_fulfillment":35160,"transfer_cost":0.0,"port_name":"Bremerhaven","position":{"lat":53.549999,"lng":8.583333},"status":"surplus"},{"frame_index":279,"name":"ports_1","capacity":10000,"empty":775,"full":105,"on_shipper":26,"on_consignee":0,"shortage":0,"acc_shortage":0,"booking":15,"acc_booking":2354,"fulfillment":15,"acc_fulfillment":2354,"transfer_cost":0.0,"port_name":"Durban","position":{"lat":-29.8579,"lng":31.0292},"status":"surplus"},{"frame_index":279,"name":"ports_2","capacity":10000,"empty":901,"full":42,"on_shipper":28,"on_consignee":0,"shortage":0,"acc_shortage":233,"booking":17,"acc_booking":2333,"fulfillment":17,"acc_fulfillment":2100,"transfer_cost":0.0,"port_name":"Itagual","position":{"lat":-22.85222,"lng":-43.77528},"status":"surplus"},{"frame_index":279,"name":"ports_3","capacity":10000,"empty":1743,"full":1535,"on_shipper":156,"on_consignee":0,"shortage":0,"acc_shortage":0,"booking":98,"acc_booking":13347,"fulfillment":98,"acc_fulfillment":13347,"transfer_cost":0.0,"port_name":"LeHavre","position":{"lat":49.490002,"lng":0.1},"status":"surplus"},{"frame_index":279,"name":"ports_4","capacity":10000,"empty":2646,"full":286,"on_shipper":121,"on_consignee":68,"shortage":0,"acc_shortage":0,"booking":81,"acc_booking":11142,"fulfillment":81,"acc_fulfillment":11142,"transfer_cost":0.0,"port_name":"Los Angeles","position":{"lat":34.052235,"lng":-118.243683},"status":"surplus"},{"frame_index":279,"name":"ports_5","capacity":10000,"empty":0,"full":0,"on_shipper":7,"on_consignee":2065,"shortage":84,"acc_shortage":123,"booking":84,"acc_booking":11180,"fulfillment":0,"acc_fulfillment":11057,"transfer_cost":0.0,"port_name":"Manzanillo","position":{"lat":19.11695,"lng":-104.34214},"status":"demand"},{"frame_index":279,"name":"ports_6","capacity":10000,"empty":127,"full":237,"on_shipper":24,"on_consignee":0,"shortage":0,"acc_shortage":0,"booking":24,"acc_booking":3429,"fulfillment":24,"acc_fulfillment":3429,"transfer_cost":0.0,"port_name":"Melbourne","position":{"lat":-37.840935,"lng":144.946457},"status":"balance"},{"frame_index":279,"name":"ports_7","capacity":10000,"empty":1947,"full":330,"on_shipper":34,"on_consignee":0,"shortage":0,"acc_shortage":0,"booking":24,"acc_booking":3433,"fulfillment":24,"acc_fulfillment":3433,"transfer_cost":0.0,"port_name":"Montreal","position":{"lat":45.516136,"lng":-73.65683},"status":"surplus"},{"frame_index":279,"name":"ports_8","capacity":10000,"empty":2869,"full":131,"on_shipper":67,"on_consignee":0,"shortage":0,"acc_shortage":0,"booking":45,"acc_booking":6705,"fulfillment":45,"acc_fulfillment":6705,"transfer_cost":0.0,"port_name":"New York","position":{"lat":40.73061,"lng":-73.935242},"status":"surplus"},{"frame_index":279,"name":"ports_9","capacity":10000,"empty":538,"full":1327,"on_shipper":86,"on_consignee":0,"shortage":0,"acc_shortage":0,"booking":46,"acc_booking":6663,"fulfillment":46,"acc_fulfillment":6663,"transfer_cost":0.0,"port_name":"Oakland","position":{"lat":37.804363,"lng":-122.271111},"status":"surplus"},{"frame_index":279,"name":"ports_10","capacity":10000,"empty":1172,"full":424,"on_shipper":33,"on_consignee":0,"shortage":0,"acc_shortage":0,"booking":25,"acc_booking":3417,"fulfillment":25,"acc_fulfillment":3417,"transfer_cost":0.0,"port_name":"Prince Rupert","position":{"lat":54.312519,"lng":-130.305405},"status":"surplus"},{"frame_index":279,"name":"ports_11","capacity":10000,"empty":1378,"full":950,"on_shipper":133,"on_consignee":0,"shortage":0,"acc_shortage":0,"booking":93,"acc_booking":13292,"fulfillment":93,"acc_fulfillment":13292,"transfer_cost":0.0,"port_name":"Pusan","position":{"lat":35.166668,"lng":129.066666},"status":"surplus"},{"frame_index":279,"name":"ports_12","capacity":10000,"empty":1512,"full":1542,"on_shipper":173,"on_consignee":0,"shortage":0,"acc_shortage":0,"booking":141,"acc_booking":17798,"fulfillment":141,"acc_fulfillment":17798,"transfer_cost":0.0,"port_name":"Qingdao","position":{"lat":36.066898,"lng":120.382698},"status":"surplus"},{"frame_index":279,"name":"ports_13","capacity":10000,"empty":277,"full":367,"on_shipper":22,"on_consignee":0,"shortage":0,"acc_shortage":55,"booking":15,"acc_booking":2336,"fulfillment":15,"acc_fulfillment":2281,"transfer_cost":0.0,"port_name":"San Antonio","position":{"lat":29.424349,"lng":-98.491142},"status":"surplus"},{"frame_index":279,"name":"ports_14","capacity":10000,"empty":1019,"full":249,"on_shipper":21,"on_consignee":0,"shortage":0,"acc_shortage":697,"booking":18,"acc_booking":2357,"fulfillment":18,"acc_fulfillment":1660,"transfer_cost":0.0,"port_name":"Santos","position":{"lat":-23.96083,"lng":-46.33361},"status":"surplus"},{"frame_index":279,"name":"ports_15","capacity":10000,"empty":4486,"full":779,"on_shipper":155,"on_consignee":0,"shortage":0,"acc_shortage":0,"booking":115,"acc_booking":15517,"fulfillment":115,"acc_fulfillment":15517,"transfer_cost":0.0,"port_name":"Seattle","position":{"lat":47.608013,"lng":-122.335167},"status":"surplus"},{"frame_index":279,"name":"ports_16","capacity":10000,"empty":2974,"full":1452,"on_shipper":266,"on_consignee":0,"shortage":0,"acc_shortage":0,"booking":179,"acc_booking":22162,"fulfillment":179,"acc_fulfillment":22162,"transfer_cost":0.0,"port_name":"Shanghai","position":{"lat":31.224361,"lng":121.46917},"status":"surplus"},{"frame_index":279,"name":"ports_17","capacity":10000,"empty":1247,"full":333,"on_shipper":97,"on_consignee":156,"shortage":0,"acc_shortage":40,"booking":64,"acc_booking":8937,"fulfillment":64,"acc_fulfillment":8897,"transfer_cost":0.0,"port_name":"Singapore","position":{"lat":1.29027,"lng":103.851959},"status":"surplus"},{"frame_index":279,"name":"ports_18","capacity":10000,"empty":0,"full":393,"on_shipper":40,"on_consignee":0,"shortage":8,"acc_shortage":13,"booking":27,"acc_booking":3412,"fulfillment":19,"acc_fulfillment":3399,"transfer_cost":0.0,"port_name":"Sydney","position":{"lat":-33.865143,"lng":151.2099},"status":"demand"},{"frame_index":279,"name":"ports_19","capacity":10000,"empty":661,"full":496,"on_shipper":47,"on_consignee":0,"shortage":0,"acc_shortage":0,"booking":34,"acc_booking":4553,"fulfillment":34,"acc_fulfillment":4553,"transfer_cost":0.0,"port_name":"Vancouver","position":{"lat":49.246292,"lng":-123.116226},"status":"surplus"},{"frame_index":279,"name":"ports_20","capacity":10000,"empty":2102,"full":812,"on_shipper":182,"on_consignee":4,"shortage":0,"acc_shortage":0,"booking":102,"acc_booking":15289,"fulfillment":102,"acc_fulfillment":15289,"transfer_cost":0.0,"port_name":"Yantian","position":{"lat":26.8533,"lng":119.8575},"status":"surplus"},{"frame_index":279,"name":"ports_21","capacity":10000,"empty":1025,"full":371,"on_shipper":182,"on_consignee":0,"shortage":0,"acc_shortage":492,"booking":116,"acc_booking":14619,"fulfillment":116,"acc_fulfillment":14127,"transfer_cost":0.0,"port_name":"Yokohama","position":{"lat":35.443707,"lng":139.638031},"status":"surplus"}]