[{"frame_index":613,"name":"ports_0","capacity":10000,"empty":3070,"full":6110,"on_shipper":260,"on_consignee":0,"shortage":0,"acc_shortage":522,"booking":189,"acc_booking":77949,"fulfillment":189,"acc_fulfillment":77427,"transfer_cost":0.0,"port_name":"Bremerhaven","position":{"lat":53.549999,"lng":8.583333},"status":"surplus"},{"frame_index":613,"name":"ports_1","capacity":10000,"empty":405,"full":185,"on_shipper":13,"on_consignee":0,"shortage":0,"acc_shortage":0,"booking":11,"acc_booking":5180,"fulfillment":11,"acc_fulfillment":5180,"transfer_cost":0.0,"port_name":"Durban","position":{"lat":-29.8579,"lng":31.0292},"status":"surplus"},{"frame_index":613,"name":"ports_2","capacity":10000,"empty":232,"full":341,"on_shipper":16,"on_consignee":0,"shortage":0,"acc_shortage":233,"booking":11,"acc_booking":5154,"fulfillment":11,"acc_fulfillment":4921,"transfer_cost":0.0,"port_name":"Itagual","position":{"lat":-22.85222,"lng":-43.77528},"status":"surplus"},{"frame_index":613,"name":"ports_3","capacity":10000,"empty":1910,"full":464,"on_shipper":114,"on_consignee":0,"shortage":0,"acc_shortage":0,"booking":67,"acc_booking":29478,"fulfillment":67,"acc_fulfillment":29478,"transfer_cost":0.0,"port_name":"LeHavre","position":{"lat":49.490002,"lng":0.1},"status":"surplus"},{"frame_index":613,"name":"ports_4","capacity":10000,"empty":90,"full":1748,"on_shipper":90,"on_consignee":0,"shortage":0,"acc_shortage":0,"booking":55,"acc_booking":24662,"fulfillment":55,"acc_fulfillment":24662,"transfer_cost":0.0,"port_name":"Los Angeles","position":{"lat":34.052235,"lng":-118.243683},"status":"demand"},{"frame_index":613,"name":"ports_5","capacity":10000,"empty":1849,"full":1052,"on_shipper":76,"on_consignee":0,"shortage":0,"acc_shortage":123,"booking":49,"acc_booking":24685,"fulfillment":49,"acc_fulfillment":24562,"transfer_cost":0.0,"port_name":"Manzanillo","position":{"lat":19.11695,"lng":-104.34214},"status":"surplus"},{"frame_index":613,"name":"ports_6","capacity":10000,"empty":157,"full":451,"on_shipper":29,"on_consignee":0,"shortage":0,"acc_shortage":1259,"booking":18,"acc_booking":7593,"fulfillment":18,"acc_fulfillment":6334,"transfer_cost":0.0,"port_name":"Melbourne","position":{"lat":-37.840935,"lng":144.946457},"status":"surplus"},{"frame_index":613,"name":"ports_7","capacity":10000,"empty":1426,"full":53,"on_shipper":32,"on_consignee":0,"shortage":0,"acc_shortage":0,"booking":17,"acc_booking":7598,"fulfillment":17,"acc_fulfillment":7598,"transfer_cost":0.0,"port_name":"Montreal","position":{"lat":45.516136,"lng":-73.65683},"status":"surplus"},{"frame_index":613,"name":"ports_8","capacity":10000,"empty":2428,"full":449,"on_shipper":45,"on_consignee":0,"shortage":0,"acc_shortage":0,"booking":32,"acc_booking":14848,"fulfillment":32,"acc_fulfillment":14848,"transfer_cost":0.0,"port_name":"New York","position":{"lat":40.73061,"lng":-73.935242},"status":"surplus"},{"frame_index":613,"name":"ports_9","capacity":10000,"empty":790,"full":661,"on_shipper":54,"on_consignee":0,"shortage":0,"acc_shortage":45,"booking":37,"acc_booking":14889,"fulfillment":37,"acc_fulfillment":14844,"transfer_cost":0.0,"port_name":"Oakland","position":{"lat":37.804363,"lng":-122.271111},"status":"surplus"},{"frame_index":613,"name":"ports_10","capacity":10000,"empty":1728,"full":52,"on_shipper":25,"on_consignee":0,"shortage":0,"acc_shortage":314,"booking":14,"acc_booking":7613,"fulfillment":14,"acc_fulfillment":7299,"transfer_cost":0.0,"port_name":"Prince Rupert","position":{"lat":54.312519,"lng":-130.305405},"status":"surplus"},{"frame_index":613,"name":"ports_11","capacity":10000,"empty":3055,"full":636,"on_shipper":109,"on_consignee":0,"shortage":0,"acc_shortage":204,"booking":68,"acc_booking":29415,"fulfillment":68,"acc_fulfillment":29211,"transfer_cost":0.0,"port_name":"Pusan","position":{"lat":35.166668,"lng":129.066666},"status":"surplus"},{"frame_index":613,"name":"ports_12","capacity":10000,"empty":3532,"full":661,"on_shipper":111,"on_consignee":0,"shortage":0,"acc_shortage":0,"booking":79,"acc_booking":39268,"fulfillment":79,"acc_fulfillment":39268,"transfer_cost":0.0,"port_name":"Qingdao","position":{"lat":36.066898,"lng":120.382698},"status":"surplus"},{"frame_index":613,"name":"ports_13","capacity":10000,"empty":116,"full":361,"on_shipper":13,"on_consignee":0,"shortage":0,"acc_shortage":286,"booking":11,"acc_booking":5149,"fulfillment":11,"acc_fulfillment":4863,"transfer_cost":0.0,"port_name":"San Antonio","position":{"lat":29.424349,"lng":-98.491142},"status":"surplus"},{"frame_index":613,"name":"ports_14","capacity":10000,"empty":1230,"full":184,"on_shipper":16,"on_consignee":0,"shortage":0,"acc_shortage":762,"booking":10,"acc_booking":5196,"fulfillment":10,"acc_fulfillment":4434,"transfer_cost":0.0,"port_name":"Santos","position":{"lat":-23.96083,"lng":-46.33361},"status":"surplus"},{"frame_index":613,"name":"ports_15","capacity":10000,"empty":3012,"full":1507,"on_shipper":99,"on_consignee":0,"shortage":0,"acc_shortage":0,"booking":80,"acc_booking":34338,"fulfillment":80,"acc_fulfillment":34338,"transfer_cost":0.0,"port_name":"Seattle","position":{"lat":47.608013,"lng":-122.335167},"status":"surplus"},{"frame_index":613,"name":"ports_16","capacity":10000,"empty":1866,"full":1254,"on_shipper":176,"on_consignee":0,"shortage":0,"acc_shortage":470,"booking":120,"acc_booking":48896,"fulfillment":120,"acc_fulfillment":48426,"transfer_cost":0.0,"port_name":"Shanghai","position":{"lat":31.224361,"lng":121.46917},"status":"surplus"},{"frame_index":613,"name":"ports_17","capacity":10000,"empty":528,"full":536,"on_shipper":59,"on_consignee":0,"shortage":0,"acc_shortage":40,"booking":46,"acc_booking":19790,"fulfillment":46,"acc_fulfillment":19750,"transfer_cost":0.0,"port_name":"Singapore","position":{"lat":1.29027,"lng":103.851959},"status":"surplus"},{"frame_index":613,"name":"ports_18","capacity":10000,"empty":502,"full":268,"on_shipper":31,"on_consignee":0,"shortage":0,"acc_shortage":957,"booking":18,"acc_booking":7562,"fulfillment":18,"acc_fulfillment":6605,"transfer_cost":0.0,"port_name":"Sydney","position":{"lat":-33.865143,"lng":151.2099},"status":"surplus"},{"frame_index":613,"name":"ports_19","capacity":10000,"empty":1098,"full":255,"on_shipper":30,"on_consignee":0,"shortage":0,"acc_shortage":0,"booking":23,"acc_booking":10091,"fulfillment":23,"acc_fulfillment":10091,"transfer_cost":0.0,"port_name":"Vancouver","position":{"lat":49.246292,"lng":-123.116226},"status":"surplus"},{"frame_index":613,"name":"ports_20","capacity":10000,"empty":605,"full":334,"on_shipper":108,"on_consignee":176,"shortage":0,"acc_shortage":395,"booking":76,"acc_booking":34092,"fulfillment":76,"acc_fulfillment":33697,"transfer_cost":59.0,"port_name":"Yantian","position":{"lat":26.8533,"lng":119.8575},"status":"surplus"},{"frame_index":613,"name":"ports_21","capacity":10000,"empty":2414,"full":69,"on_shipper":121,"on_consignee":0,"shortage":0,"acc_shortage":3563,"booking":79,"acc_booking":32489,"fulfillment":79,"acc_fulfillment":28926,"transfer_cost":0.0,"port_name":"Yokohama","position":{"lat":35.443707,"lng":139.638031},"status":"surplus"}]