[{"frame_index":1048,"name":"ports_0","capacity":10000,"empty":6134,"full":353,"on_shipper":323,"on_consignee":148,"shortage":0,"acc_shortage":861,"booking":193,"acc_booking":133483,"fulfillment":193,"acc_fulfillment":132622,"transfer_cost":0.0,"port_name":"Bremerhaven","position":{"lat":53.549999,"lng":8.583333},"status":"surplus"},{"frame_index":1048,"name":"ports_1","capacity":10000,"empty":502,"full":96,"on_shipper":18,"on_consignee":0,"shortage":0,"acc_shortage":113,"booking":14,"acc_booking":8872,"fulfillment":14,"acc_fulfillment":8759,"transfer_cost":0.0,"port_name":"Durban","position":{"lat":-29.8579,"lng":31.0292},"status":"surplus"},{"frame_index":1048,"name":"ports_2","capacity":10000,"empty":715,"full":30,"on_shipper":17,"on_consignee":0,"shortage":0,"acc_shortage":298,"booking":15,"acc_booking":8840,"fulfillment":15,"acc_fulfillment":8542,"transfer_cost":0.0,"port_name":"Itagual","position":{"lat":-22.85222,"lng":-43.77528},"status":"surplus"},{"frame_index":1048,"name":"ports_3","capacity":10000,"empty":6133,"full":606,"on_shipper":115,"on_consignee":387,"shortage":0,"acc_shortage":0,"booking":86,"acc_booking":50501,"fulfillment":86,"acc_fulfillment":50501,"transfer_cost":0.0,"port_name":"LeHavre","position":{"lat":49.490002,"lng":0.1},"status":"surplus"},{"frame_index":1048,"name":"ports_4","capacity":10000,"empty":2723,"full":398,"on_shipper":91,"on_consignee":0,"shortage":0,"acc_shortage":290,"booking":72,"acc_booking":42290,"fulfillment":72,"acc_fulfillment":42000,"transfer_cost":0.0,"port_name":"Los Angeles","position":{"lat":34.052235,"lng":-118.243683},"status":"surplus"},{"frame_index":1048,"name":"ports_5","capacity":10000,"empty":1937,"full":409,"on_shipper":113,"on_consignee":0,"shortage":0,"acc_shortage":194,"booking":79,"acc_booking":42313,"fulfillment":79,"acc_fulfillment":42119,"transfer_cost":0.0,"port_name":"Manzanillo","position":{"lat":19.11695,"lng":-104.34214},"status":"surplus"},{"frame_index":1048,"name":"ports_6","capacity":10000,"empty":437,"full":123,"on_shipper":28,"on_consignee":24,"shortage":0,"acc_shortage":2108,"booking":22,"acc_booking":13025,"fulfillment":22,"acc_fulfillment":10917,"transfer_cost":0.0,"port_name":"Melbourne","position":{"lat":-37.840935,"lng":144.946457},"status":"surplus"},{"frame_index":1048,"name":"ports_7","capacity":10000,"empty":1451,"full":249,"on_shipper":38,"on_consignee":0,"shortage":0,"acc_shortage":0,"booking":22,"acc_booking":13030,"fulfillment":22,"acc_fulfillment":13030,"transfer_cost":0.0,"port_name":"Montreal","position":{"lat":45.516136,"lng":-73.65683},"status":"surplus"},{"frame_index":1048,"name":"ports_8","capacity":10000,"empty":4874,"full":498,"on_shipper":57,"on_consignee":0,"shortage":0,"acc_shortage":136,"booking":41,"acc_booking":25461,"fulfillment":41,"acc_fulfillment":25325,"transfer_cost":0.0,"port_name":"New York","position":{"lat":40.73061,"lng":-73.935242},"status":"surplus"},{"frame_index":1048,"name":"ports_9","capacity":10000,"empty":1218,"full":570,"on_shipper":58,"on_consignee":0,"shortage":0,"acc_shortage":45,"booking":42,"acc_booking":25504,"fulfillment":42,"acc_fulfillment":25459,"transfer_cost":0.0,"port_name":"Oakland","position":{"lat":37.804363,"lng":-122.271111},"status":"surplus"},{"frame_index":1048,"name":"ports_10","capacity":10000,"empty":1290,"full":299,"on_shipper":34,"on_consignee":0,"shortage":0,"acc_shortage":314,"booking":26,"acc_booking":13035,"fulfillment":26,"acc_fulfillment":12721,"transfer_cost":0.0,"port_name":"Prince Rupert","position":{"lat":54.312519,"lng":-130.305405},"status":"surplus"},{"frame_index":1048,"name":"ports_11","capacity":10000,"empty":2149,"full":1808,"on_shipper":129,"on_consignee":0,"shortage":0,"acc_shortage":204,"booking":85,"acc_booking":50443,"fulfillment":85,"acc_fulfillment":50239,"transfer_cost":0.0,"port_name":"Pusan","position":{"lat":35.166668,"lng":129.066666},"status":"surplus"},{"frame_index":1048,"name":"ports_12","capacity":10000,"empty":4988,"full":639,"on_shipper":139,"on_consignee":0,"shortage":0,"acc_shortage":0,"booking":106,"acc_booking":67428,"fulfillment":106,"acc_fulfillment":67428,"transfer_cost":0.0,"port_name":"Qingdao","position":{"lat":36.066898,"lng":120.382698},"status":"surplus"},{"frame_index":1048,"name":"ports_13","capacity":10000,"empty":88,"full":63,"on_shipper":14,"on_consignee":277,"shortage":0,"acc_shortage":459,"booking":14,"acc_booking":8844,"fulfillment":14,"acc_fulfillment":8385,"transfer_cost":0.0,"port_name":"San Antonio","position":{"lat":29.424349,"lng":-98.491142},"status":"balance"},{"frame_index":1048,"name":"ports_14","capacity":10000,"empty":139,"full":219,"on_shipper":20,"on_consignee":0,"shortage":0,"acc_shortage":877,"booking":15,"acc_booking":8900,"fulfillment":15,"acc_fulfillment":8023,"transfer_cost":0.0,"port_name":"Santos","position":{"lat":-23.96083,"lng":-46.33361},"status":"surplus"},{"frame_index":1048,"name":"ports_15","capacity":10000,"empty":2641,"full":658,"on_shipper":151,"on_consignee":473,"shortage":0,"acc_shortage":1489,"booking":99,"acc_booking":58877,"fulfillment":99,"acc_fulfillment":57388,"transfer_cost":0.0,"port_name":"Seattle","position":{"lat":47.608013,"lng":-122.335167},"status":"surplus"},{"frame_index":1048,"name":"ports_16","capacity":10000,"empty":3110,"full":1645,"on_shipper":206,"on_consignee":68,"shortage":0,"acc_shortage":817,"booking":131,"acc_booking":84025,"fulfillment":131,"acc_fulfillment":83208,"transfer_cost":0.0,"port_name":"Shanghai","position":{"lat":31.224361,"lng":121.46917},"status":"surplus"},{"frame_index":1048,"name":"ports_17","capacity":10000,"empty":693,"full":752,"on_shipper":85,"on_consignee":0,"shortage":0,"acc_shortage":619,"booking":57,"acc_booking":33913,"fulfillment":57,"acc_fulfillment":33294,"transfer_cost":0.0,"port_name":"Singapore","position":{"lat":1.29027,"lng":103.851959},"status":"surplus"},{"frame_index":1048,"name":"ports_18","capacity":10000,"empty":680,"full":274,"on_shipper":30,"on_consignee":0,"shortage":0,"acc_shortage":1374,"booking":19,"acc_booking":13029,"fulfillment":19,"acc_fulfillment":11655,"transfer_cost":0.0,"port_name":"Sydney","position":{"lat":-33.865143,"lng":151.2099},"status":"surplus"},{"frame_index":1048,"name":"ports_19","capacity":10000,"empty":1461,"full":210,"on_shipper":40,"on_consignee":0,"shortage":0,"acc_shortage":0,"booking":27,"acc_booking":17241,"fulfillment":27,"acc_fulfillment":17241,"transfer_cost":0.0,"port_name":"Vancouver","position":{"lat":49.246292,"lng":-123.116226},"status":"surplus"},{"frame_index":1048,"name":"ports_20","capacity":10000,"empty":690,"full":1453,"on_shipper":140,"on_consignee":192,"shortage":0,"acc_shortage":1425,"booking":102,"acc_booking":58612,"fulfillment":102,"acc_fulfillment":57187,"transfer_cost":3.0,"port_name":"Yantian","position":{"lat":26.8533,"lng":119.8575},"status":"surplus"},{"frame_index":1048,"name":"ports_21","capacity":10000,"empty":0,"full":1095,"on_shipper":0,"on_consignee":0,"shortage":107,"acc_shortage":8046,"booking":107,"acc_booking":55701,"fulfillment":0,"acc_fulfillment":47655,"transfer_cost":0.0,"port_name":"Yokohama","position":{"lat":35.443707,"lng":139.638031},"status":"demand"}]