[{"frame_index":707,"name":"ports_0","capacity":10000,"empty":4896,"full":1809,"on_shipper":183,"on_consignee":0,"shortage":0,"acc_shortage":522,"booking":89,"acc_booking":89261,"fulfillment":89,"acc_fulfillment":88739,"transfer_cost":0.0,"port_name":"Bremerhaven","position":{"lat":53.549999,"lng":8.583333},"status":"surplus"},{"frame_index":707,"name":"ports_1","capacity":10000,"empty":288,"full":179,"on_shipper":9,"on_consignee":0,"shortage":0,"acc_shortage":0,"booking":6,"acc_booking":5935,"fulfillment":6,"acc_fulfillment":5935,"transfer_cost":0.0,"port_name":"Durban","position":{"lat":-29.8579,"lng":31.0292},"status":"surplus"},{"frame_index":707,"name":"ports_2","capacity":10000,"empty":213,"full":307,"on_shipper":15,"on_consignee":0,"shortage":0,"acc_shortage":298,"booking":7,"acc_booking":5915,"fulfillment":7,"acc_fulfillment":5617,"transfer_cost":0.0,"port_name":"Itagual","position":{"lat":-22.85222,"lng":-43.77528},"status":"surplus"},{"frame_index":707,"name":"ports_3","capacity":10000,"empty":2273,"full":889,"on_shipper":86,"on_consignee":0,"shortage":0,"acc_shortage":0,"booking":36,"acc_booking":33768,"fulfillment":36,"acc_fulfillment":33768,"transfer_cost":0.0,"port_name":"LeHavre","position":{"lat":49.490002,"lng":0.1},"status":"surplus"},{"frame_index":707,"name":"ports_4","capacity":10000,"empty":1084,"full":542,"on_shipper":52,"on_consignee":0,"shortage":0,"acc_shortage":150,"booking":31,"acc_booking":28265,"fulfillment":31,"acc_fulfillment":28115,"transfer_cost":0.0,"port_name":"Los Angeles","position":{"lat":34.052235,"lng":-118.243683},"status":"surplus"},{"frame_index":707,"name":"ports_5","capacity":10000,"empty":2564,"full":557,"on_shipper":51,"on_consignee":0,"shortage":0,"acc_shortage":123,"booking":33,"acc_booking":28333,"fulfillment":33,"acc_fulfillment":28210,"transfer_cost":0.0,"port_name":"Manzanillo","position":{"lat":19.11695,"lng":-104.34214},"status":"surplus"},{"frame_index":707,"name":"ports_6","capacity":10000,"empty":486,"full":153,"on_shipper":10,"on_consignee":0,"shortage":0,"acc_shortage":1336,"booking":10,"acc_booking":8703,"fulfillment":10,"acc_fulfillment":7367,"transfer_cost":0.0,"port_name":"Melbourne","position":{"lat":-37.840935,"lng":144.946457},"status":"surplus"},{"frame_index":707,"name":"ports_7","capacity":10000,"empty":464,"full":307,"on_shipper":16,"on_consignee":0,"shortage":0,"acc_shortage":0,"booking":9,"acc_booking":8709,"fulfillment":9,"acc_fulfillment":8709,"transfer_cost":0.0,"port_name":"Montreal","position":{"lat":45.516136,"lng":-73.65683},"status":"surplus"},{"frame_index":707,"name":"ports_8","capacity":10000,"empty":4283,"full":666,"on_shipper":47,"on_consignee":0,"shortage":0,"acc_shortage":0,"booking":17,"acc_booking":17010,"fulfillment":17,"acc_fulfillment":17010,"transfer_cost":0.0,"port_name":"New York","position":{"lat":40.73061,"lng":-73.935242},"status":"surplus"},{"frame_index":707,"name":"ports_9","capacity":10000,"empty":1434,"full":328,"on_shipper":31,"on_consignee":0,"shortage":0,"acc_shortage":45,"booking":19,"acc_booking":17074,"fulfillment":19,"acc_fulfillment":17029,"transfer_cost":0.0,"port_name":"Oakland","position":{"lat":37.804363,"lng":-122.271111},"status":"surplus"},{"frame_index":707,"name":"ports_10","capacity":10000,"empty":1692,"full":140,"on_shipper":13,"on_consignee":0,"shortage":0,"acc_shortage":314,"booking":10,"acc_booking":8719,"fulfillment":10,"acc_fulfillment":8405,"transfer_cost":0.0,"port_name":"Prince Rupert","position":{"lat":54.312519,"lng":-130.305405},"status":"surplus"},{"frame_index":707,"name":"ports_11","capacity":10000,"empty":3073,"full":1808,"on_shipper":83,"on_consignee":0,"shortage":0,"acc_shortage":204,"booking":37,"acc_booking":33737,"fulfillment":37,"acc_fulfillment":33533,"transfer_cost":0.0,"port_name":"Pusan","position":{"lat":35.166668,"lng":129.066666},"status":"surplus"},{"frame_index":707,"name":"ports_12","capacity":10000,"empty":550,"full":2307,"on_shipper":69,"on_consignee":126,"shortage":0,"acc_shortage":0,"booking":49,"acc_booking":45020,"fulfillment":49,"acc_fulfillment":45020,"transfer_cost":0.0,"port_name":"Qingdao","position":{"lat":36.066898,"lng":120.382698},"status":"surplus"},{"frame_index":707,"name":"ports_13","capacity":10000,"empty":239,"full":0,"on_shipper":11,"on_consignee":367,"shortage":0,"acc_shortage":325,"booking":7,"acc_booking":5918,"fulfillment":7,"acc_fulfillment":5593,"transfer_cost":103.0,"port_name":"San Antonio","position":{"lat":29.424349,"lng":-98.491142},"status":"surplus"},{"frame_index":707,"name":"ports_14","capacity":10000,"empty":849,"full":44,"on_shipper":15,"on_consignee":0,"shortage":0,"acc_shortage":762,"booking":7,"acc_booking":5956,"fulfillment":7,"acc_fulfillment":5194,"transfer_cost":0.0,"port_name":"Santos","position":{"lat":-23.96083,"lng":-46.33361},"status":"surplus"},{"frame_index":707,"name":"ports_15","capacity":10000,"empty":3140,"full":1083,"on_shipper":60,"on_consignee":0,"shortage":0,"acc_shortage":0,"booking":41,"acc_booking":39344,"fulfillment":41,"acc_fulfillment":39344,"transfer_cost":0.0,"port_name":"Seattle","position":{"lat":47.608013,"lng":-122.335167},"status":"surplus"},{"frame_index":707,"name":"ports_16","capacity":10000,"empty":1572,"full":2004,"on_shipper":132,"on_consignee":0,"shortage":0,"acc_shortage":712,"booking":68,"acc_booking":56037,"fulfillment":68,"acc_fulfillment":55325,"transfer_cost":0.0,"port_name":"Shanghai","position":{"lat":31.224361,"lng":121.46917},"status":"surplus"},{"frame_index":707,"name":"ports_17","capacity":10000,"empty":1941,"full":243,"on_shipper":49,"on_consignee":265,"shortage":0,"acc_shortage":283,"booking":25,"acc_booking":22692,"fulfillment":25,"acc_fulfillment":22409,"transfer_cost":338.0,"port_name":"Singapore","position":{"lat":1.29027,"lng":103.851959},"status":"surplus"},{"frame_index":707,"name":"ports_18","capacity":10000,"empty":143,"full":332,"on_shipper":16,"on_consignee":0,"shortage":0,"acc_shortage":1082,"booking":11,"acc_booking":8682,"fulfillment":11,"acc_fulfillment":7600,"transfer_cost":0.0,"port_name":"Sydney","position":{"lat":-33.865143,"lng":151.2099},"status":"surplus"},{"frame_index":707,"name":"ports_19","capacity":10000,"empty":1247,"full":233,"on_shipper":18,"on_consignee":0,"shortage":0,"acc_shortage":0,"booking":12,"acc_booking":11558,"fulfillment":12,"acc_fulfillment":11558,"transfer_cost":0.0,"port_name":"Vancouver","position":{"lat":49.246292,"lng":-123.116226},"status":"surplus"},{"frame_index":707,"name":"ports_20","capacity":10000,"empty":464,"full":1277,"on_shipper":73,"on_consignee":0,"shortage":0,"acc_shortage":395,"booking":39,"acc_booking":39103,"fulfillment":39,"acc_fulfillment":38708,"transfer_cost":0.0,"port_name":"Yantian","position":{"lat":26.8533,"lng":119.8575},"status":"surplus"},{"frame_index":707,"name":"ports_21","capacity":10000,"empty":391,"full":94,"on_shipper":72,"on_consignee":959,"shortage":0,"acc_shortage":4175,"booking":38,"acc_booking":37175,"fulfillment":38,"acc_fulfillment":33000,"transfer_cost":36.0,"port_name":"Yokohama","position":{"lat":35.443707,"lng":139.638031},"status":"surplus"}]