[{"frame_index":1096,"name":"ports_0","capacity":10000,"empty":0,"full":4034,"on_shipper":0,"on_consignee":0,"shortage":166,"acc_shortage":2364,"booking":166,"acc_booking":142349,"fulfillment":0,"acc_fulfillment":139985,"transfer_cost":0.0,"port_name":"Bremerhaven","position":{"lat":53.549999,"lng":8.583333},"status":"demand"},{"frame_index":1096,"name":"ports_1","capacity":10000,"empty":146,"full":202,"on_shipper":13,"on_consignee":191,"shortage":0,"acc_shortage":113,"booking":10,"acc_booking":9456,"fulfillment":10,"acc_fulfillment":9343,"transfer_cost":0.0,"port_name":"Durban","position":{"lat":-29.8579,"lng":31.0292},"status":"surplus"},{"frame_index":1096,"name":"ports_2","capacity":10000,"empty":738,"full":370,"on_shipper":12,"on_consignee":0,"shortage":0,"acc_shortage":298,"booking":9,"acc_booking":9419,"fulfillment":9,"acc_fulfillment":9121,"transfer_cost":0.0,"port_name":"Itagual","position":{"lat":-22.85222,"lng":-43.77528},"status":"surplus"},{"frame_index":1096,"name":"ports_3","capacity":10000,"empty":2842,"full":2102,"on_shipper":75,"on_consignee":484,"shortage":0,"acc_shortage":0,"booking":58,"acc_booking":53823,"fulfillment":58,"acc_fulfillment":53823,"transfer_cost":0.0,"port_name":"LeHavre","position":{"lat":49.490002,"lng":0.1},"status":"surplus"},{"frame_index":1096,"name":"ports_4","capacity":10000,"empty":1908,"full":263,"on_shipper":54,"on_consignee":0,"shortage":0,"acc_shortage":290,"booking":49,"acc_booking":45077,"fulfillment":49,"acc_fulfillment":44787,"transfer_cost":0.0,"port_name":"Los Angeles","position":{"lat":34.052235,"lng":-118.243683},"status":"surplus"},{"frame_index":1096,"name":"ports_5","capacity":10000,"empty":617,"full":1041,"on_shipper":66,"on_consignee":0,"shortage":0,"acc_shortage":194,"booking":54,"acc_booking":45157,"fulfillment":54,"acc_fulfillment":44963,"transfer_cost":0.0,"port_name":"Manzanillo","position":{"lat":19.11695,"lng":-104.34214},"status":"surplus"},{"frame_index":1096,"name":"ports_6","capacity":10000,"empty":0,"full":608,"on_shipper":0,"on_consignee":0,"shortage":15,"acc_shortage":2349,"booking":15,"acc_booking":13877,"fulfillment":0,"acc_fulfillment":11528,"transfer_cost":0.0,"port_name":"Melbourne","position":{"lat":-37.840935,"lng":144.946457},"status":"demand"},{"frame_index":1096,"name":"ports_7","capacity":10000,"empty":1360,"full":110,"on_shipper":29,"on_consignee":0,"shortage":0,"acc_shortage":0,"booking":15,"acc_booking":13877,"fulfillment":15,"acc_fulfillment":13877,"transfer_cost":0.0,"port_name":"Montreal","position":{"lat":45.516136,"lng":-73.65683},"status":"surplus"},{"frame_index":1096,"name":"ports_8","capacity":10000,"empty":4117,"full":233,"on_shipper":55,"on_consignee":0,"shortage":0,"acc_shortage":136,"booking":28,"acc_booking":27143,"fulfillment":28,"acc_fulfillment":27007,"transfer_cost":0.0,"port_name":"New York","position":{"lat":40.73061,"lng":-73.935242},"status":"surplus"},{"frame_index":1096,"name":"ports_9","capacity":10000,"empty":873,"full":1336,"on_shipper":29,"on_consignee":0,"shortage":0,"acc_shortage":45,"booking":29,"acc_booking":27201,"fulfillment":29,"acc_fulfillment":27156,"transfer_cost":0.0,"port_name":"Oakland","position":{"lat":37.804363,"lng":-122.271111},"status":"surplus"},{"frame_index":1096,"name":"ports_10","capacity":10000,"empty":1264,"full":409,"on_shipper":26,"on_consignee":0,"shortage":0,"acc_shortage":314,"booking":13,"acc_booking":13864,"fulfillment":13,"acc_fulfillment":13550,"transfer_cost":0.0,"port_name":"Prince Rupert","position":{"lat":54.312519,"lng":-130.305405},"status":"surplus"},{"frame_index":1096,"name":"ports_11","capacity":10000,"empty":1686,"full":1063,"on_shipper":74,"on_consignee":0,"shortage":0,"acc_shortage":204,"booking":57,"acc_booking":53790,"fulfillment":57,"acc_fulfillment":53586,"transfer_cost":0.0,"port_name":"Pusan","position":{"lat":35.166668,"lng":129.066666},"status":"surplus"},{"frame_index":1096,"name":"ports_12","capacity":10000,"empty":2018,"full":1856,"on_shipper":98,"on_consignee":48,"shortage":0,"acc_shortage":0,"booking":76,"acc_booking":71812,"fulfillment":76,"acc_fulfillment":71812,"transfer_cost":0.0,"port_name":"Qingdao","position":{"lat":36.066898,"lng":120.382698},"status":"surplus"},{"frame_index":1096,"name":"ports_13","capacity":10000,"empty":191,"full":350,"on_shipper":14,"on_consignee":0,"shortage":0,"acc_shortage":459,"booking":10,"acc_booking":9419,"fulfillment":10,"acc_fulfillment":8960,"transfer_cost":0.0,"port_name":"San Antonio","position":{"lat":29.424349,"lng":-98.491142},"status":"surplus"},{"frame_index":1096,"name":"ports_14","capacity":10000,"empty":151,"full":157,"on_shipper":14,"on_consignee":0,"shortage":0,"acc_shortage":1294,"booking":10,"acc_booking":9474,"fulfillment":10,"acc_fulfillment":8180,"transfer_cost":0.0,"port_name":"Santos","position":{"lat":-23.96083,"lng":-46.33361},"status":"surplus"},{"frame_index":1096,"name":"ports_15","capacity":10000,"empty":0,"full":3323,"on_shipper":0,"on_consignee":0,"shortage":67,"acc_shortage":1899,"booking":67,"acc_booking":62765,"fulfillment":0,"acc_fulfillment":60866,"transfer_cost":0.0,"port_name":"Seattle","position":{"lat":47.608013,"lng":-122.335167},"status":"demand"},{"frame_index":1096,"name":"ports_16","capacity":10000,"empty":1568,"full":1910,"on_shipper":148,"on_consignee":276,"shortage":0,"acc_shortage":817,"booking":112,"acc_booking":89495,"fulfillment":112,"acc_fulfillment":88678,"transfer_cost":0.0,"port_name":"Shanghai","position":{"lat":31.224361,"lng":121.46917},"status":"surplus"},{"frame_index":1096,"name":"ports_17","capacity":10000,"empty":909,"full":1186,"on_shipper":52,"on_consignee":0,"shortage":0,"acc_shortage":619,"booking":39,"acc_booking":36141,"fulfillment":39,"acc_fulfillment":35522,"transfer_cost":0.0,"port_name":"Singapore","position":{"lat":1.29027,"lng":103.851959},"status":"surplus"},{"frame_index":1096,"name":"ports_18","capacity":10000,"empty":491,"full":65,"on_shipper":16,"on_consignee":0,"shortage":0,"acc_shortage":1374,"booking":16,"acc_booking":13867,"fulfillment":16,"acc_fulfillment":12493,"transfer_cost":0.0,"port_name":"Sydney","position":{"lat":-33.865143,"lng":151.2099},"status":"surplus"},{"frame_index":1096,"name":"ports_19","capacity":10000,"empty":536,"full":929,"on_shipper":31,"on_consignee":0,"shortage":0,"acc_shortage":0,"booking":18,"acc_booking":18374,"fulfillment":18,"acc_fulfillment":18374,"transfer_cost":0.0,"port_name":"Vancouver","position":{"lat":49.246292,"lng":-123.116226},"status":"surplus"},{"frame_index":1096,"name":"ports_20","capacity":10000,"empty":141,"full":1504,"on_shipper":116,"on_consignee":386,"shortage":0,"acc_shortage":2447,"booking":75,"acc_booking":62577,"fulfillment":75,"acc_fulfillment":60130,"transfer_cost":4.0,"port_name":"Yantian","position":{"lat":26.8533,"lng":119.8575},"status":"demand"},{"frame_index":1096,"name":"ports_21","capacity":10000,"empty":886,"full":1077,"on_shipper":89,"on_consignee":0,"shortage":0,"acc_shortage":10285,"booking":69,"acc_booking":59626,"fulfillment":69,"acc_fulfillment":49341,"transfer_cost":0.0,"port_name":"Yokohama","position":{"lat":35.443707,"lng":139.638031},"status":"surplus"}]