[{"frame_index":848,"name":"ports_0","capacity":10000,"empty":3653,"full":556,"on_shipper":86,"on_consignee":829,"shortage":0,"acc_shortage":522,"booking":19,"acc_booking":109194,"fulfillment":19,"acc_fulfillment":108672,"transfer_cost":1565.0,"port_name":"Bremerhaven","position":{"lat":53.549999,"lng":8.583333},"status":"surplus"},{"frame_index":848,"name":"ports_1","capacity":10000,"empty":257,"full":38,"on_shipper":6,"on_consignee":0,"shortage":0,"acc_shortage":10,"booking":2,"acc_booking":7262,"fulfillment":2,"acc_fulfillment":7252,"transfer_cost":0.0,"port_name":"Durban","position":{"lat":-29.8579,"lng":31.0292},"status":"surplus"},{"frame_index":848,"name":"ports_2","capacity":10000,"empty":644,"full":62,"on_shipper":2,"on_consignee":0,"shortage":0,"acc_shortage":298,"booking":2,"acc_booking":7229,"fulfillment":2,"acc_fulfillment":6931,"transfer_cost":0.0,"port_name":"Itagual","position":{"lat":-22.85222,"lng":-43.77528},"status":"surplus"},{"frame_index":848,"name":"ports_3","capacity":10000,"empty":5210,"full":702,"on_shipper":24,"on_consignee":0,"shortage":0,"acc_shortage":0,"booking":7,"acc_booking":41356,"fulfillment":7,"acc_fulfillment":41356,"transfer_cost":0.0,"port_name":"LeHavre","position":{"lat":49.490002,"lng":0.1},"status":"surplus"},{"frame_index":848,"name":"ports_4","capacity":10000,"empty":2401,"full":1236,"on_shipper":12,"on_consignee":0,"shortage":0,"acc_shortage":290,"booking":6,"acc_booking":34626,"fulfillment":6,"acc_fulfillment":34336,"transfer_cost":0.0,"port_name":"Los Angeles","position":{"lat":34.052235,"lng":-118.243683},"status":"surplus"},{"frame_index":848,"name":"ports_5","capacity":10000,"empty":2001,"full":838,"on_shipper":15,"on_consignee":0,"shortage":0,"acc_shortage":123,"booking":5,"acc_booking":34759,"fulfillment":5,"acc_fulfillment":34636,"transfer_cost":0.0,"port_name":"Manzanillo","position":{"lat":19.11695,"lng":-104.34214},"status":"surplus"},{"frame_index":848,"name":"ports_6","capacity":10000,"empty":375,"full":120,"on_shipper":11,"on_consignee":0,"shortage":0,"acc_shortage":1654,"booking":2,"acc_booking":10655,"fulfillment":2,"acc_fulfillment":9001,"transfer_cost":0.0,"port_name":"Melbourne","position":{"lat":-37.840935,"lng":144.946457},"status":"surplus"},{"frame_index":848,"name":"ports_7","capacity":10000,"empty":876,"full":25,"on_shipper":2,"on_consignee":0,"shortage":0,"acc_shortage":0,"booking":2,"acc_booking":10672,"fulfillment":2,"acc_fulfillment":10672,"transfer_cost":0.0,"port_name":"Montreal","position":{"lat":45.516136,"lng":-73.65683},"status":"surplus"},{"frame_index":848,"name":"ports_8","capacity":10000,"empty":2791,"full":993,"on_shipper":14,"on_consignee":0,"shortage":0,"acc_shortage":136,"booking":4,"acc_booking":20840,"fulfillment":4,"acc_fulfillment":20704,"transfer_cost":0.0,"port_name":"New York","position":{"lat":40.73061,"lng":-73.935242},"status":"surplus"},{"frame_index":848,"name":"ports_9","capacity":10000,"empty":1137,"full":455,"on_shipper":11,"on_consignee":0,"shortage":0,"acc_shortage":45,"booking":3,"acc_booking":20871,"fulfillment":3,"acc_fulfillment":20826,"transfer_cost":0.0,"port_name":"Oakland","position":{"lat":37.804363,"lng":-122.271111},"status":"surplus"},{"frame_index":848,"name":"ports_10","capacity":10000,"empty":798,"full":33,"on_shipper":4,"on_consignee":0,"shortage":0,"acc_shortage":314,"booking":2,"acc_booking":10697,"fulfillment":2,"acc_fulfillment":10383,"transfer_cost":0.0,"port_name":"Prince Rupert","position":{"lat":54.312519,"lng":-130.305405},"status":"surplus"},{"frame_index":848,"name":"ports_11","capacity":10000,"empty":1553,"full":1753,"on_shipper":24,"on_consignee":36,"shortage":0,"acc_shortage":204,"booking":6,"acc_booking":41310,"fulfillment":6,"acc_fulfillment":41106,"transfer_cost":0.0,"port_name":"Pusan","position":{"lat":35.166668,"lng":129.066666},"status":"surplus"},{"frame_index":848,"name":"ports_12","capacity":10000,"empty":2235,"full":3294,"on_shipper":34,"on_consignee":0,"shortage":0,"acc_shortage":0,"booking":8,"acc_booking":55186,"fulfillment":8,"acc_fulfillment":55186,"transfer_cost":0.0,"port_name":"Qingdao","position":{"lat":36.066898,"lng":120.382698},"status":"surplus"},{"frame_index":848,"name":"ports_13","capacity":10000,"empty":509,"full":14,"on_shipper":4,"on_consignee":0,"shortage":0,"acc_shortage":449,"booking":2,"acc_booking":7238,"fulfillment":2,"acc_fulfillment":6789,"transfer_cost":0.0,"port_name":"San Antonio","position":{"lat":29.424349,"lng":-98.491142},"status":"surplus"},{"frame_index":848,"name":"ports_14","capacity":10000,"empty":371,"full":242,"on_shipper":4,"on_consignee":0,"shortage":0,"acc_shortage":819,"booking":1,"acc_booking":7279,"fulfillment":1,"acc_fulfillment":6460,"transfer_cost":0.0,"port_name":"Santos","position":{"lat":-23.96083,"lng":-46.33361},"status":"surplus"},{"frame_index":848,"name":"ports_15","capacity":10000,"empty":810,"full":1999,"on_shipper":41,"on_consignee":23,"shortage":0,"acc_shortage":0,"booking":8,"acc_booking":48243,"fulfillment":8,"acc_fulfillment":48243,"transfer_cost":0.0,"port_name":"Seattle","position":{"lat":47.608013,"lng":-122.335167},"status":"surplus"},{"frame_index":848,"name":"ports_16","capacity":10000,"empty":1364,"full":2151,"on_shipper":50,"on_consignee":0,"shortage":0,"acc_shortage":760,"booking":10,"acc_booking":68654,"fulfillment":10,"acc_fulfillment":67894,"transfer_cost":0.0,"port_name":"Shanghai","position":{"lat":31.224361,"lng":121.46917},"status":"surplus"},{"frame_index":848,"name":"ports_17","capacity":10000,"empty":1272,"full":847,"on_shipper":11,"on_consignee":0,"shortage":0,"acc_shortage":283,"booking":5,"acc_booking":27773,"fulfillment":5,"acc_fulfillment":27490,"transfer_cost":0.0,"port_name":"Singapore","position":{"lat":1.29027,"lng":103.851959},"status":"surplus"},{"frame_index":848,"name":"ports_18","capacity":10000,"empty":603,"full":637,"on_shipper":10,"on_consignee":0,"shortage":0,"acc_shortage":1374,"booking":2,"acc_booking":10679,"fulfillment":2,"acc_fulfillment":9305,"transfer_cost":0.0,"port_name":"Sydney","position":{"lat":-33.865143,"lng":151.2099},"status":"surplus"},{"frame_index":848,"name":"ports_19","capacity":10000,"empty":1121,"full":380,"on_shipper":9,"on_consignee":0,"shortage":0,"acc_shortage":0,"booking":3,"acc_booking":14133,"fulfillment":3,"acc_fulfillment":14133,"transfer_cost":0.0,"port_name":"Vancouver","position":{"lat":49.246292,"lng":-123.116226},"status":"surplus"},{"frame_index":848,"name":"ports_20","capacity":10000,"empty":814,"full":1979,"on_shipper":27,"on_consignee":0,"shortage":0,"acc_shortage":942,"booking":3,"acc_booking":47958,"fulfillment":3,"acc_fulfillment":47016,"transfer_cost":0.0,"port_name":"Yantian","position":{"lat":26.8533,"lng":119.8575},"status":"surplus"},{"frame_index":848,"name":"ports_21","capacity":10000,"empty":237,"full":1336,"on_shipper":0,"on_consignee":154,"shortage":0,"acc_shortage":6404,"booking":0,"acc_booking":45757,"fulfillment":0,"acc_fulfillment":39353,"transfer_cost":237.0,"port_name":"Yokohama","position":{"lat":35.443707,"lng":139.638031},"status":"surplus"}]