[{"frame_index":1099,"name":"ports_0","capacity":10000,"empty":0,"full":4034,"on_shipper":0,"on_consignee":0,"shortage":55,"acc_shortage":2596,"booking":55,"acc_booking":142581,"fulfillment":0,"acc_fulfillment":139985,"transfer_cost":0.0,"port_name":"Bremerhaven","position":{"lat":53.549999,"lng":8.583333},"status":"demand"},{"frame_index":1099,"name":"ports_1","capacity":10000,"empty":320,"full":226,"on_shipper":6,"on_consignee":0,"shortage":0,"acc_shortage":113,"booking":4,"acc_booking":9473,"fulfillment":4,"acc_fulfillment":9360,"transfer_cost":0.0,"port_name":"Durban","position":{"lat":-29.8579,"lng":31.0292},"status":"surplus"},{"frame_index":1099,"name":"ports_2","capacity":10000,"empty":721,"full":392,"on_shipper":7,"on_consignee":0,"shortage":0,"acc_shortage":298,"booking":4,"acc_booking":9436,"fulfillment":4,"acc_fulfillment":9138,"transfer_cost":0.0,"port_name":"Itagual","position":{"lat":-22.85222,"lng":-43.77528},"status":"surplus"},{"frame_index":1099,"name":"ports_3","capacity":10000,"empty":3465,"full":1227,"on_shipper":37,"on_consignee":2065,"shortage":0,"acc_shortage":0,"booking":22,"acc_booking":53918,"fulfillment":22,"acc_fulfillment":53918,"transfer_cost":0.0,"port_name":"LeHavre","position":{"lat":49.490002,"lng":0.1},"status":"surplus"},{"frame_index":1099,"name":"ports_4","capacity":10000,"empty":1828,"full":372,"on_shipper":25,"on_consignee":0,"shortage":0,"acc_shortage":290,"booking":19,"acc_booking":45157,"fulfillment":19,"acc_fulfillment":44867,"transfer_cost":0.0,"port_name":"Los Angeles","position":{"lat":34.052235,"lng":-118.243683},"status":"surplus"},{"frame_index":1099,"name":"ports_5","capacity":10000,"empty":424,"full":708,"on_shipper":26,"on_consignee":0,"shortage":0,"acc_shortage":194,"booking":20,"acc_booking":45232,"fulfillment":20,"acc_fulfillment":45038,"transfer_cost":0.0,"port_name":"Manzanillo","position":{"lat":19.11695,"lng":-104.34214},"status":"surplus"},{"frame_index":1099,"name":"ports_6","capacity":10000,"empty":1,"full":318,"on_shipper":0,"on_consignee":274,"shortage":6,"acc_shortage":2374,"booking":6,"acc_booking":13902,"fulfillment":0,"acc_fulfillment":11528,"transfer_cost":0.0,"port_name":"Melbourne","position":{"lat":-37.840935,"lng":144.946457},"status":"balance"},{"frame_index":1099,"name":"ports_7","capacity":10000,"empty":1335,"full":158,"on_shipper":6,"on_consignee":0,"shortage":0,"acc_shortage":0,"booking":6,"acc_booking":13902,"fulfillment":6,"acc_fulfillment":13902,"transfer_cost":0.0,"port_name":"Montreal","position":{"lat":45.516136,"lng":-73.65683},"status":"surplus"},{"frame_index":1099,"name":"ports_8","capacity":10000,"empty":4067,"full":313,"on_shipper":25,"on_consignee":0,"shortage":0,"acc_shortage":136,"booking":12,"acc_booking":27193,"fulfillment":12,"acc_fulfillment":27057,"transfer_cost":0.0,"port_name":"New York","position":{"lat":40.73061,"lng":-73.935242},"status":"surplus"},{"frame_index":1099,"name":"ports_9","capacity":10000,"empty":829,"full":1396,"on_shipper":13,"on_consignee":0,"shortage":0,"acc_shortage":45,"booking":11,"acc_booking":27245,"fulfillment":11,"acc_fulfillment":27200,"transfer_cost":0.0,"port_name":"Oakland","position":{"lat":37.804363,"lng":-122.271111},"status":"surplus"},{"frame_index":1099,"name":"ports_10","capacity":10000,"empty":1242,"full":449,"on_shipper":8,"on_consignee":0,"shortage":0,"acc_shortage":314,"booking":6,"acc_booking":13886,"fulfillment":6,"acc_fulfillment":13572,"transfer_cost":0.0,"port_name":"Prince Rupert","position":{"lat":54.312519,"lng":-130.305405},"status":"surplus"},{"frame_index":1099,"name":"ports_11","capacity":10000,"empty":1625,"full":1085,"on_shipper":41,"on_consignee":0,"shortage":0,"acc_shortage":204,"booking":21,"acc_booking":53883,"fulfillment":21,"acc_fulfillment":53679,"transfer_cost":0.0,"port_name":"Pusan","position":{"lat":35.166668,"lng":129.066666},"status":"surplus"},{"frame_index":1099,"name":"ports_12","capacity":10000,"empty":2495,"full":2002,"on_shipper":50,"on_consignee":93,"shortage":0,"acc_shortage":0,"booking":28,"acc_booking":71943,"fulfillment":28,"acc_fulfillment":71943,"transfer_cost":0.0,"port_name":"Qingdao","position":{"lat":36.066898,"lng":120.382698},"status":"surplus"},{"frame_index":1099,"name":"ports_13","capacity":10000,"empty":174,"full":374,"on_shipper":7,"on_consignee":0,"shortage":0,"acc_shortage":459,"booking":4,"acc_booking":9436,"fulfillment":4,"acc_fulfillment":8977,"transfer_cost":0.0,"port_name":"San Antonio","position":{"lat":29.424349,"lng":-98.491142},"status":"surplus"},{"frame_index":1099,"name":"ports_14","capacity":10000,"empty":131,"full":183,"on_shipper":8,"on_consignee":0,"shortage":0,"acc_shortage":1294,"booking":5,"acc_booking":9494,"fulfillment":5,"acc_fulfillment":8200,"transfer_cost":0.0,"port_name":"Santos","position":{"lat":-23.96083,"lng":-46.33361},"status":"surplus"},{"frame_index":1099,"name":"ports_15","capacity":10000,"empty":0,"full":2032,"on_shipper":26,"on_consignee":671,"shortage":0,"acc_shortage":1985,"booking":26,"acc_booking":62877,"fulfillment":26,"acc_fulfillment":60892,"transfer_cost":0.0,"port_name":"Seattle","position":{"lat":47.608013,"lng":-122.335167},"status":"demand"},{"frame_index":1099,"name":"ports_16","capacity":10000,"empty":1682,"full":2096,"on_shipper":61,"on_consignee":0,"shortage":0,"acc_shortage":817,"booking":32,"acc_booking":89659,"fulfillment":32,"acc_fulfillment":88842,"transfer_cost":0.0,"port_name":"Shanghai","position":{"lat":31.224361,"lng":121.46917},"status":"surplus"},{"frame_index":1099,"name":"ports_17","capacity":10000,"empty":907,"full":1044,"on_shipper":25,"on_consignee":291,"shortage":0,"acc_shortage":619,"booking":15,"acc_booking":36206,"fulfillment":15,"acc_fulfillment":35587,"transfer_cost":0.0,"port_name":"Singapore","position":{"lat":1.29027,"lng":103.851959},"status":"surplus"},{"frame_index":1099,"name":"ports_18","capacity":10000,"empty":466,"full":95,"on_shipper":11,"on_consignee":0,"shortage":0,"acc_shortage":1374,"booking":6,"acc_booking":13892,"fulfillment":6,"acc_fulfillment":12518,"transfer_cost":0.0,"port_name":"Sydney","position":{"lat":-33.865143,"lng":151.2099},"status":"surplus"},{"frame_index":1099,"name":"ports_19","capacity":10000,"empty":504,"full":978,"on_shipper":14,"on_consignee":0,"shortage":0,"acc_shortage":0,"booking":8,"acc_booking":18406,"fulfillment":8,"acc_fulfillment":18406,"transfer_cost":0.0,"port_name":"Vancouver","position":{"lat":49.246292,"lng":-123.116226},"status":"surplus"},{"frame_index":1099,"name":"ports_20","capacity":10000,"empty":1162,"full":1402,"on_shipper":44,"on_consignee":9,"shortage":0,"acc_shortage":2447,"booking":26,"acc_booking":62693,"fulfillment":26,"acc_fulfillment":60246,"transfer_cost":0.0,"port_name":"Yantian","position":{"lat":26.8533,"lng":119.8575},"status":"surplus"},{"frame_index":1099,"name":"ports_21","capacity":10000,"empty":797,"full":1222,"on_shipper":33,"on_consignee":0,"shortage":0,"acc_shortage":10285,"booking":18,"acc_booking":59715,"fulfillment":18,"acc_fulfillment":49430,"transfer_cost":0.0,"port_name":"Yokohama","position":{"lat":35.443707,"lng":139.638031},"status":"surplus"}]