[{"frame_index":812,"name":"ports_0","capacity":10000,"empty":5414,"full":3022,"on_shipper":259,"on_consignee":180,"shortage":0,"acc_shortage":522,"booking":131,"acc_booking":102635,"fulfillment":131,"acc_fulfillment":102113,"transfer_cost":3131.0,"port_name":"Bremerhaven","position":{"lat":53.549999,"lng":8.583333},"status":"surplus"},{"frame_index":812,"name":"ports_1","capacity":10000,"empty":291,"full":121,"on_shipper":15,"on_consignee":0,"shortage":0,"acc_shortage":10,"booking":8,"acc_booking":6827,"fulfillment":8,"acc_fulfillment":6817,"transfer_cost":0.0,"port_name":"Durban","position":{"lat":-29.8579,"lng":31.0292},"status":"surplus"},{"frame_index":812,"name":"ports_2","capacity":10000,"empty":378,"full":193,"on_shipper":17,"on_consignee":0,"shortage":0,"acc_shortage":298,"booking":10,"acc_booking":6805,"fulfillment":10,"acc_fulfillment":6507,"transfer_cost":0.0,"port_name":"Itagual","position":{"lat":-22.85222,"lng":-43.77528},"status":"surplus"},{"frame_index":812,"name":"ports_3","capacity":10000,"empty":3706,"full":336,"on_shipper":67,"on_consignee":53,"shortage":0,"acc_shortage":0,"booking":54,"acc_booking":38861,"fulfillment":54,"acc_fulfillment":38861,"transfer_cost":0.0,"port_name":"LeHavre","position":{"lat":49.490002,"lng":0.1},"status":"surplus"},{"frame_index":812,"name":"ports_4","capacity":10000,"empty":889,"full":862,"on_shipper":84,"on_consignee":0,"shortage":0,"acc_shortage":290,"booking":44,"acc_booking":32532,"fulfillment":44,"acc_fulfillment":32242,"transfer_cost":0.0,"port_name":"Los Angeles","position":{"lat":34.052235,"lng":-118.243683},"status":"surplus"},{"frame_index":812,"name":"ports_5","capacity":10000,"empty":2687,"full":0,"on_shipper":59,"on_consignee":503,"shortage":0,"acc_shortage":123,"booking":45,"acc_booking":32646,"fulfillment":45,"acc_fulfillment":32523,"transfer_cost":0.0,"port_name":"Manzanillo","position":{"lat":19.11695,"lng":-104.34214},"status":"surplus"},{"frame_index":812,"name":"ports_6","capacity":10000,"empty":91,"full":340,"on_shipper":20,"on_consignee":0,"shortage":0,"acc_shortage":1572,"booking":14,"acc_booking":10020,"fulfillment":14,"acc_fulfillment":8448,"transfer_cost":0.0,"port_name":"Melbourne","position":{"lat":-37.840935,"lng":144.946457},"status":"balance"},{"frame_index":812,"name":"ports_7","capacity":10000,"empty":810,"full":226,"on_shipper":22,"on_consignee":0,"shortage":0,"acc_shortage":0,"booking":14,"acc_booking":10031,"fulfillment":14,"acc_fulfillment":10031,"transfer_cost":0.0,"port_name":"Montreal","position":{"lat":45.516136,"lng":-73.65683},"status":"surplus"},{"frame_index":812,"name":"ports_8","capacity":10000,"empty":2167,"full":335,"on_shipper":28,"on_consignee":0,"shortage":0,"acc_shortage":136,"booking":28,"acc_booking":19584,"fulfillment":28,"acc_fulfillment":19448,"transfer_cost":0.0,"port_name":"New York","position":{"lat":40.73061,"lng":-73.935242},"status":"surplus"},{"frame_index":812,"name":"ports_9","capacity":10000,"empty":1391,"full":240,"on_shipper":43,"on_consignee":0,"shortage":0,"acc_shortage":45,"booking":27,"acc_booking":19630,"fulfillment":27,"acc_fulfillment":19585,"transfer_cost":0.0,"port_name":"Oakland","position":{"lat":37.804363,"lng":-122.271111},"status":"surplus"},{"frame_index":812,"name":"ports_10","capacity":10000,"empty":1331,"full":143,"on_shipper":26,"on_consignee":0,"shortage":0,"acc_shortage":314,"booking":16,"acc_booking":10044,"fulfillment":16,"acc_fulfillment":9730,"transfer_cost":0.0,"port_name":"Prince Rupert","position":{"lat":54.312519,"lng":-130.305405},"status":"surplus"},{"frame_index":812,"name":"ports_11","capacity":10000,"empty":3416,"full":507,"on_shipper":93,"on_consignee":0,"shortage":0,"acc_shortage":204,"booking":52,"acc_booking":38819,"fulfillment":52,"acc_fulfillment":38615,"transfer_cost":0.0,"port_name":"Pusan","position":{"lat":35.166668,"lng":129.066666},"status":"surplus"},{"frame_index":812,"name":"ports_12","capacity":10000,"empty":4912,"full":599,"on_shipper":108,"on_consignee":177,"shortage":0,"acc_shortage":0,"booking":63,"acc_booking":51865,"fulfillment":63,"acc_fulfillment":51865,"transfer_cost":0.0,"port_name":"Qingdao","position":{"lat":36.066898,"lng":120.382698},"status":"surplus"},{"frame_index":812,"name":"ports_13","capacity":10000,"empty":639,"full":123,"on_shipper":12,"on_consignee":0,"shortage":0,"acc_shortage":449,"booking":8,"acc_booking":6810,"fulfillment":8,"acc_fulfillment":6361,"transfer_cost":0.0,"port_name":"San Antonio","position":{"lat":29.424349,"lng":-98.491142},"status":"surplus"},{"frame_index":812,"name":"ports_14","capacity":10000,"empty":125,"full":160,"on_shipper":10,"on_consignee":0,"shortage":0,"acc_shortage":762,"booking":8,"acc_booking":6851,"fulfillment":8,"acc_fulfillment":6089,"transfer_cost":0.0,"port_name":"Santos","position":{"lat":-23.96083,"lng":-46.33361},"status":"surplus"},{"frame_index":812,"name":"ports_15","capacity":10000,"empty":2050,"full":526,"on_shipper":94,"on_consignee":0,"shortage":0,"acc_shortage":0,"booking":63,"acc_booking":45329,"fulfillment":63,"acc_fulfillment":45329,"transfer_cost":0.0,"port_name":"Seattle","position":{"lat":47.608013,"lng":-122.335167},"status":"surplus"},{"frame_index":812,"name":"ports_16","capacity":10000,"empty":3284,"full":745,"on_shipper":144,"on_consignee":2,"shortage":0,"acc_shortage":760,"booking":102,"acc_booking":64520,"fulfillment":102,"acc_fulfillment":63760,"transfer_cost":438.0,"port_name":"Shanghai","position":{"lat":31.224361,"lng":121.46917},"status":"surplus"},{"frame_index":812,"name":"ports_17","capacity":10000,"empty":1443,"full":243,"on_shipper":57,"on_consignee":0,"shortage":0,"acc_shortage":283,"booking":35,"acc_booking":26110,"fulfillment":35,"acc_fulfillment":25827,"transfer_cost":0.0,"port_name":"Singapore","position":{"lat":1.29027,"lng":103.851959},"status":"surplus"},{"frame_index":812,"name":"ports_18","capacity":10000,"empty":948,"full":46,"on_shipper":18,"on_consignee":0,"shortage":0,"acc_shortage":1374,"booking":15,"acc_booking":10034,"fulfillment":15,"acc_fulfillment":8660,"transfer_cost":0.0,"port_name":"Sydney","position":{"lat":-33.865143,"lng":151.2099},"status":"surplus"},{"frame_index":812,"name":"ports_19","capacity":10000,"empty":1373,"full":363,"on_shipper":22,"on_consignee":0,"shortage":0,"acc_shortage":0,"booking":18,"acc_booking":13297,"fulfillment":18,"acc_fulfillment":13297,"transfer_cost":0.0,"port_name":"Vancouver","position":{"lat":49.246292,"lng":-123.116226},"status":"surplus"},{"frame_index":812,"name":"ports_20","capacity":10000,"empty":2031,"full":463,"on_shipper":81,"on_consignee":0,"shortage":0,"acc_shortage":942,"booking":61,"acc_booking":45047,"fulfillment":61,"acc_fulfillment":44105,"transfer_cost":0.0,"port_name":"Yantian","position":{"lat":26.8533,"lng":119.8575},"status":"surplus"},{"frame_index":812,"name":"ports_21","capacity":10000,"empty":1185,"full":740,"on_shipper":75,"on_consignee":0,"shortage":0,"acc_shortage":6236,"booking":60,"acc_booking":42816,"fulfillment":60,"acc_fulfillment":36580,"transfer_cost":0.0,"port_name":"Yokohama","position":{"lat":35.443707,"lng":139.638031},"status":"surplus"}]