[{"frame_index":1022,"name":"ports_0","capacity":10000,"empty":3489,"full":996,"on_shipper":108,"on_consignee":369,"shortage":0,"acc_shortage":861,"booking":103,"acc_booking":130334,"fulfillment":103,"acc_fulfillment":129473,"transfer_cost":138.0,"port_name":"Bremerhaven","position":{"lat":53.549999,"lng":8.583333},"status":"surplus"},{"frame_index":1022,"name":"ports_1","capacity":10000,"empty":282,"full":145,"on_shipper":9,"on_consignee":0,"shortage":0,"acc_shortage":113,"booking":7,"acc_booking":8670,"fulfillment":7,"acc_fulfillment":8557,"transfer_cost":0.0,"port_name":"Durban","position":{"lat":-29.8579,"lng":31.0292},"status":"surplus"},{"frame_index":1022,"name":"ports_2","capacity":10000,"empty":275,"full":350,"on_shipper":11,"on_consignee":0,"shortage":0,"acc_shortage":298,"booking":6,"acc_booking":8637,"fulfillment":6,"acc_fulfillment":8339,"transfer_cost":0.0,"port_name":"Itagual","position":{"lat":-22.85222,"lng":-43.77528},"status":"surplus"},{"frame_index":1022,"name":"ports_3","capacity":10000,"empty":6605,"full":172,"on_shipper":48,"on_consignee":0,"shortage":0,"acc_shortage":0,"booking":39,"acc_booking":49342,"fulfillment":39,"acc_fulfillment":49342,"transfer_cost":0.0,"port_name":"LeHavre","position":{"lat":49.490002,"lng":0.1},"status":"surplus"},{"frame_index":1022,"name":"ports_4","capacity":10000,"empty":2420,"full":105,"on_shipper":48,"on_consignee":456,"shortage":0,"acc_shortage":290,"booking":33,"acc_booking":41323,"fulfillment":33,"acc_fulfillment":41033,"transfer_cost":0.0,"port_name":"Los Angeles","position":{"lat":34.052235,"lng":-118.243683},"status":"surplus"},{"frame_index":1022,"name":"ports_5","capacity":10000,"empty":1798,"full":34,"on_shipper":51,"on_consignee":0,"shortage":0,"acc_shortage":194,"booking":34,"acc_booking":41344,"fulfillment":34,"acc_fulfillment":41150,"transfer_cost":0.0,"port_name":"Manzanillo","position":{"lat":19.11695,"lng":-104.34214},"status":"surplus"},{"frame_index":1022,"name":"ports_6","capacity":10000,"empty":380,"full":100,"on_shipper":10,"on_consignee":0,"shortage":0,"acc_shortage":2108,"booking":10,"acc_booking":12726,"fulfillment":10,"acc_fulfillment":10618,"transfer_cost":0.0,"port_name":"Melbourne","position":{"lat":-37.840935,"lng":144.946457},"status":"surplus"},{"frame_index":1022,"name":"ports_7","capacity":10000,"empty":1398,"full":115,"on_shipper":10,"on_consignee":0,"shortage":0,"acc_shortage":0,"booking":10,"acc_booking":12733,"fulfillment":10,"acc_fulfillment":12733,"transfer_cost":0.0,"port_name":"Montreal","position":{"lat":45.516136,"lng":-73.65683},"status":"surplus"},{"frame_index":1022,"name":"ports_8","capacity":10000,"empty":3281,"full":196,"on_shipper":20,"on_consignee":0,"shortage":0,"acc_shortage":136,"booking":20,"acc_booking":24878,"fulfillment":20,"acc_fulfillment":24742,"transfer_cost":0.0,"port_name":"New York","position":{"lat":40.73061,"lng":-73.935242},"status":"surplus"},{"frame_index":1022,"name":"ports_9","capacity":10000,"empty":1208,"full":8,"on_shipper":26,"on_consignee":604,"shortage":0,"acc_shortage":45,"booking":18,"acc_booking":24910,"fulfillment":18,"acc_fulfillment":24865,"transfer_cost":0.0,"port_name":"Oakland","position":{"lat":37.804363,"lng":-122.271111},"status":"surplus"},{"frame_index":1022,"name":"ports_10","capacity":10000,"empty":1588,"full":23,"on_shipper":12,"on_consignee":0,"shortage":0,"acc_shortage":314,"booking":11,"acc_booking":12737,"fulfillment":11,"acc_fulfillment":12423,"transfer_cost":0.0,"port_name":"Prince Rupert","position":{"lat":54.312519,"lng":-130.305405},"status":"surplus"},{"frame_index":1022,"name":"ports_11","capacity":10000,"empty":2857,"full":925,"on_shipper":48,"on_consignee":33,"shortage":0,"acc_shortage":204,"booking":38,"acc_booking":49290,"fulfillment":38,"acc_fulfillment":49086,"transfer_cost":0.0,"port_name":"Pusan","position":{"lat":35.166668,"lng":129.066666},"status":"surplus"},{"frame_index":1022,"name":"ports_12","capacity":10000,"empty":4423,"full":1572,"on_shipper":75,"on_consignee":0,"shortage":0,"acc_shortage":0,"booking":52,"acc_booking":65913,"fulfillment":52,"acc_fulfillment":65913,"transfer_cost":0.0,"port_name":"Qingdao","position":{"lat":36.066898,"lng":120.382698},"status":"surplus"},{"frame_index":1022,"name":"ports_13","capacity":10000,"empty":290,"full":66,"on_shipper":8,"on_consignee":0,"shortage":0,"acc_shortage":459,"booking":7,"acc_booking":8642,"fulfillment":7,"acc_fulfillment":8183,"transfer_cost":0.0,"port_name":"San Antonio","position":{"lat":29.424349,"lng":-98.491142},"status":"surplus"},{"frame_index":1022,"name":"ports_14","capacity":10000,"empty":51,"full":187,"on_shipper":9,"on_consignee":0,"shortage":0,"acc_shortage":876,"booking":8,"acc_booking":8691,"fulfillment":8,"acc_fulfillment":7815,"transfer_cost":0.0,"port_name":"Santos","position":{"lat":-23.96083,"lng":-46.33361},"status":"balance"},{"frame_index":1022,"name":"ports_15","capacity":10000,"empty":1959,"full":780,"on_shipper":53,"on_consignee":0,"shortage":0,"acc_shortage":1489,"booking":44,"acc_booking":57545,"fulfillment":44,"acc_fulfillment":56056,"transfer_cost":0.0,"port_name":"Seattle","position":{"lat":47.608013,"lng":-122.335167},"status":"surplus"},{"frame_index":1022,"name":"ports_16","capacity":10000,"empty":3045,"full":885,"on_shipper":94,"on_consignee":0,"shortage":0,"acc_shortage":817,"booking":75,"acc_booking":82112,"fulfillment":75,"acc_fulfillment":81295,"transfer_cost":0.0,"port_name":"Shanghai","position":{"lat":31.224361,"lng":121.46917},"status":"surplus"},{"frame_index":1022,"name":"ports_17","capacity":10000,"empty":630,"full":550,"on_shipper":31,"on_consignee":0,"shortage":0,"acc_shortage":619,"booking":27,"acc_booking":33140,"fulfillment":27,"acc_fulfillment":32521,"transfer_cost":0.0,"port_name":"Singapore","position":{"lat":1.29027,"lng":103.851959},"status":"surplus"},{"frame_index":1022,"name":"ports_18","capacity":10000,"empty":801,"full":3,"on_shipper":11,"on_consignee":119,"shortage":0,"acc_shortage":1374,"booking":11,"acc_booking":12736,"fulfillment":11,"acc_fulfillment":11362,"transfer_cost":0.0,"port_name":"Sydney","position":{"lat":-33.865143,"lng":151.2099},"status":"surplus"},{"frame_index":1022,"name":"ports_19","capacity":10000,"empty":1429,"full":173,"on_shipper":16,"on_consignee":0,"shortage":0,"acc_shortage":0,"booking":13,"acc_booking":16848,"fulfillment":13,"acc_fulfillment":16848,"transfer_cost":0.0,"port_name":"Vancouver","position":{"lat":49.246292,"lng":-123.116226},"status":"surplus"},{"frame_index":1022,"name":"ports_20","capacity":10000,"empty":1169,"full":573,"on_shipper":58,"on_consignee":3,"shortage":0,"acc_shortage":1425,"booking":43,"acc_booking":57255,"fulfillment":43,"acc_fulfillment":55830,"transfer_cost":0.0,"port_name":"Yantian","position":{"lat":26.8533,"lng":119.8575},"status":"surplus"},{"frame_index":1022,"name":"ports_21","capacity":10000,"empty":956,"full":85,"on_shipper":54,"on_consignee":0,"shortage":0,"acc_shortage":7747,"booking":40,"acc_booking":54446,"fulfillment":40,"acc_fulfillment":46699,"transfer_cost":0.0,"port_name":"Yokohama","position":{"lat":35.443707,"lng":139.638031},"status":"surplus"}]