[{"frame_index":596,"name":"ports_0","capacity":10000,"empty":6296,"full":3090,"on_shipper":54,"on_consignee":0,"shortage":0,"acc_shortage":522,"booking":25,"acc_booking":74723,"fulfillment":25,"acc_fulfillment":74201,"transfer_cost":0.0,"port_name":"Bremerhaven","position":{"lat":53.549999,"lng":8.583333},"status":"surplus"},{"frame_index":596,"name":"ports_1","capacity":10000,"empty":539,"full":98,"on_shipper":6,"on_consignee":0,"shortage":0,"acc_shortage":0,"booking":2,"acc_booking":4983,"fulfillment":2,"acc_fulfillment":4983,"transfer_cost":0.0,"port_name":"Durban","position":{"lat":-29.8579,"lng":31.0292},"status":"surplus"},{"frame_index":596,"name":"ports_2","capacity":10000,"empty":431,"full":151,"on_shipper":7,"on_consignee":0,"shortage":0,"acc_shortage":233,"booking":2,"acc_booking":4955,"fulfillment":2,"acc_fulfillment":4722,"transfer_cost":0.0,"port_name":"Itagual","position":{"lat":-22.85222,"lng":-43.77528},"status":"surplus"},{"frame_index":596,"name":"ports_3","capacity":10000,"empty":711,"full":1836,"on_shipper":14,"on_consignee":0,"shortage":0,"acc_shortage":0,"booking":9,"acc_booking":28305,"fulfillment":9,"acc_fulfillment":28305,"transfer_cost":0.0,"port_name":"LeHavre","position":{"lat":49.490002,"lng":0.1},"status":"surplus"},{"frame_index":596,"name":"ports_4","capacity":10000,"empty":1066,"full":834,"on_shipper":28,"on_consignee":0,"shortage":0,"acc_shortage":0,"booking":8,"acc_booking":23686,"fulfillment":8,"acc_fulfillment":23686,"transfer_cost":0.0,"port_name":"Los Angeles","position":{"lat":34.052235,"lng":-118.243683},"status":"surplus"},{"frame_index":596,"name":"ports_5","capacity":10000,"empty":2814,"full":137,"on_shipper":26,"on_consignee":0,"shortage":0,"acc_shortage":123,"booking":8,"acc_booking":23720,"fulfillment":8,"acc_fulfillment":23597,"transfer_cost":0.0,"port_name":"Manzanillo","position":{"lat":19.11695,"lng":-104.34214},"status":"surplus"},{"frame_index":596,"name":"ports_6","capacity":10000,"empty":456,"full":174,"on_shipper":7,"on_consignee":0,"shortage":0,"acc_shortage":1259,"booking":3,"acc_booking":7294,"fulfillment":3,"acc_fulfillment":6035,"transfer_cost":0.0,"port_name":"Melbourne","position":{"lat":-37.840935,"lng":144.946457},"status":"surplus"},{"frame_index":596,"name":"ports_7","capacity":10000,"empty":1906,"full":128,"on_shipper":8,"on_consignee":0,"shortage":0,"acc_shortage":0,"booking":3,"acc_booking":7299,"fulfillment":3,"acc_fulfillment":7299,"transfer_cost":0.0,"port_name":"Montreal","position":{"lat":45.516136,"lng":-73.65683},"status":"surplus"},{"frame_index":596,"name":"ports_8","capacity":10000,"empty":1406,"full":725,"on_shipper":17,"on_consignee":0,"shortage":0,"acc_shortage":0,"booking":5,"acc_booking":14261,"fulfillment":5,"acc_fulfillment":14261,"transfer_cost":0.0,"port_name":"New York","position":{"lat":40.73061,"lng":-73.935242},"status":"surplus"},{"frame_index":596,"name":"ports_9","capacity":10000,"empty":1394,"full":93,"on_shipper":18,"on_consignee":0,"shortage":0,"acc_shortage":45,"booking":5,"acc_booking":14285,"fulfillment":5,"acc_fulfillment":14240,"transfer_cost":0.0,"port_name":"Oakland","position":{"lat":37.804363,"lng":-122.271111},"status":"surplus"},{"frame_index":596,"name":"ports_10","capacity":10000,"empty":1651,"full":110,"on_shipper":10,"on_consignee":0,"shortage":0,"acc_shortage":314,"booking":3,"acc_booking":7320,"fulfillment":3,"acc_fulfillment":7006,"transfer_cost":0.0,"port_name":"Prince Rupert","position":{"lat":54.312519,"lng":-130.305405},"status":"surplus"},{"frame_index":596,"name":"ports_11","capacity":10000,"empty":2881,"full":349,"on_shipper":23,"on_consignee":729,"shortage":0,"acc_shortage":204,"booking":9,"acc_booking":28254,"fulfillment":9,"acc_fulfillment":28050,"transfer_cost":454.0,"port_name":"Pusan","position":{"lat":35.166668,"lng":129.066666},"status":"surplus"},{"frame_index":596,"name":"ports_12","capacity":10000,"empty":2863,"full":1070,"on_shipper":30,"on_consignee":392,"shortage":0,"acc_shortage":0,"booking":11,"acc_booking":37789,"fulfillment":11,"acc_fulfillment":37789,"transfer_cost":1162.0,"port_name":"Qingdao","position":{"lat":36.066898,"lng":120.382698},"status":"surplus"},{"frame_index":596,"name":"ports_13","capacity":10000,"empty":313,"full":169,"on_shipper":8,"on_consignee":0,"shortage":0,"acc_shortage":286,"booking":2,"acc_booking":4952,"fulfillment":2,"acc_fulfillment":4666,"transfer_cost":0.0,"port_name":"San Antonio","position":{"lat":29.424349,"lng":-98.491142},"status":"surplus"},{"frame_index":596,"name":"ports_14","capacity":10000,"empty":884,"full":57,"on_shipper":6,"on_consignee":0,"shortage":0,"acc_shortage":762,"booking":2,"acc_booking":4997,"fulfillment":2,"acc_fulfillment":4235,"transfer_cost":0.0,"port_name":"Santos","position":{"lat":-23.96083,"lng":-46.33361},"status":"surplus"},{"frame_index":596,"name":"ports_15","capacity":10000,"empty":4125,"full":212,"on_shipper":31,"on_consignee":250,"shortage":0,"acc_shortage":0,"booking":10,"acc_booking":32975,"fulfillment":10,"acc_fulfillment":32975,"transfer_cost":0.0,"port_name":"Seattle","position":{"lat":47.608013,"lng":-122.335167},"status":"surplus"},{"frame_index":596,"name":"ports_16","capacity":10000,"empty":939,"full":963,"on_shipper":71,"on_consignee":0,"shortage":0,"acc_shortage":470,"booking":17,"acc_booking":46992,"fulfillment":17,"acc_fulfillment":46522,"transfer_cost":0.0,"port_name":"Shanghai","position":{"lat":31.224361,"lng":121.46917},"status":"surplus"},{"frame_index":596,"name":"ports_17","capacity":10000,"empty":957,"full":99,"on_shipper":24,"on_consignee":155,"shortage":0,"acc_shortage":40,"booking":6,"acc_booking":19004,"fulfillment":6,"acc_fulfillment":18964,"transfer_cost":0.0,"port_name":"Singapore","position":{"lat":1.29027,"lng":103.851959},"status":"surplus"},{"frame_index":596,"name":"ports_18","capacity":10000,"empty":402,"full":408,"on_shipper":9,"on_consignee":0,"shortage":0,"acc_shortage":957,"booking":2,"acc_booking":7263,"fulfillment":2,"acc_fulfillment":6306,"transfer_cost":0.0,"port_name":"Sydney","position":{"lat":-33.865143,"lng":151.2099},"status":"surplus"},{"frame_index":596,"name":"ports_19","capacity":10000,"empty":519,"full":655,"on_shipper":13,"on_consignee":0,"shortage":0,"acc_shortage":0,"booking":4,"acc_booking":9704,"fulfillment":4,"acc_fulfillment":9704,"transfer_cost":0.0,"port_name":"Vancouver","position":{"lat":49.246292,"lng":-123.116226},"status":"surplus"},{"frame_index":596,"name":"ports_20","capacity":10000,"empty":1504,"full":571,"on_shipper":51,"on_consignee":0,"shortage":0,"acc_shortage":395,"booking":10,"acc_booking":32800,"fulfillment":10,"acc_fulfillment":32405,"transfer_cost":0.0,"port_name":"Yantian","position":{"lat":26.8533,"lng":119.8575},"status":"surplus"},{"frame_index":596,"name":"ports_21","capacity":10000,"empty":864,"full":932,"on_shipper":23,"on_consignee":0,"shortage":0,"acc_shortage":3258,"booking":0,"acc_booking":31120,"fulfillment":0,"acc_fulfillment":27862,"transfer_cost":0.0,"port_name":"Yokohama","position":{"lat":35.443707,"lng":139.638031},"status":"surplus"}]