[{"frame_index":952,"name":"ports_0","capacity":10000,"empty":1334,"full":4732,"on_shipper":442,"on_consignee":0,"shortage":0,"acc_shortage":522,"booking":306,"acc_booking":122434,"fulfillment":306,"acc_fulfillment":121912,"transfer_cost":0.0,"port_name":"Bremerhaven","position":{"lat":53.549999,"lng":8.583333},"status":"demand"},{"frame_index":952,"name":"ports_1","capacity":10000,"empty":285,"full":306,"on_shipper":29,"on_consignee":0,"shortage":0,"acc_shortage":113,"booking":19,"acc_booking":8134,"fulfillment":19,"acc_fulfillment":8021,"transfer_cost":0.0,"port_name":"Durban","position":{"lat":-29.8579,"lng":31.0292},"status":"surplus"},{"frame_index":952,"name":"ports_2","capacity":10000,"empty":534,"full":272,"on_shipper":31,"on_consignee":0,"shortage":0,"acc_shortage":298,"booking":21,"acc_booking":8094,"fulfillment":21,"acc_fulfillment":7796,"transfer_cost":0.0,"port_name":"Itagual","position":{"lat":-22.85222,"lng":-43.77528},"status":"surplus"},{"frame_index":952,"name":"ports_3","capacity":10000,"empty":3057,"full":429,"on_shipper":163,"on_consignee":365,"shortage":0,"acc_shortage":0,"booking":121,"acc_booking":46299,"fulfillment":121,"acc_fulfillment":46299,"transfer_cost":36.0,"port_name":"LeHavre","position":{"lat":49.490002,"lng":0.1},"status":"surplus"},{"frame_index":952,"name":"ports_4","capacity":10000,"empty":1927,"full":1569,"on_shipper":115,"on_consignee":0,"shortage":0,"acc_shortage":290,"booking":100,"acc_booking":38776,"fulfillment":100,"acc_fulfillment":38486,"transfer_cost":0.0,"port_name":"Los Angeles","position":{"lat":34.052235,"lng":-118.243683},"status":"surplus"},{"frame_index":952,"name":"ports_5","capacity":10000,"empty":1248,"full":150,"on_shipper":151,"on_consignee":0,"shortage":0,"acc_shortage":163,"booking":100,"acc_booking":38838,"fulfillment":100,"acc_fulfillment":38675,"transfer_cost":0.0,"port_name":"Manzanillo","position":{"lat":19.11695,"lng":-104.34214},"status":"surplus"},{"frame_index":952,"name":"ports_6","capacity":10000,"empty":124,"full":485,"on_shipper":31,"on_consignee":0,"shortage":0,"acc_shortage":1855,"booking":31,"acc_booking":11934,"fulfillment":31,"acc_fulfillment":10079,"transfer_cost":0.0,"port_name":"Melbourne","position":{"lat":-37.840935,"lng":144.946457},"status":"balance"},{"frame_index":952,"name":"ports_7","capacity":10000,"empty":1425,"full":100,"on_shipper":31,"on_consignee":0,"shortage":0,"acc_shortage":0,"booking":31,"acc_booking":11945,"fulfillment":31,"acc_fulfillment":11945,"transfer_cost":0.0,"port_name":"Montreal","position":{"lat":45.516136,"lng":-73.65683},"status":"surplus"},{"frame_index":952,"name":"ports_8","capacity":10000,"empty":1168,"full":506,"on_shipper":95,"on_consignee":0,"shortage":0,"acc_shortage":136,"booking":63,"acc_booking":23343,"fulfillment":63,"acc_fulfillment":23207,"transfer_cost":0.0,"port_name":"New York","position":{"lat":40.73061,"lng":-73.935242},"status":"surplus"},{"frame_index":952,"name":"ports_9","capacity":10000,"empty":1111,"full":693,"on_shipper":71,"on_consignee":0,"shortage":0,"acc_shortage":45,"booking":61,"acc_booking":23368,"fulfillment":61,"acc_fulfillment":23323,"transfer_cost":0.0,"port_name":"Oakland","position":{"lat":37.804363,"lng":-122.271111},"status":"surplus"},{"frame_index":952,"name":"ports_10","capacity":10000,"empty":1418,"full":378,"on_shipper":43,"on_consignee":0,"shortage":0,"acc_shortage":314,"booking":34,"acc_booking":11967,"fulfillment":34,"acc_fulfillment":11653,"transfer_cost":0.0,"port_name":"Prince Rupert","position":{"lat":54.312519,"lng":-130.305405},"status":"surplus"},{"frame_index":952,"name":"ports_11","capacity":10000,"empty":3205,"full":479,"on_shipper":171,"on_consignee":0,"shortage":0,"acc_shortage":204,"booking":124,"acc_booking":46243,"fulfillment":124,"acc_fulfillment":46039,"transfer_cost":0.0,"port_name":"Pusan","position":{"lat":35.166668,"lng":129.066666},"status":"surplus"},{"frame_index":952,"name":"ports_12","capacity":10000,"empty":4153,"full":1265,"on_shipper":247,"on_consignee":0,"shortage":0,"acc_shortage":0,"booking":157,"acc_booking":61812,"fulfillment":157,"acc_fulfillment":61812,"transfer_cost":0.0,"port_name":"Qingdao","position":{"lat":36.066898,"lng":120.382698},"status":"surplus"},{"frame_index":952,"name":"ports_13","capacity":10000,"empty":169,"full":212,"on_shipper":32,"on_consignee":0,"shortage":0,"acc_shortage":449,"booking":21,"acc_booking":8103,"fulfillment":21,"acc_fulfillment":7654,"transfer_cost":0.0,"port_name":"San Antonio","position":{"lat":29.424349,"lng":-98.491142},"status":"surplus"},{"frame_index":952,"name":"ports_14","capacity":10000,"empty":598,"full":56,"on_shipper":33,"on_consignee":0,"shortage":0,"acc_shortage":876,"booking":17,"acc_booking":8157,"fulfillment":17,"acc_fulfillment":7281,"transfer_cost":0.0,"port_name":"Santos","position":{"lat":-23.96083,"lng":-46.33361},"status":"surplus"},{"frame_index":952,"name":"ports_15","capacity":10000,"empty":0,"full":1525,"on_shipper":43,"on_consignee":0,"shortage":146,"acc_shortage":325,"booking":146,"acc_booking":54013,"fulfillment":0,"acc_fulfillment":53688,"transfer_cost":0.0,"port_name":"Seattle","position":{"lat":47.608013,"lng":-122.335167},"status":"demand"},{"frame_index":952,"name":"ports_16","capacity":10000,"empty":2533,"full":823,"on_shipper":305,"on_consignee":0,"shortage":0,"acc_shortage":817,"booking":223,"acc_booking":76995,"fulfillment":223,"acc_fulfillment":76178,"transfer_cost":0.0,"port_name":"Shanghai","position":{"lat":31.224361,"lng":121.46917},"status":"surplus"},{"frame_index":952,"name":"ports_17","capacity":10000,"empty":217,"full":367,"on_shipper":126,"on_consignee":267,"shortage":0,"acc_shortage":283,"booking":82,"acc_booking":31092,"fulfillment":82,"acc_fulfillment":30809,"transfer_cost":747.0,"port_name":"Singapore","position":{"lat":1.29027,"lng":103.851959},"status":"demand"},{"frame_index":952,"name":"ports_18","capacity":10000,"empty":707,"full":331,"on_shipper":44,"on_consignee":0,"shortage":0,"acc_shortage":1374,"booking":35,"acc_booking":11951,"fulfillment":35,"acc_fulfillment":10577,"transfer_cost":0.0,"port_name":"Sydney","position":{"lat":-33.865143,"lng":151.2099},"status":"surplus"},{"frame_index":952,"name":"ports_19","capacity":10000,"empty":617,"full":1011,"on_shipper":55,"on_consignee":0,"shortage":0,"acc_shortage":0,"booking":43,"acc_booking":15810,"fulfillment":43,"acc_fulfillment":15810,"transfer_cost":0.0,"port_name":"Vancouver","position":{"lat":49.246292,"lng":-123.116226},"status":"surplus"},{"frame_index":952,"name":"ports_20","capacity":10000,"empty":0,"full":591,"on_shipper":60,"on_consignee":1372,"shortage":129,"acc_shortage":1425,"booking":129,"acc_booking":53636,"fulfillment":0,"acc_fulfillment":52211,"transfer_cost":0.0,"port_name":"Yantian","position":{"lat":26.8533,"lng":119.8575},"status":"demand"},{"frame_index":952,"name":"ports_21","capacity":10000,"empty":2158,"full":265,"on_shipper":163,"on_consignee":57,"shortage":0,"acc_shortage":7238,"booking":150,"acc_booking":51185,"fulfillment":150,"acc_fulfillment":43947,"transfer_cost":806.0,"port_name":"Yokohama","position":{"lat":35.443707,"lng":139.638031},"status":"surplus"}]