[{"frame_index":285,"name":"ports_0","capacity":10000,"empty":1671,"full":3664,"on_shipper":257,"on_consignee":0,"shortage":0,"acc_shortage":0,"booking":220,"acc_booking":36665,"fulfillment":220,"acc_fulfillment":36665,"transfer_cost":0.0,"port_name":"Bremerhaven","position":{"lat":53.549999,"lng":8.583333},"status":"surplus"},{"frame_index":285,"name":"ports_1","capacity":10000,"empty":675,"full":206,"on_shipper":25,"on_consignee":0,"shortage":0,"acc_shortage":0,"booking":13,"acc_booking":2454,"fulfillment":13,"acc_fulfillment":2454,"transfer_cost":0.0,"port_name":"Durban","position":{"lat":-29.8579,"lng":31.0292},"status":"surplus"},{"frame_index":285,"name":"ports_2","capacity":10000,"empty":797,"full":152,"on_shipper":22,"on_consignee":0,"shortage":0,"acc_shortage":233,"booking":14,"acc_booking":2437,"fulfillment":14,"acc_fulfillment":2204,"transfer_cost":0.0,"port_name":"Itagual","position":{"lat":-22.85222,"lng":-43.77528},"status":"surplus"},{"frame_index":285,"name":"ports_3","capacity":10000,"empty":1338,"full":1532,"on_shipper":106,"on_consignee":90,"shortage":0,"acc_shortage":0,"booking":75,"acc_booking":13963,"fulfillment":75,"acc_fulfillment":13963,"transfer_cost":211.0,"port_name":"LeHavre","position":{"lat":49.490002,"lng":0.1},"status":"surplus"},{"frame_index":285,"name":"ports_4","capacity":10000,"empty":2194,"full":816,"on_shipper":111,"on_consignee":0,"shortage":0,"acc_shortage":0,"booking":65,"acc_booking":11662,"fulfillment":65,"acc_fulfillment":11662,"transfer_cost":0.0,"port_name":"Los Angeles","position":{"lat":34.052235,"lng":-118.243683},"status":"surplus"},{"frame_index":285,"name":"ports_5","capacity":10000,"empty":1556,"full":403,"on_shipper":113,"on_consignee":0,"shortage":0,"acc_shortage":123,"booking":64,"acc_booking":11689,"fulfillment":64,"acc_fulfillment":11566,"transfer_cost":0.0,"port_name":"Manzanillo","position":{"lat":19.11695,"lng":-104.34214},"status":"surplus"},{"frame_index":285,"name":"ports_6","capacity":10000,"empty":142,"full":118,"on_shipper":27,"on_consignee":0,"shortage":0,"acc_shortage":0,"booking":19,"acc_booking":3585,"fulfillment":19,"acc_fulfillment":3585,"transfer_cost":0.0,"port_name":"Melbourne","position":{"lat":-37.840935,"lng":144.946457},"status":"balance"},{"frame_index":285,"name":"ports_7","capacity":10000,"empty":1791,"full":489,"on_shipper":31,"on_consignee":0,"shortage":0,"acc_shortage":0,"booking":20,"acc_booking":3589,"fulfillment":20,"acc_fulfillment":3589,"transfer_cost":0.0,"port_name":"Montreal","position":{"lat":45.516136,"lng":-73.65683},"status":"surplus"},{"frame_index":285,"name":"ports_8","capacity":10000,"empty":2555,"full":450,"on_shipper":62,"on_consignee":0,"shortage":0,"acc_shortage":0,"booking":39,"acc_booking":7019,"fulfillment":39,"acc_fulfillment":7019,"transfer_cost":0.0,"port_name":"New York","position":{"lat":40.73061,"lng":-73.935242},"status":"surplus"},{"frame_index":285,"name":"ports_9","capacity":10000,"empty":2787,"full":105,"on_shipper":46,"on_consignee":0,"shortage":0,"acc_shortage":0,"booking":37,"acc_booking":6992,"fulfillment":37,"acc_fulfillment":6992,"transfer_cost":0.0,"port_name":"Oakland","position":{"lat":37.804363,"lng":-122.271111},"status":"surplus"},{"frame_index":285,"name":"ports_10","capacity":10000,"empty":1006,"full":595,"on_shipper":28,"on_consignee":0,"shortage":0,"acc_shortage":0,"booking":23,"acc_booking":3583,"fulfillment":23,"acc_fulfillment":3583,"transfer_cost":0.0,"port_name":"Prince Rupert","position":{"lat":54.312519,"lng":-130.305405},"status":"surplus"},{"frame_index":285,"name":"ports_11","capacity":10000,"empty":1976,"full":554,"on_shipper":100,"on_consignee":65,"shortage":0,"acc_shortage":0,"booking":76,"acc_booking":13916,"fulfillment":76,"acc_fulfillment":13916,"transfer_cost":0.0,"port_name":"Pusan","position":{"lat":35.166668,"lng":129.066666},"status":"surplus"},{"frame_index":285,"name":"ports_12","capacity":10000,"empty":720,"full":2398,"on_shipper":109,"on_consignee":0,"shortage":0,"acc_shortage":0,"booking":93,"acc_booking":18590,"fulfillment":93,"acc_fulfillment":18590,"transfer_cost":0.0,"port_name":"Qingdao","position":{"lat":36.066898,"lng":120.382698},"status":"surplus"},{"frame_index":285,"name":"ports_13","capacity":10000,"empty":172,"full":472,"on_shipper":22,"on_consignee":0,"shortage":0,"acc_shortage":55,"booking":12,"acc_booking":2441,"fulfillment":12,"acc_fulfillment":2386,"transfer_cost":0.0,"port_name":"San Antonio","position":{"lat":29.424349,"lng":-98.491142},"status":"surplus"},{"frame_index":285,"name":"ports_14","capacity":10000,"empty":904,"full":359,"on_shipper":26,"on_consignee":0,"shortage":0,"acc_shortage":697,"booking":14,"acc_booking":2472,"fulfillment":14,"acc_fulfillment":1775,"transfer_cost":0.0,"port_name":"Santos","position":{"lat":-23.96083,"lng":-46.33361},"status":"surplus"},{"frame_index":285,"name":"ports_15","capacity":10000,"empty":3782,"full":1499,"on_shipper":139,"on_consignee":0,"shortage":0,"acc_shortage":0,"booking":89,"acc_booking":16221,"fulfillment":89,"acc_fulfillment":16221,"transfer_cost":0.0,"port_name":"Seattle","position":{"lat":47.608013,"lng":-122.335167},"status":"surplus"},{"frame_index":285,"name":"ports_16","capacity":10000,"empty":1899,"full":2444,"on_shipper":218,"on_consignee":0,"shortage":0,"acc_shortage":0,"booking":131,"acc_booking":23249,"fulfillment":131,"acc_fulfillment":23249,"transfer_cost":0.0,"port_name":"Shanghai","position":{"lat":31.224361,"lng":121.46917},"status":"surplus"},{"frame_index":285,"name":"ports_17","capacity":10000,"empty":182,"full":723,"on_shipper":92,"on_consignee":0,"shortage":0,"acc_shortage":40,"booking":52,"acc_booking":9355,"fulfillment":52,"acc_fulfillment":9315,"transfer_cost":0.0,"port_name":"Singapore","position":{"lat":1.29027,"lng":103.851959},"status":"demand"},{"frame_index":285,"name":"ports_18","capacity":10000,"empty":0,"full":433,"on_shipper":0,"on_consignee":0,"shortage":22,"acc_shortage":163,"booking":22,"acc_booking":3562,"fulfillment":0,"acc_fulfillment":3399,"transfer_cost":0.0,"port_name":"Sydney","position":{"lat":-33.865143,"lng":151.2099},"status":"demand"},{"frame_index":285,"name":"ports_19","capacity":10000,"empty":447,"full":717,"on_shipper":40,"on_consignee":0,"shortage":0,"acc_shortage":0,"booking":27,"acc_booking":4767,"fulfillment":27,"acc_fulfillment":4767,"transfer_cost":0.0,"port_name":"Vancouver","position":{"lat":49.246292,"lng":-123.116226},"status":"surplus"},{"frame_index":285,"name":"ports_20","capacity":10000,"empty":1468,"full":808,"on_shipper":121,"on_consignee":259,"shortage":0,"acc_shortage":0,"booking":80,"acc_booking":16005,"fulfillment":80,"acc_fulfillment":16005,"transfer_cost":0.0,"port_name":"Yantian","position":{"lat":26.8533,"lng":119.8575},"status":"surplus"},{"frame_index":285,"name":"ports_21","capacity":10000,"empty":266,"full":1162,"on_shipper":150,"on_consignee":0,"shortage":0,"acc_shortage":492,"booking":94,"acc_booking":15378,"fulfillment":94,"acc_fulfillment":14886,"transfer_cost":0.0,"port_name":"Yokohama","position":{"lat":35.443707,"lng":139.638031},"status":"demand"}]