[{"frame_index":68,"name":"ports_0","capacity":10000,"empty":7607,"full":1861,"on_shipper":410,"on_consignee":0,"shortage":0,"acc_shortage":0,"booking":223,"acc_booking":9242,"fulfillment":223,"acc_fulfillment":9242,"transfer_cost":0.0,"port_name":"Bremerhaven","position":{"lat":53.549999,"lng":8.583333},"status":"surplus"},{"frame_index":68,"name":"ports_1","capacity":10000,"empty":452,"full":370,"on_shipper":28,"on_consignee":0,"shortage":0,"acc_shortage":0,"booking":16,"acc_booking":620,"fulfillment":16,"acc_fulfillment":620,"transfer_cost":0.0,"port_name":"Durban","position":{"lat":-29.8579,"lng":31.0292},"status":"surplus"},{"frame_index":68,"name":"ports_2","capacity":10000,"empty":465,"full":236,"on_shipper":19,"on_consignee":0,"shortage":0,"acc_shortage":0,"booking":16,"acc_booking":615,"fulfillment":16,"acc_fulfillment":615,"transfer_cost":0.0,"port_name":"Itagual","position":{"lat":-22.85222,"lng":-43.77528},"status":"surplus"},{"frame_index":68,"name":"ports_3","capacity":10000,"empty":2443,"full":845,"on_shipper":116,"on_consignee":0,"shortage":0,"acc_shortage":0,"booking":89,"acc_booking":3542,"fulfillment":89,"acc_fulfillment":3542,"transfer_cost":0.0,"port_name":"LeHavre","position":{"lat":49.490002,"lng":0.1},"status":"surplus"},{"frame_index":68,"name":"ports_4","capacity":10000,"empty":2047,"full":2369,"on_shipper":119,"on_consignee":0,"shortage":0,"acc_shortage":0,"booking":74,"acc_booking":2953,"fulfillment":74,"acc_fulfillment":2953,"transfer_cost":0.0,"port_name":"Los Angeles","position":{"lat":34.052235,"lng":-118.243683},"status":"surplus"},{"frame_index":68,"name":"ports_5","capacity":10000,"empty":2315,"full":884,"on_shipper":119,"on_consignee":0,"shortage":0,"acc_shortage":0,"booking":79,"acc_booking":2956,"fulfillment":79,"acc_fulfillment":2956,"transfer_cost":0.0,"port_name":"Manzanillo","position":{"lat":19.11695,"lng":-104.34214},"status":"surplus"},{"frame_index":68,"name":"ports_6","capacity":10000,"empty":702,"full":416,"on_shipper":37,"on_consignee":0,"shortage":0,"acc_shortage":0,"booking":23,"acc_booking":907,"fulfillment":23,"acc_fulfillment":907,"transfer_cost":0.0,"port_name":"Melbourne","position":{"lat":-37.840935,"lng":144.946457},"status":"surplus"},{"frame_index":68,"name":"ports_7","capacity":10000,"empty":1410,"full":110,"on_shipper":43,"on_consignee":0,"shortage":0,"acc_shortage":0,"booking":23,"acc_booking":906,"fulfillment":23,"acc_fulfillment":906,"transfer_cost":0.0,"port_name":"Montreal","position":{"lat":45.516136,"lng":-73.65683},"status":"surplus"},{"frame_index":68,"name":"ports_8","capacity":10000,"empty":2189,"full":616,"on_shipper":65,"on_consignee":0,"shortage":0,"acc_shortage":0,"booking":48,"acc_booking":1772,"fulfillment":48,"acc_fulfillment":1772,"transfer_cost":0.0,"port_name":"New York","position":{"lat":40.73061,"lng":-73.935242},"status":"surplus"},{"frame_index":68,"name":"ports_9","capacity":10000,"empty":1422,"full":1016,"on_shipper":51,"on_consignee":0,"shortage":0,"acc_shortage":0,"booking":39,"acc_booking":1754,"fulfillment":39,"acc_fulfillment":1754,"transfer_cost":0.0,"port_name":"Oakland","position":{"lat":37.804363,"lng":-122.271111},"status":"surplus"},{"frame_index":68,"name":"ports_10","capacity":10000,"empty":598,"full":347,"on_shipper":35,"on_consignee":0,"shortage":0,"acc_shortage":0,"booking":23,"acc_booking":915,"fulfillment":23,"acc_fulfillment":915,"transfer_cost":0.0,"port_name":"Prince Rupert","position":{"lat":54.312519,"lng":-130.305405},"status":"surplus"},{"frame_index":68,"name":"ports_11","capacity":10000,"empty":2656,"full":1368,"on_shipper":142,"on_consignee":71,"shortage":0,"acc_shortage":0,"booking":91,"acc_booking":3526,"fulfillment":91,"acc_fulfillment":3526,"transfer_cost":0.0,"port_name":"Pusan","position":{"lat":35.166668,"lng":129.066666},"status":"surplus"},{"frame_index":68,"name":"ports_12","capacity":10000,"empty":3879,"full":957,"on_shipper":153,"on_consignee":0,"shortage":0,"acc_shortage":0,"booking":123,"acc_booking":4723,"fulfillment":123,"acc_fulfillment":4723,"transfer_cost":0.0,"port_name":"Qingdao","position":{"lat":36.066898,"lng":120.382698},"status":"surplus"},{"frame_index":68,"name":"ports_13","capacity":10000,"empty":395,"full":397,"on_shipper":18,"on_consignee":0,"shortage":0,"acc_shortage":0,"booking":15,"acc_booking":619,"fulfillment":15,"acc_fulfillment":619,"transfer_cost":0.0,"port_name":"San Antonio","position":{"lat":29.424349,"lng":-98.491142},"status":"surplus"},{"frame_index":68,"name":"ports_14","capacity":10000,"empty":383,"full":46,"on_shipper":29,"on_consignee":0,"shortage":0,"acc_shortage":0,"booking":18,"acc_booking":631,"fulfillment":18,"acc_fulfillment":631,"transfer_cost":0.0,"port_name":"Santos","position":{"lat":-23.96083,"lng":-46.33361},"status":"surplus"},{"frame_index":68,"name":"ports_15","capacity":10000,"empty":3106,"full":2281,"on_shipper":142,"on_consignee":0,"shortage":0,"acc_shortage":0,"booking":108,"acc_booking":4126,"fulfillment":108,"acc_fulfillment":4126,"transfer_cost":0.0,"port_name":"Seattle","position":{"lat":47.608013,"lng":-122.335167},"status":"surplus"},{"frame_index":68,"name":"ports_16","capacity":10000,"empty":4079,"full":2441,"on_shipper":247,"on_consignee":4,"shortage":0,"acc_shortage":0,"booking":149,"acc_booking":5985,"fulfillment":149,"acc_fulfillment":5985,"transfer_cost":0.0,"port_name":"Shanghai","position":{"lat":31.224361,"lng":121.46917},"status":"surplus"},{"frame_index":68,"name":"ports_17","capacity":10000,"empty":2125,"full":518,"on_shipper":93,"on_consignee":0,"shortage":0,"acc_shortage":0,"booking":61,"acc_booking":2373,"fulfillment":61,"acc_fulfillment":2373,"transfer_cost":0.0,"port_name":"Singapore","position":{"lat":1.29027,"lng":103.851959},"status":"surplus"},{"frame_index":68,"name":"ports_18","capacity":10000,"empty":615,"full":453,"on_shipper":29,"on_consignee":0,"shortage":0,"acc_shortage":0,"booking":20,"acc_booking":888,"fulfillment":20,"acc_fulfillment":888,"transfer_cost":0.0,"port_name":"Sydney","position":{"lat":-33.865143,"lng":151.2099},"status":"surplus"},{"frame_index":68,"name":"ports_19","capacity":10000,"empty":901,"full":472,"on_shipper":48,"on_consignee":0,"shortage":0,"acc_shortage":0,"booking":32,"acc_booking":1211,"fulfillment":32,"acc_fulfillment":1211,"transfer_cost":0.0,"port_name":"Vancouver","position":{"lat":49.246292,"lng":-123.116226},"status":"surplus"},{"frame_index":68,"name":"ports_20","capacity":10000,"empty":2995,"full":2070,"on_shipper":150,"on_consignee":0,"shortage":0,"acc_shortage":0,"booking":112,"acc_booking":4089,"fulfillment":112,"acc_fulfillment":4089,"transfer_cost":0.0,"port_name":"Yantian","position":{"lat":26.8533,"lng":119.8575},"status":"surplus"},{"frame_index":68,"name":"ports_21","capacity":10000,"empty":4147,"full":1577,"on_shipper":160,"on_consignee":0,"shortage":0,"acc_shortage":0,"booking":108,"acc_booking":3962,"fulfillment":108,"acc_fulfillment":3962,"transfer_cost":0.0,"port_name":"Yokohama","position":{"lat":35.443707,"lng":139.638031},"status":"surplus"}]