[{"frame_index":244,"name":"ports_0","capacity":10000,"empty":5495,"full":986,"on_shipper":120,"on_consignee":0,"shortage":0,"acc_shortage":0,"booking":84,"acc_booking":29886,"fulfillment":84,"acc_fulfillment":29886,"transfer_cost":0.0,"port_name":"Bremerhaven","position":{"lat":53.549999,"lng":8.583333},"status":"surplus"},{"frame_index":244,"name":"ports_1","capacity":10000,"empty":862,"full":69,"on_shipper":6,"on_consignee":0,"shortage":0,"acc_shortage":0,"booking":5,"acc_booking":2006,"fulfillment":5,"acc_fulfillment":2006,"transfer_cost":0.0,"port_name":"Durban","position":{"lat":-29.8579,"lng":31.0292},"status":"surplus"},{"frame_index":244,"name":"ports_2","capacity":10000,"empty":706,"full":161,"on_shipper":10,"on_consignee":0,"shortage":0,"acc_shortage":233,"booking":6,"acc_booking":1995,"fulfillment":6,"acc_fulfillment":1762,"transfer_cost":0.0,"port_name":"Itagual","position":{"lat":-22.85222,"lng":-43.77528},"status":"surplus"},{"frame_index":244,"name":"ports_3","capacity":10000,"empty":2471,"full":480,"on_shipper":45,"on_consignee":0,"shortage":0,"acc_shortage":0,"booking":29,"acc_booking":11353,"fulfillment":29,"acc_fulfillment":11353,"transfer_cost":0.0,"port_name":"LeHavre","position":{"lat":49.490002,"lng":0.1},"status":"surplus"},{"frame_index":244,"name":"ports_4","capacity":10000,"empty":1021,"full":959,"on_shipper":45,"on_consignee":0,"shortage":0,"acc_shortage":0,"booking":25,"acc_booking":9486,"fulfillment":25,"acc_fulfillment":9486,"transfer_cost":0.0,"port_name":"Los Angeles","position":{"lat":34.052235,"lng":-118.243683},"status":"surplus"},{"frame_index":244,"name":"ports_5","capacity":10000,"empty":1387,"full":417,"on_shipper":31,"on_consignee":0,"shortage":0,"acc_shortage":0,"booking":25,"acc_booking":9511,"fulfillment":25,"acc_fulfillment":9511,"transfer_cost":0.0,"port_name":"Manzanillo","position":{"lat":19.11695,"lng":-104.34214},"status":"surplus"},{"frame_index":244,"name":"ports_6","capacity":10000,"empty":274,"full":110,"on_shipper":9,"on_consignee":0,"shortage":0,"acc_shortage":0,"booking":8,"acc_booking":2922,"fulfillment":8,"acc_fulfillment":2922,"transfer_cost":0.0,"port_name":"Melbourne","position":{"lat":-37.840935,"lng":144.946457},"status":"surplus"},{"frame_index":244,"name":"ports_7","capacity":10000,"empty":2390,"full":54,"on_shipper":8,"on_consignee":0,"shortage":0,"acc_shortage":0,"booking":8,"acc_booking":2923,"fulfillment":8,"acc_fulfillment":2923,"transfer_cost":0.0,"port_name":"Montreal","position":{"lat":45.516136,"lng":-73.65683},"status":"surplus"},{"frame_index":244,"name":"ports_8","capacity":10000,"empty":4750,"full":181,"on_shipper":29,"on_consignee":0,"shortage":0,"acc_shortage":0,"booking":15,"acc_booking":5711,"fulfillment":15,"acc_fulfillment":5711,"transfer_cost":0.0,"port_name":"New York","position":{"lat":40.73061,"lng":-73.935242},"status":"surplus"},{"frame_index":244,"name":"ports_9","capacity":10000,"empty":1505,"full":426,"on_shipper":20,"on_consignee":0,"shortage":0,"acc_shortage":0,"booking":15,"acc_booking":5696,"fulfillment":15,"acc_fulfillment":5696,"transfer_cost":0.0,"port_name":"Oakland","position":{"lat":37.804363,"lng":-122.271111},"status":"surplus"},{"frame_index":244,"name":"ports_10","capacity":10000,"empty":1333,"full":50,"on_shipper":13,"on_consignee":0,"shortage":0,"acc_shortage":0,"booking":8,"acc_booking":2908,"fulfillment":8,"acc_fulfillment":2908,"transfer_cost":0.0,"port_name":"Prince Rupert","position":{"lat":54.312519,"lng":-130.305405},"status":"surplus"},{"frame_index":244,"name":"ports_11","capacity":10000,"empty":1221,"full":1383,"on_shipper":42,"on_consignee":0,"shortage":0,"acc_shortage":0,"booking":28,"acc_booking":11314,"fulfillment":28,"acc_fulfillment":11314,"transfer_cost":0.0,"port_name":"Pusan","position":{"lat":35.166668,"lng":129.066666},"status":"surplus"},{"frame_index":244,"name":"ports_12","capacity":10000,"empty":1513,"full":808,"on_shipper":46,"on_consignee":0,"shortage":0,"acc_shortage":0,"booking":34,"acc_booking":15097,"fulfillment":34,"acc_fulfillment":15097,"transfer_cost":0.0,"port_name":"Qingdao","position":{"lat":36.066898,"lng":120.382698},"status":"surplus"},{"frame_index":244,"name":"ports_13","capacity":10000,"empty":621,"full":38,"on_shipper":7,"on_consignee":0,"shortage":0,"acc_shortage":55,"booking":5,"acc_booking":1992,"fulfillment":5,"acc_fulfillment":1937,"transfer_cost":0.0,"port_name":"San Antonio","position":{"lat":29.424349,"lng":-98.491142},"status":"surplus"},{"frame_index":244,"name":"ports_14","capacity":10000,"empty":1136,"full":7,"on_shipper":11,"on_consignee":0,"shortage":0,"acc_shortage":697,"booking":5,"acc_booking":2013,"fulfillment":5,"acc_fulfillment":1316,"transfer_cost":0.0,"port_name":"Santos","position":{"lat":-23.96083,"lng":-46.33361},"status":"surplus"},{"frame_index":244,"name":"ports_15","capacity":10000,"empty":4009,"full":157,"on_shipper":49,"on_consignee":0,"shortage":0,"acc_shortage":0,"booking":33,"acc_booking":13210,"fulfillment":33,"acc_fulfillment":13210,"transfer_cost":0.0,"port_name":"Seattle","position":{"lat":47.608013,"lng":-122.335167},"status":"surplus"},{"frame_index":244,"name":"ports_16","capacity":10000,"empty":2885,"full":1013,"on_shipper":101,"on_consignee":282,"shortage":0,"acc_shortage":0,"booking":55,"acc_booking":18809,"fulfillment":55,"acc_fulfillment":18809,"transfer_cost":0.0,"port_name":"Shanghai","position":{"lat":31.224361,"lng":121.46917},"status":"surplus"},{"frame_index":244,"name":"ports_17","capacity":10000,"empty":518,"full":274,"on_shipper":28,"on_consignee":3,"shortage":0,"acc_shortage":40,"booking":20,"acc_booking":7616,"fulfillment":20,"acc_fulfillment":7576,"transfer_cost":0.0,"port_name":"Singapore","position":{"lat":1.29027,"lng":103.851959},"status":"surplus"},{"frame_index":244,"name":"ports_18","capacity":10000,"empty":204,"full":178,"on_shipper":12,"on_consignee":0,"shortage":0,"acc_shortage":5,"booking":7,"acc_booking":2894,"fulfillment":7,"acc_fulfillment":2889,"transfer_cost":0.0,"port_name":"Sydney","position":{"lat":-33.865143,"lng":151.2099},"status":"surplus"},{"frame_index":244,"name":"ports_19","capacity":10000,"empty":887,"full":219,"on_shipper":12,"on_consignee":0,"shortage":0,"acc_shortage":0,"booking":10,"acc_booking":3878,"fulfillment":10,"acc_fulfillment":3878,"transfer_cost":0.0,"port_name":"Vancouver","position":{"lat":49.246292,"lng":-123.116226},"status":"surplus"},{"frame_index":244,"name":"ports_20","capacity":10000,"empty":1905,"full":913,"on_shipper":57,"on_consignee":25,"shortage":0,"acc_shortage":0,"booking":36,"acc_booking":13030,"fulfillment":36,"acc_fulfillment":13030,"transfer_cost":0.0,"port_name":"Yantian","position":{"lat":26.8533,"lng":119.8575},"status":"surplus"},{"frame_index":244,"name":"ports_21","capacity":10000,"empty":2058,"full":153,"on_shipper":35,"on_consignee":0,"shortage":0,"acc_shortage":492,"booking":23,"acc_booking":12384,"fulfillment":23,"acc_fulfillment":11892,"transfer_cost":0.0,"port_name":"Yokohama","position":{"lat":35.443707,"lng":139.638031},"status":"surplus"}]