[{"frame_index":1066,"name":"ports_0","capacity":10000,"empty":2572,"full":3210,"on_shipper":497,"on_consignee":0,"shortage":0,"acc_shortage":861,"booking":235,"acc_booking":137350,"fulfillment":235,"acc_fulfillment":136489,"transfer_cost":0.0,"port_name":"Bremerhaven","position":{"lat":53.549999,"lng":8.583333},"status":"surplus"},{"frame_index":1066,"name":"ports_1","capacity":10000,"empty":409,"full":189,"on_shipper":26,"on_consignee":0,"shortage":0,"acc_shortage":113,"booking":16,"acc_booking":9122,"fulfillment":16,"acc_fulfillment":9009,"transfer_cost":0.0,"port_name":"Durban","position":{"lat":-29.8579,"lng":31.0292},"status":"surplus"},{"frame_index":1066,"name":"ports_2","capacity":10000,"empty":466,"full":272,"on_shipper":24,"on_consignee":0,"shortage":0,"acc_shortage":298,"booking":18,"acc_booking":9089,"fulfillment":18,"acc_fulfillment":8791,"transfer_cost":0.0,"port_name":"Itagual","position":{"lat":-22.85222,"lng":-43.77528},"status":"surplus"},{"frame_index":1066,"name":"ports_3","capacity":10000,"empty":5085,"full":1998,"on_shipper":158,"on_consignee":0,"shortage":0,"acc_shortage":0,"booking":102,"acc_booking":51936,"fulfillment":102,"acc_fulfillment":51936,"transfer_cost":0.0,"port_name":"LeHavre","position":{"lat":49.490002,"lng":0.1},"status":"surplus"},{"frame_index":1066,"name":"ports_4","capacity":10000,"empty":1524,"full":1542,"on_shipper":146,"on_consignee":0,"shortage":0,"acc_shortage":290,"booking":85,"acc_booking":43489,"fulfillment":85,"acc_fulfillment":43199,"transfer_cost":0.0,"port_name":"Los Angeles","position":{"lat":34.052235,"lng":-118.243683},"status":"surplus"},{"frame_index":1066,"name":"ports_5","capacity":10000,"empty":764,"full":741,"on_shipper":145,"on_consignee":66,"shortage":0,"acc_shortage":194,"booking":95,"acc_booking":43555,"fulfillment":95,"acc_fulfillment":43361,"transfer_cost":0.0,"port_name":"Manzanillo","position":{"lat":19.11695,"lng":-104.34214},"status":"surplus"},{"frame_index":1066,"name":"ports_6","capacity":10000,"empty":245,"full":321,"on_shipper":42,"on_consignee":0,"shortage":0,"acc_shortage":2108,"booking":25,"acc_booking":13391,"fulfillment":25,"acc_fulfillment":11283,"transfer_cost":0.0,"port_name":"Melbourne","position":{"lat":-37.840935,"lng":144.946457},"status":"surplus"},{"frame_index":1066,"name":"ports_7","capacity":10000,"empty":1378,"full":316,"on_shipper":26,"on_consignee":0,"shortage":0,"acc_shortage":0,"booking":26,"acc_booking":13396,"fulfillment":26,"acc_fulfillment":13396,"transfer_cost":0.0,"port_name":"Montreal","position":{"lat":45.516136,"lng":-73.65683},"status":"surplus"},{"frame_index":1066,"name":"ports_8","capacity":10000,"empty":5432,"full":468,"on_shipper":52,"on_consignee":0,"shortage":0,"acc_shortage":136,"booking":52,"acc_booking":26182,"fulfillment":52,"acc_fulfillment":26046,"transfer_cost":0.0,"port_name":"New York","position":{"lat":40.73061,"lng":-73.935242},"status":"surplus"},{"frame_index":1066,"name":"ports_9","capacity":10000,"empty":1838,"full":338,"on_shipper":62,"on_consignee":0,"shortage":0,"acc_shortage":45,"booking":46,"acc_booking":26236,"fulfillment":46,"acc_fulfillment":26191,"transfer_cost":0.0,"port_name":"Oakland","position":{"lat":37.804363,"lng":-122.271111},"status":"surplus"},{"frame_index":1066,"name":"ports_10","capacity":10000,"empty":1550,"full":192,"on_shipper":38,"on_consignee":0,"shortage":0,"acc_shortage":314,"booking":26,"acc_booking":13391,"fulfillment":26,"acc_fulfillment":13077,"transfer_cost":0.0,"port_name":"Prince Rupert","position":{"lat":54.312519,"lng":-130.305405},"status":"surplus"},{"frame_index":1066,"name":"ports_11","capacity":10000,"empty":2716,"full":863,"on_shipper":134,"on_consignee":0,"shortage":0,"acc_shortage":204,"booking":100,"acc_booking":51876,"fulfillment":100,"acc_fulfillment":51672,"transfer_cost":0.0,"port_name":"Pusan","position":{"lat":35.166668,"lng":129.066666},"status":"surplus"},{"frame_index":1066,"name":"ports_12","capacity":10000,"empty":3467,"full":1744,"on_shipper":206,"on_consignee":0,"shortage":0,"acc_shortage":0,"booking":141,"acc_booking":69321,"fulfillment":141,"acc_fulfillment":69321,"transfer_cost":0.0,"port_name":"Qingdao","position":{"lat":36.066898,"lng":120.382698},"status":"surplus"},{"frame_index":1066,"name":"ports_13","capacity":10000,"empty":311,"full":228,"on_shipper":25,"on_consignee":0,"shortage":0,"acc_shortage":459,"booking":16,"acc_booking":9091,"fulfillment":16,"acc_fulfillment":8632,"transfer_cost":0.0,"port_name":"San Antonio","position":{"lat":29.424349,"lng":-98.491142},"status":"surplus"},{"frame_index":1066,"name":"ports_14","capacity":10000,"empty":0,"full":378,"on_shipper":0,"on_consignee":0,"shortage":15,"acc_shortage":986,"booking":15,"acc_booking":9148,"fulfillment":0,"acc_fulfillment":8162,"transfer_cost":0.0,"port_name":"Santos","position":{"lat":-23.96083,"lng":-46.33361},"status":"demand"},{"frame_index":1066,"name":"ports_15","capacity":10000,"empty":1793,"full":1370,"on_shipper":160,"on_consignee":0,"shortage":0,"acc_shortage":1489,"booking":116,"acc_booking":60562,"fulfillment":116,"acc_fulfillment":59073,"transfer_cost":0.0,"port_name":"Seattle","position":{"lat":47.608013,"lng":-122.335167},"status":"surplus"},{"frame_index":1066,"name":"ports_16","capacity":10000,"empty":1970,"full":2648,"on_shipper":151,"on_consignee":0,"shortage":0,"acc_shortage":817,"booking":145,"acc_booking":86345,"fulfillment":145,"acc_fulfillment":85528,"transfer_cost":0.0,"port_name":"Shanghai","position":{"lat":31.224361,"lng":121.46917},"status":"surplus"},{"frame_index":1066,"name":"ports_17","capacity":10000,"empty":3159,"full":564,"on_shipper":105,"on_consignee":3,"shortage":0,"acc_shortage":619,"booking":70,"acc_booking":34870,"fulfillment":70,"acc_fulfillment":34251,"transfer_cost":0.0,"port_name":"Singapore","position":{"lat":1.29027,"lng":103.851959},"status":"surplus"},{"frame_index":1066,"name":"ports_18","capacity":10000,"empty":325,"full":168,"on_shipper":36,"on_consignee":131,"shortage":0,"acc_shortage":1374,"booking":27,"acc_booking":13387,"fulfillment":27,"acc_fulfillment":12013,"transfer_cost":3.0,"port_name":"Sydney","position":{"lat":-33.865143,"lng":151.2099},"status":"surplus"},{"frame_index":1066,"name":"ports_19","capacity":10000,"empty":978,"full":672,"on_shipper":61,"on_consignee":0,"shortage":0,"acc_shortage":0,"booking":36,"acc_booking":17724,"fulfillment":36,"acc_fulfillment":17724,"transfer_cost":0.0,"port_name":"Vancouver","position":{"lat":49.246292,"lng":-123.116226},"status":"surplus"},{"frame_index":1066,"name":"ports_20","capacity":10000,"empty":232,"full":1894,"on_shipper":205,"on_consignee":8,"shortage":0,"acc_shortage":1425,"booking":128,"acc_booking":60304,"fulfillment":128,"acc_fulfillment":58879,"transfer_cost":1.0,"port_name":"Yantian","position":{"lat":26.8533,"lng":119.8575},"status":"demand"},{"frame_index":1066,"name":"ports_21","capacity":10000,"empty":0,"full":1091,"on_shipper":48,"on_consignee":0,"shortage":125,"acc_shortage":8653,"booking":125,"acc_booking":57419,"fulfillment":0,"acc_fulfillment":48766,"transfer_cost":0.0,"port_name":"Yokohama","position":{"lat":35.443707,"lng":139.638031},"status":"demand"}]