[{"frame_index":170,"name":"ports_0","capacity":10000,"empty":6565,"full":3190,"on_shipper":484,"on_consignee":0,"shortage":0,"acc_shortage":0,"booking":359,"acc_booking":21903,"fulfillment":359,"acc_fulfillment":21903,"transfer_cost":0.0,"port_name":"Bremerhaven","position":{"lat":53.549999,"lng":8.583333},"status":"surplus"},{"frame_index":170,"name":"ports_1","capacity":10000,"empty":621,"full":269,"on_shipper":27,"on_consignee":0,"shortage":0,"acc_shortage":0,"booking":22,"acc_booking":1468,"fulfillment":22,"acc_fulfillment":1468,"transfer_cost":0.0,"port_name":"Durban","position":{"lat":-29.8579,"lng":31.0292},"status":"surplus"},{"frame_index":170,"name":"ports_2","capacity":10000,"empty":442,"full":253,"on_shipper":25,"on_consignee":0,"shortage":0,"acc_shortage":233,"booking":20,"acc_booking":1457,"fulfillment":20,"acc_fulfillment":1224,"transfer_cost":0.0,"port_name":"Itagual","position":{"lat":-22.85222,"lng":-43.77528},"status":"surplus"},{"frame_index":170,"name":"ports_3","capacity":10000,"empty":3419,"full":615,"on_shipper":131,"on_consignee":0,"shortage":0,"acc_shortage":0,"booking":111,"acc_booking":8334,"fulfillment":111,"acc_fulfillment":8334,"transfer_cost":0.0,"port_name":"LeHavre","position":{"lat":49.490002,"lng":0.1},"status":"surplus"},{"frame_index":170,"name":"ports_4","capacity":10000,"empty":2086,"full":1269,"on_shipper":153,"on_consignee":0,"shortage":0,"acc_shortage":0,"booking":95,"acc_booking":6967,"fulfillment":95,"acc_fulfillment":6967,"transfer_cost":0.0,"port_name":"Los Angeles","position":{"lat":34.052235,"lng":-118.243683},"status":"surplus"},{"frame_index":170,"name":"ports_5","capacity":10000,"empty":1477,"full":475,"on_shipper":136,"on_consignee":0,"shortage":0,"acc_shortage":0,"booking":91,"acc_booking":6949,"fulfillment":91,"acc_fulfillment":6949,"transfer_cost":0.0,"port_name":"Manzanillo","position":{"lat":19.11695,"lng":-104.34214},"status":"surplus"},{"frame_index":170,"name":"ports_6","capacity":10000,"empty":293,"full":387,"on_shipper":30,"on_consignee":0,"shortage":0,"acc_shortage":0,"booking":30,"acc_booking":2146,"fulfillment":30,"acc_fulfillment":2146,"transfer_cost":0.0,"port_name":"Melbourne","position":{"lat":-37.840935,"lng":144.946457},"status":"surplus"},{"frame_index":170,"name":"ports_7","capacity":10000,"empty":2182,"full":488,"on_shipper":45,"on_consignee":0,"shortage":0,"acc_shortage":0,"booking":29,"acc_booking":2141,"fulfillment":29,"acc_fulfillment":2141,"transfer_cost":0.0,"port_name":"Montreal","position":{"lat":45.516136,"lng":-73.65683},"status":"surplus"},{"frame_index":170,"name":"ports_8","capacity":10000,"empty":4126,"full":209,"on_shipper":114,"on_consignee":0,"shortage":0,"acc_shortage":0,"booking":57,"acc_booking":4183,"fulfillment":57,"acc_fulfillment":4183,"transfer_cost":0.0,"port_name":"New York","position":{"lat":40.73061,"lng":-73.935242},"status":"surplus"},{"frame_index":170,"name":"ports_9","capacity":10000,"empty":1061,"full":1269,"on_shipper":86,"on_consignee":0,"shortage":0,"acc_shortage":0,"booking":56,"acc_booking":4177,"fulfillment":56,"acc_fulfillment":4177,"transfer_cost":0.0,"port_name":"Oakland","position":{"lat":37.804363,"lng":-122.271111},"status":"surplus"},{"frame_index":170,"name":"ports_10","capacity":10000,"empty":745,"full":0,"on_shipper":41,"on_consignee":307,"shortage":0,"acc_shortage":0,"booking":27,"acc_booking":2132,"fulfillment":27,"acc_fulfillment":2132,"transfer_cost":41.0,"port_name":"Prince Rupert","position":{"lat":54.312519,"lng":-130.305405},"status":"surplus"},{"frame_index":170,"name":"ports_11","capacity":10000,"empty":874,"full":298,"on_shipper":191,"on_consignee":676,"shortage":0,"acc_shortage":0,"booking":116,"acc_booking":8309,"fulfillment":116,"acc_fulfillment":8309,"transfer_cost":0.0,"port_name":"Pusan","position":{"lat":35.166668,"lng":129.066666},"status":"surplus"},{"frame_index":170,"name":"ports_12","capacity":10000,"empty":2282,"full":1422,"on_shipper":211,"on_consignee":0,"shortage":0,"acc_shortage":0,"booking":160,"acc_booking":11085,"fulfillment":160,"acc_fulfillment":11085,"transfer_cost":0.0,"port_name":"Qingdao","position":{"lat":36.066898,"lng":120.382698},"status":"surplus"},{"frame_index":170,"name":"ports_13","capacity":10000,"empty":0,"full":0,"on_shipper":0,"on_consignee":242,"shortage":19,"acc_shortage":55,"booking":19,"acc_booking":1459,"fulfillment":0,"acc_fulfillment":1404,"transfer_cost":0.0,"port_name":"San Antonio","position":{"lat":29.424349,"lng":-98.491142},"status":"demand"},{"frame_index":170,"name":"ports_14","capacity":10000,"empty":0,"full":224,"on_shipper":0,"on_consignee":0,"shortage":21,"acc_shortage":300,"booking":21,"acc_booking":1476,"fulfillment":0,"acc_fulfillment":1176,"transfer_cost":0.0,"port_name":"Santos","position":{"lat":-23.96083,"lng":-46.33361},"status":"demand"},{"frame_index":170,"name":"ports_15","capacity":10000,"empty":2351,"full":1533,"on_shipper":235,"on_consignee":0,"shortage":0,"acc_shortage":0,"booking":130,"acc_booking":9692,"fulfillment":130,"acc_fulfillment":9692,"transfer_cost":0.0,"port_name":"Seattle","position":{"lat":47.608013,"lng":-122.335167},"status":"surplus"},{"frame_index":170,"name":"ports_16","capacity":10000,"empty":1872,"full":1462,"on_shipper":256,"on_consignee":608,"shortage":0,"acc_shortage":0,"booking":164,"acc_booking":13859,"fulfillment":164,"acc_fulfillment":13859,"transfer_cost":0.0,"port_name":"Shanghai","position":{"lat":31.224361,"lng":121.46917},"status":"surplus"},{"frame_index":170,"name":"ports_17","capacity":10000,"empty":240,"full":928,"on_shipper":113,"on_consignee":1,"shortage":0,"acc_shortage":0,"booking":78,"acc_booking":5589,"fulfillment":78,"acc_fulfillment":5589,"transfer_cost":0.0,"port_name":"Singapore","position":{"lat":1.29027,"lng":103.851959},"status":"demand"},{"frame_index":170,"name":"ports_18","capacity":10000,"empty":319,"full":473,"on_shipper":52,"on_consignee":0,"shortage":0,"acc_shortage":0,"booking":27,"acc_booking":2115,"fulfillment":27,"acc_fulfillment":2115,"transfer_cost":0.0,"port_name":"Sydney","position":{"lat":-33.865143,"lng":151.2099},"status":"surplus"},{"frame_index":170,"name":"ports_19","capacity":10000,"empty":789,"full":295,"on_shipper":56,"on_consignee":0,"shortage":0,"acc_shortage":0,"booking":39,"acc_booking":2836,"fulfillment":39,"acc_fulfillment":2836,"transfer_cost":0.0,"port_name":"Vancouver","position":{"lat":49.246292,"lng":-123.116226},"status":"surplus"},{"frame_index":170,"name":"ports_20","capacity":10000,"empty":1635,"full":1156,"on_shipper":217,"on_consignee":0,"shortage":0,"acc_shortage":0,"booking":149,"acc_booking":9541,"fulfillment":149,"acc_fulfillment":9541,"transfer_cost":0.0,"port_name":"Yantian","position":{"lat":26.8533,"lng":119.8575},"status":"surplus"},{"frame_index":170,"name":"ports_21","capacity":10000,"empty":1498,"full":1979,"on_shipper":199,"on_consignee":0,"shortage":0,"acc_shortage":0,"booking":141,"acc_booking":9198,"fulfillment":141,"acc_fulfillment":9198,"transfer_cost":0.0,"port_name":"Yokohama","position":{"lat":35.443707,"lng":139.638031},"status":"surplus"}]