[{"frame_index":843,"name":"ports_0","capacity":10000,"empty":5847,"full":4139,"on_shipper":349,"on_consignee":0,"shortage":0,"acc_shortage":522,"booking":276,"acc_booking":108473,"fulfillment":276,"acc_fulfillment":107951,"transfer_cost":0.0,"port_name":"Bremerhaven","position":{"lat":53.549999,"lng":8.583333},"status":"surplus"},{"frame_index":843,"name":"ports_1","capacity":10000,"empty":103,"full":281,"on_shipper":29,"on_consignee":0,"shortage":0,"acc_shortage":10,"booking":17,"acc_booking":7214,"fulfillment":17,"acc_fulfillment":7204,"transfer_cost":0.0,"port_name":"Durban","position":{"lat":-29.8579,"lng":31.0292},"status":"balance"},{"frame_index":843,"name":"ports_2","capacity":10000,"empty":441,"full":114,"on_shipper":31,"on_consignee":0,"shortage":0,"acc_shortage":298,"booking":16,"acc_booking":7181,"fulfillment":16,"acc_fulfillment":6883,"transfer_cost":0.0,"port_name":"Itagual","position":{"lat":-22.85222,"lng":-43.77528},"status":"surplus"},{"frame_index":843,"name":"ports_3","capacity":10000,"empty":5342,"full":295,"on_shipper":161,"on_consignee":138,"shortage":0,"acc_shortage":0,"booking":96,"acc_booking":41086,"fulfillment":96,"acc_fulfillment":41086,"transfer_cost":939.0,"port_name":"LeHavre","position":{"lat":49.490002,"lng":0.1},"status":"surplus"},{"frame_index":843,"name":"ports_4","capacity":10000,"empty":2628,"full":868,"on_shipper":153,"on_consignee":0,"shortage":0,"acc_shortage":290,"booking":83,"acc_booking":34399,"fulfillment":83,"acc_fulfillment":34109,"transfer_cost":0.0,"port_name":"Los Angeles","position":{"lat":34.052235,"lng":-118.243683},"status":"surplus"},{"frame_index":843,"name":"ports_5","capacity":10000,"empty":2220,"full":497,"on_shipper":137,"on_consignee":0,"shortage":0,"acc_shortage":123,"booking":86,"acc_booking":34540,"fulfillment":86,"acc_fulfillment":34417,"transfer_cost":0.0,"port_name":"Manzanillo","position":{"lat":19.11695,"lng":-104.34214},"status":"surplus"},{"frame_index":843,"name":"ports_6","capacity":10000,"empty":320,"full":128,"on_shipper":33,"on_consignee":0,"shortage":0,"acc_shortage":1654,"booking":25,"acc_booking":10586,"fulfillment":25,"acc_fulfillment":8932,"transfer_cost":0.0,"port_name":"Melbourne","position":{"lat":-37.840935,"lng":144.946457},"status":"surplus"},{"frame_index":843,"name":"ports_7","capacity":10000,"empty":706,"full":286,"on_shipper":55,"on_consignee":0,"shortage":0,"acc_shortage":0,"booking":25,"acc_booking":10602,"fulfillment":25,"acc_fulfillment":10602,"transfer_cost":0.0,"port_name":"Montreal","position":{"lat":45.516136,"lng":-73.65683},"status":"surplus"},{"frame_index":843,"name":"ports_8","capacity":10000,"empty":2929,"full":785,"on_shipper":84,"on_consignee":0,"shortage":0,"acc_shortage":136,"booking":51,"acc_booking":20702,"fulfillment":51,"acc_fulfillment":20566,"transfer_cost":0.0,"port_name":"New York","position":{"lat":40.73061,"lng":-73.935242},"status":"surplus"},{"frame_index":843,"name":"ports_9","capacity":10000,"empty":1277,"full":259,"on_shipper":67,"on_consignee":0,"shortage":0,"acc_shortage":45,"booking":53,"acc_booking":20731,"fulfillment":53,"acc_fulfillment":20686,"transfer_cost":0.0,"port_name":"Oakland","position":{"lat":37.804363,"lng":-122.271111},"status":"surplus"},{"frame_index":843,"name":"ports_10","capacity":10000,"empty":748,"full":701,"on_shipper":51,"on_consignee":0,"shortage":0,"acc_shortage":314,"booking":28,"acc_booking":10627,"fulfillment":28,"acc_fulfillment":10313,"transfer_cost":0.0,"port_name":"Prince Rupert","position":{"lat":54.312519,"lng":-130.305405},"status":"surplus"},{"frame_index":843,"name":"ports_11","capacity":10000,"empty":1784,"full":1447,"on_shipper":135,"on_consignee":0,"shortage":0,"acc_shortage":204,"booking":97,"acc_booking":41045,"fulfillment":97,"acc_fulfillment":40841,"transfer_cost":0.0,"port_name":"Pusan","position":{"lat":35.166668,"lng":129.066666},"status":"surplus"},{"frame_index":843,"name":"ports_12","capacity":10000,"empty":2603,"full":2794,"on_shipper":166,"on_consignee":0,"shortage":0,"acc_shortage":0,"booking":141,"acc_booking":54818,"fulfillment":141,"acc_fulfillment":54818,"transfer_cost":0.0,"port_name":"Qingdao","position":{"lat":36.066898,"lng":120.382698},"status":"surplus"},{"frame_index":843,"name":"ports_13","capacity":10000,"empty":514,"full":74,"on_shipper":32,"on_consignee":0,"shortage":0,"acc_shortage":449,"booking":17,"acc_booking":7192,"fulfillment":17,"acc_fulfillment":6743,"transfer_cost":0.0,"port_name":"San Antonio","position":{"lat":29.424349,"lng":-98.491142},"status":"surplus"},{"frame_index":843,"name":"ports_14","capacity":10000,"empty":419,"full":172,"on_shipper":26,"on_consignee":0,"shortage":0,"acc_shortage":819,"booking":16,"acc_booking":7231,"fulfillment":16,"acc_fulfillment":6412,"transfer_cost":0.0,"port_name":"Santos","position":{"lat":-23.96083,"lng":-46.33361},"status":"surplus"},{"frame_index":843,"name":"ports_15","capacity":10000,"empty":230,"full":2011,"on_shipper":180,"on_consignee":452,"shortage":0,"acc_shortage":0,"booking":115,"acc_booking":47925,"fulfillment":115,"acc_fulfillment":47925,"transfer_cost":75.0,"port_name":"Seattle","position":{"lat":47.608013,"lng":-122.335167},"status":"demand"},{"frame_index":843,"name":"ports_16","capacity":10000,"empty":1123,"full":1821,"on_shipper":179,"on_consignee":139,"shortage":0,"acc_shortage":760,"booking":171,"acc_booking":68185,"fulfillment":171,"acc_fulfillment":67425,"transfer_cost":0.0,"port_name":"Shanghai","position":{"lat":31.224361,"lng":121.46917},"status":"surplus"},{"frame_index":843,"name":"ports_17","capacity":10000,"empty":873,"full":647,"on_shipper":101,"on_consignee":4,"shortage":0,"acc_shortage":283,"booking":65,"acc_booking":27592,"fulfillment":65,"acc_fulfillment":27309,"transfer_cost":759.0,"port_name":"Singapore","position":{"lat":1.29027,"lng":103.851959},"status":"surplus"},{"frame_index":843,"name":"ports_18","capacity":10000,"empty":669,"full":554,"on_shipper":27,"on_consignee":0,"shortage":0,"acc_shortage":1374,"booking":27,"acc_booking":10613,"fulfillment":27,"acc_fulfillment":9239,"transfer_cost":0.0,"port_name":"Sydney","position":{"lat":-33.865143,"lng":151.2099},"status":"surplus"},{"frame_index":843,"name":"ports_19","capacity":10000,"empty":1211,"full":236,"on_shipper":63,"on_consignee":0,"shortage":0,"acc_shortage":0,"booking":31,"acc_booking":14043,"fulfillment":31,"acc_fulfillment":14043,"transfer_cost":0.0,"port_name":"Vancouver","position":{"lat":49.246292,"lng":-123.116226},"status":"surplus"},{"frame_index":843,"name":"ports_20","capacity":10000,"empty":1002,"full":1539,"on_shipper":170,"on_consignee":109,"shortage":0,"acc_shortage":942,"booking":101,"acc_booking":47661,"fulfillment":101,"acc_fulfillment":46719,"transfer_cost":111.0,"port_name":"Yantian","position":{"lat":26.8533,"lng":119.8575},"status":"surplus"},{"frame_index":843,"name":"ports_21","capacity":10000,"empty":144,"full":1576,"on_shipper":177,"on_consignee":0,"shortage":0,"acc_shortage":6236,"booking":120,"acc_booking":45445,"fulfillment":120,"acc_fulfillment":39209,"transfer_cost":0.0,"port_name":"Yokohama","position":{"lat":35.443707,"lng":139.638031},"status":"demand"}]