[{"frame_index":324,"name":"ports_0","capacity":10000,"empty":3466,"full":2259,"on_shipper":130,"on_consignee":0,"shortage":0,"acc_shortage":522,"booking":110,"acc_booking":42068,"fulfillment":110,"acc_fulfillment":41546,"transfer_cost":0.0,"port_name":"Bremerhaven","position":{"lat":53.549999,"lng":8.583333},"status":"surplus"},{"frame_index":324,"name":"ports_1","capacity":10000,"empty":454,"full":211,"on_shipper":11,"on_consignee":0,"shortage":0,"acc_shortage":0,"booking":7,"acc_booking":2798,"fulfillment":7,"acc_fulfillment":2798,"transfer_cost":0.0,"port_name":"Durban","position":{"lat":-29.8579,"lng":31.0292},"status":"surplus"},{"frame_index":324,"name":"ports_2","capacity":10000,"empty":454,"full":508,"on_shipper":9,"on_consignee":0,"shortage":0,"acc_shortage":233,"booking":7,"acc_booking":2780,"fulfillment":7,"acc_fulfillment":2547,"transfer_cost":0.0,"port_name":"Itagual","position":{"lat":-22.85222,"lng":-43.77528},"status":"surplus"},{"frame_index":324,"name":"ports_3","capacity":10000,"empty":1578,"full":632,"on_shipper":59,"on_consignee":0,"shortage":0,"acc_shortage":0,"booking":37,"acc_booking":15949,"fulfillment":37,"acc_fulfillment":15949,"transfer_cost":0.0,"port_name":"LeHavre","position":{"lat":49.490002,"lng":0.1},"status":"surplus"},{"frame_index":324,"name":"ports_4","capacity":10000,"empty":850,"full":1045,"on_shipper":50,"on_consignee":311,"shortage":0,"acc_shortage":0,"booking":32,"acc_booking":13321,"fulfillment":32,"acc_fulfillment":13321,"transfer_cost":0.0,"port_name":"Los Angeles","position":{"lat":34.052235,"lng":-118.243683},"status":"surplus"},{"frame_index":324,"name":"ports_5","capacity":10000,"empty":995,"full":0,"on_shipper":45,"on_consignee":390,"shortage":0,"acc_shortage":123,"booking":33,"acc_booking":13359,"fulfillment":33,"acc_fulfillment":13236,"transfer_cost":0.0,"port_name":"Manzanillo","position":{"lat":19.11695,"lng":-104.34214},"status":"surplus"},{"frame_index":324,"name":"ports_6","capacity":10000,"empty":162,"full":121,"on_shipper":10,"on_consignee":0,"shortage":0,"acc_shortage":340,"booking":10,"acc_booking":4094,"fulfillment":10,"acc_fulfillment":3754,"transfer_cost":0.0,"port_name":"Melbourne","position":{"lat":-37.840935,"lng":144.946457},"status":"surplus"},{"frame_index":324,"name":"ports_7","capacity":10000,"empty":1780,"full":88,"on_shipper":15,"on_consignee":0,"shortage":0,"acc_shortage":0,"booking":10,"acc_booking":4101,"fulfillment":10,"acc_fulfillment":4101,"transfer_cost":0.0,"port_name":"Montreal","position":{"lat":45.516136,"lng":-73.65683},"status":"surplus"},{"frame_index":324,"name":"ports_8","capacity":10000,"empty":425,"full":847,"on_shipper":29,"on_consignee":0,"shortage":0,"acc_shortage":0,"booking":18,"acc_booking":8013,"fulfillment":18,"acc_fulfillment":8013,"transfer_cost":0.0,"port_name":"New York","position":{"lat":40.73061,"lng":-73.935242},"status":"surplus"},{"frame_index":324,"name":"ports_9","capacity":10000,"empty":971,"full":753,"on_shipper":21,"on_consignee":0,"shortage":0,"acc_shortage":0,"booking":21,"acc_booking":7975,"fulfillment":21,"acc_fulfillment":7975,"transfer_cost":0.0,"port_name":"Oakland","position":{"lat":37.804363,"lng":-122.271111},"status":"surplus"},{"frame_index":324,"name":"ports_10","capacity":10000,"empty":500,"full":1109,"on_shipper":20,"on_consignee":0,"shortage":0,"acc_shortage":0,"booking":9,"acc_booking":4089,"fulfillment":9,"acc_fulfillment":4089,"transfer_cost":0.0,"port_name":"Prince Rupert","position":{"lat":54.312519,"lng":-130.305405},"status":"surplus"},{"frame_index":324,"name":"ports_11","capacity":10000,"empty":1835,"full":383,"on_shipper":58,"on_consignee":0,"shortage":0,"acc_shortage":0,"booking":39,"acc_booking":15892,"fulfillment":39,"acc_fulfillment":15892,"transfer_cost":0.0,"port_name":"Pusan","position":{"lat":35.166668,"lng":129.066666},"status":"surplus"},{"frame_index":324,"name":"ports_12","capacity":10000,"empty":2468,"full":1327,"on_shipper":61,"on_consignee":0,"shortage":0,"acc_shortage":0,"booking":53,"acc_booking":21240,"fulfillment":53,"acc_fulfillment":21240,"transfer_cost":0.0,"port_name":"Qingdao","position":{"lat":36.066898,"lng":120.382698},"status":"surplus"},{"frame_index":324,"name":"ports_13","capacity":10000,"empty":681,"full":89,"on_shipper":9,"on_consignee":0,"shortage":0,"acc_shortage":123,"booking":7,"acc_booking":2779,"fulfillment":7,"acc_fulfillment":2656,"transfer_cost":0.0,"port_name":"San Antonio","position":{"lat":29.424349,"lng":-98.491142},"status":"surplus"},{"frame_index":324,"name":"ports_14","capacity":10000,"empty":719,"full":58,"on_shipper":13,"on_consignee":0,"shortage":0,"acc_shortage":697,"booking":7,"acc_booking":2831,"fulfillment":7,"acc_fulfillment":2134,"transfer_cost":0.0,"port_name":"Santos","position":{"lat":-23.96083,"lng":-46.33361},"status":"surplus"},{"frame_index":324,"name":"ports_15","capacity":10000,"empty":4758,"full":242,"on_shipper":81,"on_consignee":0,"shortage":0,"acc_shortage":0,"booking":45,"acc_booking":18535,"fulfillment":45,"acc_fulfillment":18535,"transfer_cost":0.0,"port_name":"Seattle","position":{"lat":47.608013,"lng":-122.335167},"status":"surplus"},{"frame_index":324,"name":"ports_16","capacity":10000,"empty":1100,"full":674,"on_shipper":106,"on_consignee":0,"shortage":0,"acc_shortage":0,"booking":67,"acc_booking":26464,"fulfillment":67,"acc_fulfillment":26464,"transfer_cost":0.0,"port_name":"Shanghai","position":{"lat":31.224361,"lng":121.46917},"status":"surplus"},{"frame_index":324,"name":"ports_17","capacity":10000,"empty":2803,"full":564,"on_shipper":40,"on_consignee":0,"shortage":0,"acc_shortage":40,"booking":25,"acc_booking":10684,"fulfillment":25,"acc_fulfillment":10644,"transfer_cost":0.0,"port_name":"Singapore","position":{"lat":1.29027,"lng":103.851959},"status":"surplus"},{"frame_index":324,"name":"ports_18","capacity":10000,"empty":334,"full":28,"on_shipper":18,"on_consignee":0,"shortage":0,"acc_shortage":377,"booking":10,"acc_booking":4068,"fulfillment":10,"acc_fulfillment":3691,"transfer_cost":0.0,"port_name":"Sydney","position":{"lat":-33.865143,"lng":151.2099},"status":"surplus"},{"frame_index":324,"name":"ports_19","capacity":10000,"empty":231,"full":520,"on_shipper":18,"on_consignee":50,"shortage":0,"acc_shortage":0,"booking":13,"acc_booking":5443,"fulfillment":13,"acc_fulfillment":5443,"transfer_cost":0.0,"port_name":"Vancouver","position":{"lat":49.246292,"lng":-123.116226},"status":"surplus"},{"frame_index":324,"name":"ports_20","capacity":10000,"empty":594,"full":547,"on_shipper":78,"on_consignee":0,"shortage":0,"acc_shortage":0,"booking":40,"acc_booking":18339,"fulfillment":40,"acc_fulfillment":18339,"transfer_cost":0.0,"port_name":"Yantian","position":{"lat":26.8533,"lng":119.8575},"status":"surplus"},{"frame_index":324,"name":"ports_21","capacity":10000,"empty":1380,"full":1572,"on_shipper":63,"on_consignee":0,"shortage":0,"acc_shortage":1887,"booking":40,"acc_booking":17597,"fulfillment":40,"acc_fulfillment":15710,"transfer_cost":0.0,"port_name":"Yokohama","position":{"lat":35.443707,"lng":139.638031},"status":"surplus"}]