[{"frame_index":267,"name":"ports_0","capacity":10000,"empty":4199,"full":1815,"on_shipper":444,"on_consignee":47,"shortage":0,"acc_shortage":0,"booking":258,"acc_booking":32961,"fulfillment":258,"acc_fulfillment":32961,"transfer_cost":0.0,"port_name":"Bremerhaven","position":{"lat":53.549999,"lng":8.583333},"status":"surplus"},{"frame_index":267,"name":"ports_1","capacity":10000,"empty":837,"full":45,"on_shipper":25,"on_consignee":0,"shortage":0,"acc_shortage":0,"booking":15,"acc_booking":2214,"fulfillment":15,"acc_fulfillment":2214,"transfer_cost":0.0,"port_name":"Durban","position":{"lat":-29.8579,"lng":31.0292},"status":"surplus"},{"frame_index":267,"name":"ports_2","capacity":10000,"empty":833,"full":96,"on_shipper":24,"on_consignee":0,"shortage":0,"acc_shortage":233,"booking":16,"acc_booking":2196,"fulfillment":16,"acc_fulfillment":1963,"transfer_cost":0.0,"port_name":"Itagual","position":{"lat":-22.85222,"lng":-43.77528},"status":"surplus"},{"frame_index":267,"name":"ports_3","capacity":10000,"empty":1269,"full":1354,"on_shipper":132,"on_consignee":0,"shortage":0,"acc_shortage":0,"booking":98,"acc_booking":12521,"fulfillment":98,"acc_fulfillment":12521,"transfer_cost":0.0,"port_name":"LeHavre","position":{"lat":49.490002,"lng":0.1},"status":"surplus"},{"frame_index":267,"name":"ports_4","capacity":10000,"empty":1355,"full":78,"on_shipper":128,"on_consignee":1681,"shortage":0,"acc_shortage":0,"booking":80,"acc_booking":10459,"fulfillment":80,"acc_fulfillment":10459,"transfer_cost":4.0,"port_name":"Los Angeles","position":{"lat":34.052235,"lng":-118.243683},"status":"surplus"},{"frame_index":267,"name":"ports_5","capacity":10000,"empty":568,"full":635,"on_shipper":111,"on_consignee":0,"shortage":0,"acc_shortage":0,"booking":89,"acc_booking":10489,"fulfillment":89,"acc_fulfillment":10489,"transfer_cost":0.0,"port_name":"Manzanillo","position":{"lat":19.11695,"lng":-104.34214},"status":"surplus"},{"frame_index":267,"name":"ports_6","capacity":10000,"empty":220,"full":192,"on_shipper":25,"on_consignee":0,"shortage":0,"acc_shortage":0,"booking":25,"acc_booking":3221,"fulfillment":25,"acc_fulfillment":3221,"transfer_cost":0.0,"port_name":"Melbourne","position":{"lat":-37.840935,"lng":144.946457},"status":"surplus"},{"frame_index":267,"name":"ports_7","capacity":10000,"empty":2155,"full":119,"on_shipper":37,"on_consignee":0,"shortage":0,"acc_shortage":0,"booking":24,"acc_booking":3225,"fulfillment":24,"acc_fulfillment":3225,"transfer_cost":0.0,"port_name":"Montreal","position":{"lat":45.516136,"lng":-73.65683},"status":"surplus"},{"frame_index":267,"name":"ports_8","capacity":10000,"empty":4170,"full":745,"on_shipper":45,"on_consignee":0,"shortage":0,"acc_shortage":0,"booking":45,"acc_booking":6291,"fulfillment":45,"acc_fulfillment":6291,"transfer_cost":0.0,"port_name":"New York","position":{"lat":40.73061,"lng":-73.935242},"status":"surplus"},{"frame_index":267,"name":"ports_9","capacity":10000,"empty":933,"full":942,"on_shipper":76,"on_consignee":0,"shortage":0,"acc_shortage":0,"booking":48,"acc_booking":6268,"fulfillment":48,"acc_fulfillment":6268,"transfer_cost":0.0,"port_name":"Oakland","position":{"lat":37.804363,"lng":-122.271111},"status":"surplus"},{"frame_index":267,"name":"ports_10","capacity":10000,"empty":1390,"full":206,"on_shipper":33,"on_consignee":0,"shortage":0,"acc_shortage":0,"booking":21,"acc_booking":3199,"fulfillment":21,"acc_fulfillment":3199,"transfer_cost":0.0,"port_name":"Prince Rupert","position":{"lat":54.312519,"lng":-130.305405},"status":"surplus"},{"frame_index":267,"name":"ports_11","capacity":10000,"empty":1212,"full":1208,"on_shipper":127,"on_consignee":0,"shortage":0,"acc_shortage":0,"booking":96,"acc_booking":12485,"fulfillment":96,"acc_fulfillment":12485,"transfer_cost":0.0,"port_name":"Pusan","position":{"lat":35.166668,"lng":129.066666},"status":"surplus"},{"frame_index":267,"name":"ports_12","capacity":10000,"empty":1635,"full":1026,"on_shipper":180,"on_consignee":294,"shortage":0,"acc_shortage":0,"booking":135,"acc_booking":16680,"fulfillment":135,"acc_fulfillment":16680,"transfer_cost":0.0,"port_name":"Qingdao","position":{"lat":36.066898,"lng":120.382698},"status":"surplus"},{"frame_index":267,"name":"ports_13","capacity":10000,"empty":417,"full":220,"on_shipper":29,"on_consignee":0,"shortage":0,"acc_shortage":55,"booking":16,"acc_booking":2196,"fulfillment":16,"acc_fulfillment":2141,"transfer_cost":0.0,"port_name":"San Antonio","position":{"lat":29.424349,"lng":-98.491142},"status":"surplus"},{"frame_index":267,"name":"ports_14","capacity":10000,"empty":1166,"full":100,"on_shipper":23,"on_consignee":0,"shortage":0,"acc_shortage":697,"booking":14,"acc_booking":2210,"fulfillment":14,"acc_fulfillment":1513,"transfer_cost":0.0,"port_name":"Santos","position":{"lat":-23.96083,"lng":-46.33361},"status":"surplus"},{"frame_index":267,"name":"ports_15","capacity":10000,"empty":4026,"full":1156,"on_shipper":163,"on_consignee":0,"shortage":0,"acc_shortage":0,"booking":108,"acc_booking":14566,"fulfillment":108,"acc_fulfillment":14566,"transfer_cost":0.0,"port_name":"Seattle","position":{"lat":47.608013,"lng":-122.335167},"status":"surplus"},{"frame_index":267,"name":"ports_16","capacity":10000,"empty":3063,"full":975,"on_shipper":239,"on_consignee":246,"shortage":0,"acc_shortage":0,"booking":180,"acc_booking":20760,"fulfillment":180,"acc_fulfillment":20760,"transfer_cost":8.0,"port_name":"Shanghai","position":{"lat":31.224361,"lng":121.46917},"status":"surplus"},{"frame_index":267,"name":"ports_17","capacity":10000,"empty":2356,"full":331,"on_shipper":102,"on_consignee":0,"shortage":0,"acc_shortage":40,"booking":63,"acc_booking":8391,"fulfillment":63,"acc_fulfillment":8351,"transfer_cost":0.0,"port_name":"Singapore","position":{"lat":1.29027,"lng":103.851959},"status":"surplus"},{"frame_index":267,"name":"ports_18","capacity":10000,"empty":205,"full":188,"on_shipper":40,"on_consignee":0,"shortage":0,"acc_shortage":5,"booking":26,"acc_booking":3199,"fulfillment":26,"acc_fulfillment":3194,"transfer_cost":0.0,"port_name":"Sydney","position":{"lat":-33.865143,"lng":151.2099},"status":"surplus"},{"frame_index":267,"name":"ports_19","capacity":10000,"empty":934,"full":223,"on_shipper":47,"on_consignee":0,"shortage":0,"acc_shortage":0,"booking":30,"acc_booking":4280,"fulfillment":30,"acc_fulfillment":4280,"transfer_cost":0.0,"port_name":"Vancouver","position":{"lat":49.246292,"lng":-123.116226},"status":"surplus"},{"frame_index":267,"name":"ports_20","capacity":10000,"empty":2024,"full":1474,"on_shipper":157,"on_consignee":79,"shortage":0,"acc_shortage":0,"booking":109,"acc_booking":14355,"fulfillment":109,"acc_fulfillment":14355,"transfer_cost":2.0,"port_name":"Yantian","position":{"lat":26.8533,"lng":119.8575},"status":"surplus"},{"frame_index":267,"name":"ports_21","capacity":10000,"empty":1063,"full":979,"on_shipper":192,"on_consignee":0,"shortage":0,"acc_shortage":492,"booking":117,"acc_booking":13663,"fulfillment":117,"acc_fulfillment":13171,"transfer_cost":0.0,"port_name":"Yokohama","position":{"lat":35.443707,"lng":139.638031},"status":"surplus"}]