[{"frame_index":452,"name":"ports_0","capacity":10000,"empty":3465,"full":1963,"on_shipper":41,"on_consignee":578,"shortage":0,"acc_shortage":522,"booking":33,"acc_booking":57117,"fulfillment":33,"acc_fulfillment":56595,"transfer_cost":0.0,"port_name":"Bremerhaven","position":{"lat":53.549999,"lng":8.583333},"status":"surplus"},{"frame_index":452,"name":"ports_1","capacity":10000,"empty":318,"full":98,"on_shipper":3,"on_consignee":0,"shortage":0,"acc_shortage":0,"booking":2,"acc_booking":3833,"fulfillment":2,"acc_fulfillment":3833,"transfer_cost":0.0,"port_name":"Durban","position":{"lat":-29.8579,"lng":31.0292},"status":"surplus"},{"frame_index":452,"name":"ports_2","capacity":10000,"empty":334,"full":639,"on_shipper":3,"on_consignee":0,"shortage":0,"acc_shortage":233,"booking":2,"acc_booking":3806,"fulfillment":2,"acc_fulfillment":3573,"transfer_cost":0.0,"port_name":"Itagual","position":{"lat":-22.85222,"lng":-43.77528},"status":"surplus"},{"frame_index":452,"name":"ports_3","capacity":10000,"empty":1131,"full":456,"on_shipper":16,"on_consignee":0,"shortage":0,"acc_shortage":0,"booking":12,"acc_booking":21734,"fulfillment":12,"acc_fulfillment":21734,"transfer_cost":0.0,"port_name":"LeHavre","position":{"lat":49.490002,"lng":0.1},"status":"surplus"},{"frame_index":452,"name":"ports_4","capacity":10000,"empty":1833,"full":26,"on_shipper":17,"on_consignee":0,"shortage":0,"acc_shortage":0,"booking":10,"acc_booking":18161,"fulfillment":10,"acc_fulfillment":18161,"transfer_cost":0.0,"port_name":"Los Angeles","position":{"lat":34.052235,"lng":-118.243683},"status":"surplus"},{"frame_index":452,"name":"ports_5","capacity":10000,"empty":819,"full":1144,"on_shipper":17,"on_consignee":0,"shortage":0,"acc_shortage":123,"booking":10,"acc_booking":18249,"fulfillment":10,"acc_fulfillment":18126,"transfer_cost":0.0,"port_name":"Manzanillo","position":{"lat":19.11695,"lng":-104.34214},"status":"surplus"},{"frame_index":452,"name":"ports_6","capacity":10000,"empty":237,"full":283,"on_shipper":3,"on_consignee":0,"shortage":0,"acc_shortage":819,"booking":3,"acc_booking":5594,"fulfillment":3,"acc_fulfillment":4775,"transfer_cost":0.0,"port_name":"Melbourne","position":{"lat":-37.840935,"lng":144.946457},"status":"surplus"},{"frame_index":452,"name":"ports_7","capacity":10000,"empty":1625,"full":223,"on_shipper":6,"on_consignee":0,"shortage":0,"acc_shortage":0,"booking":3,"acc_booking":5598,"fulfillment":3,"acc_fulfillment":5598,"transfer_cost":0.0,"port_name":"Montreal","position":{"lat":45.516136,"lng":-73.65683},"status":"surplus"},{"frame_index":452,"name":"ports_8","capacity":10000,"empty":3705,"full":12,"on_shipper":16,"on_consignee":0,"shortage":0,"acc_shortage":0,"booking":6,"acc_booking":10924,"fulfillment":6,"acc_fulfillment":10924,"transfer_cost":0.0,"port_name":"New York","position":{"lat":40.73061,"lng":-73.935242},"status":"surplus"},{"frame_index":452,"name":"ports_9","capacity":10000,"empty":98,"full":1584,"on_shipper":15,"on_consignee":0,"shortage":0,"acc_shortage":0,"booking":6,"acc_booking":10928,"fulfillment":6,"acc_fulfillment":10928,"transfer_cost":0.0,"port_name":"Oakland","position":{"lat":37.804363,"lng":-122.271111},"status":"surplus"},{"frame_index":452,"name":"ports_10","capacity":10000,"empty":446,"full":40,"on_shipper":6,"on_consignee":0,"shortage":0,"acc_shortage":0,"booking":3,"acc_booking":5591,"fulfillment":3,"acc_fulfillment":5591,"transfer_cost":0.0,"port_name":"Prince Rupert","position":{"lat":54.312519,"lng":-130.305405},"status":"surplus"},{"frame_index":452,"name":"ports_11","capacity":10000,"empty":2231,"full":191,"on_shipper":23,"on_consignee":0,"shortage":0,"acc_shortage":204,"booking":12,"acc_booking":21668,"fulfillment":12,"acc_fulfillment":21464,"transfer_cost":0.0,"port_name":"Pusan","position":{"lat":35.166668,"lng":129.066666},"status":"surplus"},{"frame_index":452,"name":"ports_12","capacity":10000,"empty":3034,"full":871,"on_shipper":21,"on_consignee":0,"shortage":0,"acc_shortage":0,"booking":14,"acc_booking":28969,"fulfillment":14,"acc_fulfillment":28969,"transfer_cost":0.0,"port_name":"Qingdao","position":{"lat":36.066898,"lng":120.382698},"status":"surplus"},{"frame_index":452,"name":"ports_13","capacity":10000,"empty":589,"full":28,"on_shipper":4,"on_consignee":0,"shortage":0,"acc_shortage":286,"booking":2,"acc_booking":3801,"fulfillment":2,"acc_fulfillment":3515,"transfer_cost":0.0,"port_name":"San Antonio","position":{"lat":29.424349,"lng":-98.491142},"status":"surplus"},{"frame_index":452,"name":"ports_14","capacity":10000,"empty":419,"full":5,"on_shipper":6,"on_consignee":0,"shortage":0,"acc_shortage":697,"booking":2,"acc_booking":3837,"fulfillment":2,"acc_fulfillment":3140,"transfer_cost":0.0,"port_name":"Santos","position":{"lat":-23.96083,"lng":-46.33361},"status":"surplus"},{"frame_index":452,"name":"ports_15","capacity":10000,"empty":3106,"full":1091,"on_shipper":23,"on_consignee":0,"shortage":0,"acc_shortage":0,"booking":14,"acc_booking":25302,"fulfillment":14,"acc_fulfillment":25302,"transfer_cost":0.0,"port_name":"Seattle","position":{"lat":47.608013,"lng":-122.335167},"status":"surplus"},{"frame_index":452,"name":"ports_16","capacity":10000,"empty":1709,"full":374,"on_shipper":30,"on_consignee":0,"shortage":0,"acc_shortage":0,"booking":21,"acc_booking":36135,"fulfillment":21,"acc_fulfillment":36135,"transfer_cost":0.0,"port_name":"Shanghai","position":{"lat":31.224361,"lng":121.46917},"status":"surplus"},{"frame_index":452,"name":"ports_17","capacity":10000,"empty":2421,"full":124,"on_shipper":17,"on_consignee":113,"shortage":0,"acc_shortage":40,"booking":8,"acc_booking":14574,"fulfillment":8,"acc_fulfillment":14534,"transfer_cost":2.0,"port_name":"Singapore","position":{"lat":1.29027,"lng":103.851959},"status":"surplus"},{"frame_index":452,"name":"ports_18","capacity":10000,"empty":0,"full":382,"on_shipper":0,"on_consignee":0,"shortage":3,"acc_shortage":760,"booking":3,"acc_booking":5563,"fulfillment":0,"acc_fulfillment":4803,"transfer_cost":0.0,"port_name":"Sydney","position":{"lat":-33.865143,"lng":151.2099},"status":"balance"},{"frame_index":452,"name":"ports_19","capacity":10000,"empty":1025,"full":76,"on_shipper":8,"on_consignee":0,"shortage":0,"acc_shortage":0,"booking":4,"acc_booking":7438,"fulfillment":4,"acc_fulfillment":7438,"transfer_cost":0.0,"port_name":"Vancouver","position":{"lat":49.246292,"lng":-123.116226},"status":"surplus"},{"frame_index":452,"name":"ports_20","capacity":10000,"empty":1892,"full":311,"on_shipper":22,"on_consignee":0,"shortage":0,"acc_shortage":350,"booking":13,"acc_booking":25046,"fulfillment":13,"acc_fulfillment":24696,"transfer_cost":0.0,"port_name":"Yantian","position":{"lat":26.8533,"lng":119.8575},"status":"surplus"},{"frame_index":452,"name":"ports_21","capacity":10000,"empty":717,"full":981,"on_shipper":7,"on_consignee":0,"shortage":0,"acc_shortage":2740,"booking":4,"acc_booking":23909,"fulfillment":4,"acc_fulfillment":21169,"transfer_cost":0.0,"port_name":"Yokohama","position":{"lat":35.443707,"lng":139.638031},"status":"surplus"}]