[{"frame_index":743,"name":"ports_0","capacity":10000,"empty":3710,"full":2210,"on_shipper":563,"on_consignee":0,"shortage":0,"acc_shortage":522,"booking":268,"acc_booking":96072,"fulfillment":268,"acc_fulfillment":95550,"transfer_cost":0.0,"port_name":"Bremerhaven","position":{"lat":53.549999,"lng":8.583333},"status":"surplus"},{"frame_index":743,"name":"ports_1","capacity":10000,"empty":2,"full":0,"on_shipper":18,"on_consignee":392,"shortage":10,"acc_shortage":10,"booking":18,"acc_booking":6384,"fulfillment":8,"acc_fulfillment":6374,"transfer_cost":2.0,"port_name":"Durban","position":{"lat":-29.8579,"lng":31.0292},"status":"demand"},{"frame_index":743,"name":"ports_2","capacity":10000,"empty":526,"full":146,"on_shipper":25,"on_consignee":0,"shortage":0,"acc_shortage":298,"booking":21,"acc_booking":6363,"fulfillment":21,"acc_fulfillment":6065,"transfer_cost":0.0,"port_name":"Itagual","position":{"lat":-22.85222,"lng":-43.77528},"status":"surplus"},{"frame_index":743,"name":"ports_3","capacity":10000,"empty":1131,"full":2404,"on_shipper":192,"on_consignee":0,"shortage":0,"acc_shortage":0,"booking":113,"acc_booking":36394,"fulfillment":113,"acc_fulfillment":36394,"transfer_cost":0.0,"port_name":"LeHavre","position":{"lat":49.490002,"lng":0.1},"status":"surplus"},{"frame_index":743,"name":"ports_4","capacity":10000,"empty":1752,"full":574,"on_shipper":164,"on_consignee":0,"shortage":0,"acc_shortage":290,"booking":96,"acc_booking":30466,"fulfillment":96,"acc_fulfillment":30176,"transfer_cost":0.0,"port_name":"Los Angeles","position":{"lat":34.052235,"lng":-118.243683},"status":"surplus"},{"frame_index":743,"name":"ports_5","capacity":10000,"empty":563,"full":1260,"on_shipper":155,"on_consignee":0,"shortage":0,"acc_shortage":123,"booking":105,"acc_booking":30577,"fulfillment":105,"acc_fulfillment":30454,"transfer_cost":0.0,"port_name":"Manzanillo","position":{"lat":19.11695,"lng":-104.34214},"status":"balance"},{"frame_index":743,"name":"ports_6","capacity":10000,"empty":80,"full":331,"on_shipper":39,"on_consignee":0,"shortage":0,"acc_shortage":1388,"booking":30,"acc_booking":9376,"fulfillment":30,"acc_fulfillment":7988,"transfer_cost":0.0,"port_name":"Melbourne","position":{"lat":-37.840935,"lng":144.946457},"status":"demand"},{"frame_index":743,"name":"ports_7","capacity":10000,"empty":367,"full":342,"on_shipper":55,"on_consignee":0,"shortage":0,"acc_shortage":0,"booking":29,"acc_booking":9383,"fulfillment":29,"acc_fulfillment":9383,"transfer_cost":0.0,"port_name":"Montreal","position":{"lat":45.516136,"lng":-73.65683},"status":"surplus"},{"frame_index":743,"name":"ports_8","capacity":10000,"empty":555,"full":420,"on_shipper":105,"on_consignee":0,"shortage":0,"acc_shortage":0,"booking":57,"acc_booking":18327,"fulfillment":57,"acc_fulfillment":18327,"transfer_cost":0.0,"port_name":"New York","position":{"lat":40.73061,"lng":-73.935242},"status":"surplus"},{"frame_index":743,"name":"ports_9","capacity":10000,"empty":335,"full":987,"on_shipper":75,"on_consignee":0,"shortage":0,"acc_shortage":45,"booking":51,"acc_booking":18374,"fulfillment":51,"acc_fulfillment":18329,"transfer_cost":0.0,"port_name":"Oakland","position":{"lat":37.804363,"lng":-122.271111},"status":"surplus"},{"frame_index":743,"name":"ports_10","capacity":10000,"empty":1015,"full":794,"on_shipper":36,"on_consignee":0,"shortage":0,"acc_shortage":314,"booking":28,"acc_booking":9396,"fulfillment":28,"acc_fulfillment":9082,"transfer_cost":0.0,"port_name":"Prince Rupert","position":{"lat":54.312519,"lng":-130.305405},"status":"surplus"},{"frame_index":743,"name":"ports_11","capacity":10000,"empty":996,"full":1028,"on_shipper":196,"on_consignee":1646,"shortage":0,"acc_shortage":204,"booking":117,"acc_booking":36345,"fulfillment":117,"acc_fulfillment":36141,"transfer_cost":0.0,"port_name":"Pusan","position":{"lat":35.166668,"lng":129.066666},"status":"surplus"},{"frame_index":743,"name":"ports_12","capacity":10000,"empty":3088,"full":1266,"on_shipper":251,"on_consignee":0,"shortage":0,"acc_shortage":0,"booking":145,"acc_booking":48553,"fulfillment":145,"acc_fulfillment":48553,"transfer_cost":0.0,"port_name":"Qingdao","position":{"lat":36.066898,"lng":120.382698},"status":"surplus"},{"frame_index":743,"name":"ports_13","capacity":10000,"empty":149,"full":442,"on_shipper":26,"on_consignee":0,"shortage":0,"acc_shortage":325,"booking":18,"acc_booking":6375,"fulfillment":18,"acc_fulfillment":6050,"transfer_cost":0.0,"port_name":"San Antonio","position":{"lat":29.424349,"lng":-98.491142},"status":"surplus"},{"frame_index":743,"name":"ports_14","capacity":10000,"empty":392,"full":486,"on_shipper":30,"on_consignee":0,"shortage":0,"acc_shortage":762,"booking":22,"acc_booking":6413,"fulfillment":22,"acc_fulfillment":5651,"transfer_cost":0.0,"port_name":"Santos","position":{"lat":-23.96083,"lng":-46.33361},"status":"surplus"},{"frame_index":743,"name":"ports_15","capacity":10000,"empty":1185,"full":2442,"on_shipper":205,"on_consignee":0,"shortage":0,"acc_shortage":0,"booking":133,"acc_booking":42448,"fulfillment":133,"acc_fulfillment":42448,"transfer_cost":0.0,"port_name":"Seattle","position":{"lat":47.608013,"lng":-122.335167},"status":"surplus"},{"frame_index":743,"name":"ports_16","capacity":10000,"empty":637,"full":2413,"on_shipper":255,"on_consignee":111,"shortage":0,"acc_shortage":760,"booking":169,"acc_booking":60375,"fulfillment":169,"acc_fulfillment":59615,"transfer_cost":0.0,"port_name":"Shanghai","position":{"lat":31.224361,"lng":121.46917},"status":"demand"},{"frame_index":743,"name":"ports_17","capacity":10000,"empty":2214,"full":664,"on_shipper":100,"on_consignee":398,"shortage":0,"acc_shortage":283,"booking":76,"acc_booking":24456,"fulfillment":76,"acc_fulfillment":24173,"transfer_cost":0.0,"port_name":"Singapore","position":{"lat":1.29027,"lng":103.851959},"status":"surplus"},{"frame_index":743,"name":"ports_18","capacity":10000,"empty":280,"full":42,"on_shipper":41,"on_consignee":48,"shortage":0,"acc_shortage":1226,"booking":32,"acc_booking":9380,"fulfillment":32,"acc_fulfillment":8154,"transfer_cost":0.0,"port_name":"Sydney","position":{"lat":-33.865143,"lng":151.2099},"status":"surplus"},{"frame_index":743,"name":"ports_19","capacity":10000,"empty":1128,"full":210,"on_shipper":55,"on_consignee":0,"shortage":0,"acc_shortage":0,"booking":41,"acc_booking":12441,"fulfillment":41,"acc_fulfillment":12441,"transfer_cost":0.0,"port_name":"Vancouver","position":{"lat":49.246292,"lng":-123.116226},"status":"surplus"},{"frame_index":743,"name":"ports_20","capacity":10000,"empty":433,"full":2335,"on_shipper":170,"on_consignee":0,"shortage":0,"acc_shortage":942,"booking":122,"acc_booking":42163,"fulfillment":122,"acc_fulfillment":41221,"transfer_cost":0.0,"port_name":"Yantian","position":{"lat":26.8533,"lng":119.8575},"status":"demand"},{"frame_index":743,"name":"ports_21","capacity":10000,"empty":464,"full":321,"on_shipper":239,"on_consignee":0,"shortage":0,"acc_shortage":5065,"booking":145,"acc_booking":40287,"fulfillment":145,"acc_fulfillment":35222,"transfer_cost":0.0,"port_name":"Yokohama","position":{"lat":35.443707,"lng":139.638031},"status":"demand"}]