[{"frame_index":1008,"name":"ports_0","capacity":10000,"empty":3566,"full":1331,"on_shipper":60,"on_consignee":0,"shortage":0,"acc_shortage":861,"booking":39,"acc_booking":129653,"fulfillment":39,"acc_fulfillment":128792,"transfer_cost":0.0,"port_name":"Bremerhaven","position":{"lat":53.549999,"lng":8.583333},"status":"surplus"},{"frame_index":1008,"name":"ports_1","capacity":10000,"empty":331,"full":99,"on_shipper":6,"on_consignee":0,"shortage":0,"acc_shortage":113,"booking":3,"acc_booking":8621,"fulfillment":3,"acc_fulfillment":8508,"transfer_cost":0.0,"port_name":"Durban","position":{"lat":-29.8579,"lng":31.0292},"status":"surplus"},{"frame_index":1008,"name":"ports_2","capacity":10000,"empty":325,"full":304,"on_shipper":7,"on_consignee":0,"shortage":0,"acc_shortage":298,"booking":3,"acc_booking":8587,"fulfillment":3,"acc_fulfillment":8289,"transfer_cost":0.0,"port_name":"Itagual","position":{"lat":-22.85222,"lng":-43.77528},"status":"surplus"},{"frame_index":1008,"name":"ports_3","capacity":10000,"empty":6186,"full":186,"on_shipper":17,"on_consignee":0,"shortage":0,"acc_shortage":0,"booking":13,"acc_booking":49078,"fulfillment":13,"acc_fulfillment":49078,"transfer_cost":0.0,"port_name":"LeHavre","position":{"lat":49.490002,"lng":0.1},"status":"surplus"},{"frame_index":1008,"name":"ports_4","capacity":10000,"empty":2641,"full":97,"on_shipper":11,"on_consignee":0,"shortage":0,"acc_shortage":290,"booking":11,"acc_booking":41102,"fulfillment":11,"acc_fulfillment":40812,"transfer_cost":0.0,"port_name":"Los Angeles","position":{"lat":34.052235,"lng":-118.243683},"status":"surplus"},{"frame_index":1008,"name":"ports_5","capacity":10000,"empty":49,"full":311,"on_shipper":25,"on_consignee":0,"shortage":0,"acc_shortage":163,"booking":12,"acc_booking":41122,"fulfillment":12,"acc_fulfillment":40959,"transfer_cost":0.0,"port_name":"Manzanillo","position":{"lat":19.11695,"lng":-104.34214},"status":"balance"},{"frame_index":1008,"name":"ports_6","capacity":10000,"empty":229,"full":268,"on_shipper":10,"on_consignee":0,"shortage":0,"acc_shortage":2108,"booking":4,"acc_booking":12654,"fulfillment":4,"acc_fulfillment":10546,"transfer_cost":0.0,"port_name":"Melbourne","position":{"lat":-37.840935,"lng":144.946457},"status":"surplus"},{"frame_index":1008,"name":"ports_7","capacity":10000,"empty":1469,"full":46,"on_shipper":8,"on_consignee":0,"shortage":0,"acc_shortage":0,"booking":4,"acc_booking":12662,"fulfillment":4,"acc_fulfillment":12662,"transfer_cost":0.0,"port_name":"Montreal","position":{"lat":45.516136,"lng":-73.65683},"status":"surplus"},{"frame_index":1008,"name":"ports_8","capacity":10000,"empty":3418,"full":66,"on_shipper":13,"on_consignee":0,"shortage":0,"acc_shortage":136,"booking":7,"acc_booking":24741,"fulfillment":7,"acc_fulfillment":24605,"transfer_cost":0.0,"port_name":"New York","position":{"lat":40.73061,"lng":-73.935242},"status":"surplus"},{"frame_index":1008,"name":"ports_9","capacity":10000,"empty":1290,"full":49,"on_shipper":17,"on_consignee":0,"shortage":0,"acc_shortage":45,"booking":7,"acc_booking":24777,"fulfillment":7,"acc_fulfillment":24732,"transfer_cost":0.0,"port_name":"Oakland","position":{"lat":37.804363,"lng":-122.271111},"status":"surplus"},{"frame_index":1008,"name":"ports_10","capacity":10000,"empty":880,"full":283,"on_shipper":8,"on_consignee":0,"shortage":0,"acc_shortage":314,"booking":4,"acc_booking":12666,"fulfillment":4,"acc_fulfillment":12352,"transfer_cost":0.0,"port_name":"Prince Rupert","position":{"lat":54.312519,"lng":-130.305405},"status":"surplus"},{"frame_index":1008,"name":"ports_11","capacity":10000,"empty":2110,"full":802,"on_shipper":34,"on_consignee":0,"shortage":0,"acc_shortage":204,"booking":14,"acc_booking":49026,"fulfillment":14,"acc_fulfillment":48822,"transfer_cost":0.0,"port_name":"Pusan","position":{"lat":35.166668,"lng":129.066666},"status":"surplus"},{"frame_index":1008,"name":"ports_12","capacity":10000,"empty":2814,"full":1771,"on_shipper":25,"on_consignee":24,"shortage":0,"acc_shortage":0,"booking":19,"acc_booking":65557,"fulfillment":19,"acc_fulfillment":65557,"transfer_cost":0.0,"port_name":"Qingdao","position":{"lat":36.066898,"lng":120.382698},"status":"surplus"},{"frame_index":1008,"name":"ports_13","capacity":10000,"empty":339,"full":19,"on_shipper":6,"on_consignee":0,"shortage":0,"acc_shortage":459,"booking":3,"acc_booking":8593,"fulfillment":3,"acc_fulfillment":8134,"transfer_cost":0.0,"port_name":"San Antonio","position":{"lat":29.424349,"lng":-98.491142},"status":"surplus"},{"frame_index":1008,"name":"ports_14","capacity":10000,"empty":103,"full":138,"on_shipper":6,"on_consignee":0,"shortage":0,"acc_shortage":876,"booking":2,"acc_booking":8639,"fulfillment":2,"acc_fulfillment":7763,"transfer_cost":0.0,"port_name":"Santos","position":{"lat":-23.96083,"lng":-46.33361},"status":"surplus"},{"frame_index":1008,"name":"ports_15","capacity":10000,"empty":1167,"full":663,"on_shipper":29,"on_consignee":0,"shortage":0,"acc_shortage":1489,"booking":16,"acc_booking":57242,"fulfillment":16,"acc_fulfillment":55753,"transfer_cost":0.0,"port_name":"Seattle","position":{"lat":47.608013,"lng":-122.335167},"status":"surplus"},{"frame_index":1008,"name":"ports_16","capacity":10000,"empty":1938,"full":1333,"on_shipper":28,"on_consignee":1,"shortage":0,"acc_shortage":817,"booking":23,"acc_booking":81682,"fulfillment":23,"acc_fulfillment":80865,"transfer_cost":112.0,"port_name":"Shanghai","position":{"lat":31.224361,"lng":121.46917},"status":"surplus"},{"frame_index":1008,"name":"ports_17","capacity":10000,"empty":992,"full":489,"on_shipper":16,"on_consignee":0,"shortage":0,"acc_shortage":619,"booking":9,"acc_booking":32960,"fulfillment":9,"acc_fulfillment":32341,"transfer_cost":0.0,"port_name":"Singapore","position":{"lat":1.29027,"lng":103.851959},"status":"surplus"},{"frame_index":1008,"name":"ports_18","capacity":10000,"empty":433,"full":441,"on_shipper":5,"on_consignee":0,"shortage":0,"acc_shortage":1374,"booking":4,"acc_booking":12664,"fulfillment":4,"acc_fulfillment":11290,"transfer_cost":0.0,"port_name":"Sydney","position":{"lat":-33.865143,"lng":151.2099},"status":"surplus"},{"frame_index":1008,"name":"ports_19","capacity":10000,"empty":1217,"full":257,"on_shipper":13,"on_consignee":0,"shortage":0,"acc_shortage":0,"booking":5,"acc_booking":16756,"fulfillment":5,"acc_fulfillment":16756,"transfer_cost":0.0,"port_name":"Vancouver","position":{"lat":49.246292,"lng":-123.116226},"status":"surplus"},{"frame_index":1008,"name":"ports_20","capacity":10000,"empty":705,"full":687,"on_shipper":30,"on_consignee":0,"shortage":0,"acc_shortage":1425,"booking":16,"acc_booking":56948,"fulfillment":16,"acc_fulfillment":55523,"transfer_cost":0.0,"port_name":"Yantian","position":{"lat":26.8533,"lng":119.8575},"status":"surplus"},{"frame_index":1008,"name":"ports_21","capacity":10000,"empty":752,"full":97,"on_shipper":18,"on_consignee":0,"shortage":0,"acc_shortage":7747,"booking":6,"acc_booking":54254,"fulfillment":6,"acc_fulfillment":46507,"transfer_cost":0.0,"port_name":"Yokohama","position":{"lat":35.443707,"lng":139.638031},"status":"surplus"}]