[{"frame_index":567,"name":"ports_0","capacity":10000,"empty":6230,"full":606,"on_shipper":129,"on_consignee":0,"shortage":0,"acc_shortage":522,"booking":91,"acc_booking":71774,"fulfillment":91,"acc_fulfillment":71252,"transfer_cost":0.0,"port_name":"Bremerhaven","position":{"lat":53.549999,"lng":8.583333},"status":"surplus"},{"frame_index":567,"name":"ports_1","capacity":10000,"empty":372,"full":218,"on_shipper":8,"on_consignee":0,"shortage":0,"acc_shortage":0,"booking":6,"acc_booking":4788,"fulfillment":6,"acc_fulfillment":4788,"transfer_cost":0.0,"port_name":"Durban","position":{"lat":-29.8579,"lng":31.0292},"status":"surplus"},{"frame_index":567,"name":"ports_2","capacity":10000,"empty":301,"full":77,"on_shipper":7,"on_consignee":0,"shortage":0,"acc_shortage":233,"booking":5,"acc_booking":4760,"fulfillment":5,"acc_fulfillment":4527,"transfer_cost":0.0,"port_name":"Itagual","position":{"lat":-22.85222,"lng":-43.77528},"status":"surplus"},{"frame_index":567,"name":"ports_3","capacity":10000,"empty":651,"full":1623,"on_shipper":39,"on_consignee":0,"shortage":0,"acc_shortage":0,"booking":30,"acc_booking":27204,"fulfillment":30,"acc_fulfillment":27204,"transfer_cost":0.0,"port_name":"LeHavre","position":{"lat":49.490002,"lng":0.1},"status":"surplus"},{"frame_index":567,"name":"ports_4","capacity":10000,"empty":1530,"full":295,"on_shipper":30,"on_consignee":0,"shortage":0,"acc_shortage":0,"booking":26,"acc_booking":22753,"fulfillment":26,"acc_fulfillment":22753,"transfer_cost":0.0,"port_name":"Los Angeles","position":{"lat":34.052235,"lng":-118.243683},"status":"surplus"},{"frame_index":567,"name":"ports_5","capacity":10000,"empty":2009,"full":385,"on_shipper":39,"on_consignee":0,"shortage":0,"acc_shortage":123,"booking":26,"acc_booking":22794,"fulfillment":26,"acc_fulfillment":22671,"transfer_cost":0.0,"port_name":"Manzanillo","position":{"lat":19.11695,"lng":-104.34214},"status":"surplus"},{"frame_index":567,"name":"ports_6","capacity":10000,"empty":507,"full":53,"on_shipper":8,"on_consignee":0,"shortage":0,"acc_shortage":1259,"booking":8,"acc_booking":7007,"fulfillment":8,"acc_fulfillment":5748,"transfer_cost":0.0,"port_name":"Melbourne","position":{"lat":-37.840935,"lng":144.946457},"status":"surplus"},{"frame_index":567,"name":"ports_7","capacity":10000,"empty":1517,"full":155,"on_shipper":10,"on_consignee":0,"shortage":0,"acc_shortage":0,"booking":8,"acc_booking":7010,"fulfillment":8,"acc_fulfillment":7010,"transfer_cost":0.0,"port_name":"Montreal","position":{"lat":45.516136,"lng":-73.65683},"status":"surplus"},{"frame_index":567,"name":"ports_8","capacity":10000,"empty":1969,"full":159,"on_shipper":20,"on_consignee":0,"shortage":0,"acc_shortage":0,"booking":14,"acc_booking":13698,"fulfillment":14,"acc_fulfillment":13698,"transfer_cost":0.0,"port_name":"New York","position":{"lat":40.73061,"lng":-73.935242},"status":"surplus"},{"frame_index":567,"name":"ports_9","capacity":10000,"empty":660,"full":85,"on_shipper":20,"on_consignee":0,"shortage":0,"acc_shortage":45,"booking":16,"acc_booking":13727,"fulfillment":16,"acc_fulfillment":13682,"transfer_cost":0.0,"port_name":"Oakland","position":{"lat":37.804363,"lng":-122.271111},"status":"surplus"},{"frame_index":567,"name":"ports_10","capacity":10000,"empty":896,"full":159,"on_shipper":10,"on_consignee":0,"shortage":0,"acc_shortage":314,"booking":9,"acc_booking":7028,"fulfillment":9,"acc_fulfillment":6714,"transfer_cost":0.0,"port_name":"Prince Rupert","position":{"lat":54.312519,"lng":-130.305405},"status":"surplus"},{"frame_index":567,"name":"ports_11","capacity":10000,"empty":271,"full":191,"on_shipper":41,"on_consignee":60,"shortage":0,"acc_shortage":204,"booking":30,"acc_booking":27151,"fulfillment":30,"acc_fulfillment":26947,"transfer_cost":0.0,"port_name":"Pusan","position":{"lat":35.166668,"lng":129.066666},"status":"surplus"},{"frame_index":567,"name":"ports_12","capacity":10000,"empty":3073,"full":738,"on_shipper":55,"on_consignee":0,"shortage":0,"acc_shortage":0,"booking":39,"acc_booking":36319,"fulfillment":39,"acc_fulfillment":36319,"transfer_cost":0.0,"port_name":"Qingdao","position":{"lat":36.066898,"lng":120.382698},"status":"surplus"},{"frame_index":567,"name":"ports_13","capacity":10000,"empty":119,"full":265,"on_shipper":7,"on_consignee":0,"shortage":0,"acc_shortage":286,"booking":5,"acc_booking":4753,"fulfillment":5,"acc_fulfillment":4467,"transfer_cost":0.0,"port_name":"San Antonio","position":{"lat":29.424349,"lng":-98.491142},"status":"surplus"},{"frame_index":567,"name":"ports_14","capacity":10000,"empty":444,"full":50,"on_shipper":8,"on_consignee":0,"shortage":0,"acc_shortage":762,"booking":5,"acc_booking":4803,"fulfillment":5,"acc_fulfillment":4041,"transfer_cost":0.0,"port_name":"Santos","position":{"lat":-23.96083,"lng":-46.33361},"status":"surplus"},{"frame_index":567,"name":"ports_15","capacity":10000,"empty":2299,"full":2459,"on_shipper":52,"on_consignee":0,"shortage":0,"acc_shortage":0,"booking":36,"acc_booking":31687,"fulfillment":36,"acc_fulfillment":31687,"transfer_cost":0.0,"port_name":"Seattle","position":{"lat":47.608013,"lng":-122.335167},"status":"surplus"},{"frame_index":567,"name":"ports_16","capacity":10000,"empty":170,"full":2478,"on_shipper":70,"on_consignee":0,"shortage":0,"acc_shortage":470,"booking":42,"acc_booking":45208,"fulfillment":42,"acc_fulfillment":44738,"transfer_cost":0.0,"port_name":"Shanghai","position":{"lat":31.224361,"lng":121.46917},"status":"balance"},{"frame_index":567,"name":"ports_17","capacity":10000,"empty":1085,"full":277,"on_shipper":27,"on_consignee":169,"shortage":0,"acc_shortage":40,"booking":21,"acc_booking":18260,"fulfillment":21,"acc_fulfillment":18220,"transfer_cost":0.0,"port_name":"Singapore","position":{"lat":1.29027,"lng":103.851959},"status":"surplus"},{"frame_index":567,"name":"ports_18","capacity":10000,"empty":684,"full":126,"on_shipper":9,"on_consignee":0,"shortage":0,"acc_shortage":957,"booking":9,"acc_booking":6981,"fulfillment":9,"acc_fulfillment":6024,"transfer_cost":0.0,"port_name":"Sydney","position":{"lat":-33.865143,"lng":151.2099},"status":"surplus"},{"frame_index":567,"name":"ports_19","capacity":10000,"empty":904,"full":270,"on_shipper":13,"on_consignee":0,"shortage":0,"acc_shortage":0,"booking":11,"acc_booking":9319,"fulfillment":11,"acc_fulfillment":9319,"transfer_cost":0.0,"port_name":"Vancouver","position":{"lat":49.246292,"lng":-123.116226},"status":"surplus"},{"frame_index":567,"name":"ports_20","capacity":10000,"empty":982,"full":1681,"on_shipper":40,"on_consignee":10,"shortage":0,"acc_shortage":395,"booking":35,"acc_booking":31491,"fulfillment":35,"acc_fulfillment":31096,"transfer_cost":57.0,"port_name":"Yantian","position":{"lat":26.8533,"lng":119.8575},"status":"surplus"},{"frame_index":567,"name":"ports_21","capacity":10000,"empty":1095,"full":178,"on_shipper":41,"on_consignee":0,"shortage":0,"acc_shortage":3258,"booking":29,"acc_booking":29956,"fulfillment":29,"acc_fulfillment":26698,"transfer_cost":0.0,"port_name":"Yokohama","position":{"lat":35.443707,"lng":139.638031},"status":"surplus"}]