[{"frame_index":737,"name":"ports_0","capacity":10000,"empty":4686,"full":1217,"on_shipper":150,"on_consignee":430,"shortage":0,"acc_shortage":522,"booking":102,"acc_booking":94666,"fulfillment":102,"acc_fulfillment":94144,"transfer_cost":4.0,"port_name":"Bremerhaven","position":{"lat":53.549999,"lng":8.583333},"status":"surplus"},{"frame_index":737,"name":"ports_1","capacity":10000,"empty":79,"full":355,"on_shipper":7,"on_consignee":0,"shortage":0,"acc_shortage":0,"booking":6,"acc_booking":6295,"fulfillment":6,"acc_fulfillment":6295,"transfer_cost":0.0,"port_name":"Durban","position":{"lat":-29.8579,"lng":31.0292},"status":"balance"},{"frame_index":737,"name":"ports_2","capacity":10000,"empty":617,"full":70,"on_shipper":10,"on_consignee":0,"shortage":0,"acc_shortage":298,"booking":6,"acc_booking":6272,"fulfillment":6,"acc_fulfillment":5974,"transfer_cost":0.0,"port_name":"Itagual","position":{"lat":-22.85222,"lng":-43.77528},"status":"surplus"},{"frame_index":737,"name":"ports_3","capacity":10000,"empty":1656,"full":2028,"on_shipper":43,"on_consignee":0,"shortage":0,"acc_shortage":0,"booking":34,"acc_booking":35869,"fulfillment":34,"acc_fulfillment":35869,"transfer_cost":0.0,"port_name":"LeHavre","position":{"lat":49.490002,"lng":0.1},"status":"surplus"},{"frame_index":737,"name":"ports_4","capacity":10000,"empty":1495,"full":263,"on_shipper":28,"on_consignee":704,"shortage":0,"acc_shortage":290,"booking":28,"acc_booking":30019,"fulfillment":28,"acc_fulfillment":29729,"transfer_cost":0.0,"port_name":"Los Angeles","position":{"lat":34.052235,"lng":-118.243683},"status":"surplus"},{"frame_index":737,"name":"ports_5","capacity":10000,"empty":1029,"full":908,"on_shipper":41,"on_consignee":0,"shortage":0,"acc_shortage":123,"booking":27,"acc_booking":30111,"fulfillment":27,"acc_fulfillment":29988,"transfer_cost":0.0,"port_name":"Manzanillo","position":{"lat":19.11695,"lng":-104.34214},"status":"surplus"},{"frame_index":737,"name":"ports_6","capacity":10000,"empty":0,"full":235,"on_shipper":0,"on_consignee":215,"shortage":9,"acc_shortage":1388,"booking":9,"acc_booking":9241,"fulfillment":0,"acc_fulfillment":7853,"transfer_cost":0.0,"port_name":"Melbourne","position":{"lat":-37.840935,"lng":144.946457},"status":"balance"},{"frame_index":737,"name":"ports_7","capacity":10000,"empty":501,"full":254,"on_shipper":9,"on_consignee":0,"shortage":0,"acc_shortage":0,"booking":9,"acc_booking":9249,"fulfillment":9,"acc_fulfillment":9249,"transfer_cost":0.0,"port_name":"Montreal","position":{"lat":45.516136,"lng":-73.65683},"status":"surplus"},{"frame_index":737,"name":"ports_8","capacity":10000,"empty":820,"full":237,"on_shipper":23,"on_consignee":0,"shortage":0,"acc_shortage":0,"booking":17,"acc_booking":18062,"fulfillment":17,"acc_fulfillment":18062,"transfer_cost":0.0,"port_name":"New York","position":{"lat":40.73061,"lng":-73.935242},"status":"surplus"},{"frame_index":737,"name":"ports_9","capacity":10000,"empty":595,"full":783,"on_shipper":19,"on_consignee":0,"shortage":0,"acc_shortage":45,"booking":19,"acc_booking":18114,"fulfillment":19,"acc_fulfillment":18069,"transfer_cost":0.0,"port_name":"Oakland","position":{"lat":37.804363,"lng":-122.271111},"status":"surplus"},{"frame_index":737,"name":"ports_10","capacity":10000,"empty":1157,"full":670,"on_shipper":18,"on_consignee":0,"shortage":0,"acc_shortage":314,"booking":10,"acc_booking":9254,"fulfillment":10,"acc_fulfillment":8940,"transfer_cost":0.0,"port_name":"Prince Rupert","position":{"lat":54.312519,"lng":-130.305405},"status":"surplus"},{"frame_index":737,"name":"ports_11","capacity":10000,"empty":1531,"full":3072,"on_shipper":51,"on_consignee":0,"shortage":0,"acc_shortage":204,"booking":34,"acc_booking":35810,"fulfillment":34,"acc_fulfillment":35606,"transfer_cost":0.0,"port_name":"Pusan","position":{"lat":35.166668,"lng":129.066666},"status":"surplus"},{"frame_index":737,"name":"ports_12","capacity":10000,"empty":2419,"full":1436,"on_shipper":75,"on_consignee":0,"shortage":0,"acc_shortage":0,"booking":43,"acc_booking":47843,"fulfillment":43,"acc_fulfillment":47843,"transfer_cost":0.0,"port_name":"Qingdao","position":{"lat":36.066898,"lng":120.382698},"status":"surplus"},{"frame_index":737,"name":"ports_13","capacity":10000,"empty":237,"full":372,"on_shipper":8,"on_consignee":0,"shortage":0,"acc_shortage":325,"booking":6,"acc_booking":6287,"fulfillment":6,"acc_fulfillment":5962,"transfer_cost":0.0,"port_name":"San Antonio","position":{"lat":29.424349,"lng":-98.491142},"status":"surplus"},{"frame_index":737,"name":"ports_14","capacity":10000,"empty":484,"full":417,"on_shipper":7,"on_consignee":0,"shortage":0,"acc_shortage":762,"booking":6,"acc_booking":6321,"fulfillment":6,"acc_fulfillment":5559,"transfer_cost":0.0,"port_name":"Santos","position":{"lat":-23.96083,"lng":-46.33361},"status":"surplus"},{"frame_index":737,"name":"ports_15","capacity":10000,"empty":1549,"full":2429,"on_shipper":61,"on_consignee":0,"shortage":0,"acc_shortage":0,"booking":41,"acc_booking":41823,"fulfillment":41,"acc_fulfillment":41823,"transfer_cost":0.0,"port_name":"Seattle","position":{"lat":47.608013,"lng":-122.335167},"status":"surplus"},{"frame_index":737,"name":"ports_16","capacity":10000,"empty":360,"full":3334,"on_shipper":73,"on_consignee":0,"shortage":0,"acc_shortage":712,"booking":56,"acc_booking":59607,"fulfillment":56,"acc_fulfillment":58895,"transfer_cost":0.0,"port_name":"Shanghai","position":{"lat":31.224361,"lng":121.46917},"status":"surplus"},{"frame_index":737,"name":"ports_17","capacity":10000,"empty":2563,"full":800,"on_shipper":31,"on_consignee":5,"shortage":0,"acc_shortage":283,"booking":23,"acc_booking":24102,"fulfillment":23,"acc_fulfillment":23819,"transfer_cost":0.0,"port_name":"Singapore","position":{"lat":1.29027,"lng":103.851959},"status":"surplus"},{"frame_index":737,"name":"ports_18","capacity":10000,"empty":0,"full":257,"on_shipper":0,"on_consignee":0,"shortage":8,"acc_shortage":1192,"booking":8,"acc_booking":9237,"fulfillment":0,"acc_fulfillment":8045,"transfer_cost":0.0,"port_name":"Sydney","position":{"lat":-33.865143,"lng":151.2099},"status":"balance"},{"frame_index":737,"name":"ports_19","capacity":10000,"empty":733,"full":644,"on_shipper":16,"on_consignee":0,"shortage":0,"acc_shortage":0,"booking":11,"acc_booking":12254,"fulfillment":11,"acc_fulfillment":12254,"transfer_cost":0.0,"port_name":"Vancouver","position":{"lat":49.246292,"lng":-123.116226},"status":"surplus"},{"frame_index":737,"name":"ports_20","capacity":10000,"empty":1003,"full":1945,"on_shipper":55,"on_consignee":0,"shortage":0,"acc_shortage":942,"booking":40,"acc_booking":41570,"fulfillment":40,"acc_fulfillment":40628,"transfer_cost":0.0,"port_name":"Yantian","position":{"lat":26.8533,"lng":119.8575},"status":"surplus"},{"frame_index":737,"name":"ports_21","capacity":10000,"empty":0,"full":746,"on_shipper":0,"on_consignee":0,"shortage":35,"acc_shortage":4998,"booking":35,"acc_booking":39642,"fulfillment":0,"acc_fulfillment":34644,"transfer_cost":0.0,"port_name":"Yokohama","position":{"lat":35.443707,"lng":139.638031},"status":"demand"}]