[{"frame_index":1069,"name":"ports_0","capacity":10000,"empty":1886,"full":4175,"on_shipper":218,"on_consignee":0,"shortage":0,"acc_shortage":861,"booking":174,"acc_booking":138036,"fulfillment":174,"acc_fulfillment":137175,"transfer_cost":0.0,"port_name":"Bremerhaven","position":{"lat":53.549999,"lng":8.583333},"status":"surplus"},{"frame_index":1069,"name":"ports_1","capacity":10000,"empty":362,"full":243,"on_shipper":19,"on_consignee":0,"shortage":0,"acc_shortage":113,"booking":13,"acc_booking":9169,"fulfillment":13,"acc_fulfillment":9056,"transfer_cost":0.0,"port_name":"Durban","position":{"lat":-29.8579,"lng":31.0292},"status":"surplus"},{"frame_index":1069,"name":"ports_2","capacity":10000,"empty":420,"full":326,"on_shipper":16,"on_consignee":0,"shortage":0,"acc_shortage":298,"booking":12,"acc_booking":9135,"fulfillment":12,"acc_fulfillment":8837,"transfer_cost":0.0,"port_name":"Itagual","position":{"lat":-22.85222,"lng":-43.77528},"status":"surplus"},{"frame_index":1069,"name":"ports_3","capacity":10000,"empty":4822,"full":2288,"on_shipper":131,"on_consignee":0,"shortage":0,"acc_shortage":0,"booking":70,"acc_booking":52199,"fulfillment":70,"acc_fulfillment":52199,"transfer_cost":0.0,"port_name":"LeHavre","position":{"lat":49.490002,"lng":0.1},"status":"surplus"},{"frame_index":1069,"name":"ports_4","capacity":10000,"empty":1299,"full":1812,"on_shipper":101,"on_consignee":0,"shortage":0,"acc_shortage":290,"booking":59,"acc_booking":43714,"fulfillment":59,"acc_fulfillment":43424,"transfer_cost":0.0,"port_name":"Los Angeles","position":{"lat":34.052235,"lng":-118.243683},"status":"surplus"},{"frame_index":1069,"name":"ports_5","capacity":10000,"empty":670,"full":631,"on_shipper":89,"on_consignee":0,"shortage":0,"acc_shortage":194,"booking":59,"acc_booking":43791,"fulfillment":59,"acc_fulfillment":43597,"transfer_cost":0.0,"port_name":"Manzanillo","position":{"lat":19.11695,"lng":-104.34214},"status":"surplus"},{"frame_index":1069,"name":"ports_6","capacity":10000,"empty":176,"full":398,"on_shipper":34,"on_consignee":0,"shortage":0,"acc_shortage":2108,"booking":19,"acc_booking":13460,"fulfillment":19,"acc_fulfillment":11352,"transfer_cost":0.0,"port_name":"Melbourne","position":{"lat":-37.840935,"lng":144.946457},"status":"surplus"},{"frame_index":1069,"name":"ports_7","capacity":10000,"empty":1310,"full":392,"on_shipper":18,"on_consignee":0,"shortage":0,"acc_shortage":0,"booking":18,"acc_booking":13464,"fulfillment":18,"acc_fulfillment":13464,"transfer_cost":0.0,"port_name":"Montreal","position":{"lat":45.516136,"lng":-73.65683},"status":"surplus"},{"frame_index":1069,"name":"ports_8","capacity":10000,"empty":5292,"full":578,"on_shipper":82,"on_consignee":0,"shortage":0,"acc_shortage":136,"booking":39,"acc_booking":26322,"fulfillment":39,"acc_fulfillment":26186,"transfer_cost":0.0,"port_name":"New York","position":{"lat":40.73061,"lng":-73.935242},"status":"surplus"},{"frame_index":1069,"name":"ports_9","capacity":10000,"empty":1706,"full":501,"on_shipper":31,"on_consignee":0,"shortage":0,"acc_shortage":45,"booking":31,"acc_booking":26368,"fulfillment":31,"acc_fulfillment":26323,"transfer_cost":0.0,"port_name":"Oakland","position":{"lat":37.804363,"lng":-122.271111},"status":"surplus"},{"frame_index":1069,"name":"ports_10","capacity":10000,"empty":1529,"full":0,"on_shipper":27,"on_consignee":143,"shortage":0,"acc_shortage":314,"booking":21,"acc_booking":13456,"fulfillment":21,"acc_fulfillment":13142,"transfer_cost":44.0,"port_name":"Prince Rupert","position":{"lat":54.312519,"lng":-130.305405},"status":"surplus"},{"frame_index":1069,"name":"ports_11","capacity":10000,"empty":2435,"full":1141,"on_shipper":137,"on_consignee":0,"shortage":0,"acc_shortage":204,"booking":75,"acc_booking":52157,"fulfillment":75,"acc_fulfillment":51953,"transfer_cost":0.0,"port_name":"Pusan","position":{"lat":35.166668,"lng":129.066666},"status":"surplus"},{"frame_index":1069,"name":"ports_12","capacity":10000,"empty":3127,"full":2059,"on_shipper":150,"on_consignee":198,"shortage":0,"acc_shortage":0,"booking":93,"acc_booking":69686,"fulfillment":93,"acc_fulfillment":69686,"transfer_cost":0.0,"port_name":"Qingdao","position":{"lat":36.066898,"lng":120.382698},"status":"surplus"},{"frame_index":1069,"name":"ports_13","capacity":10000,"empty":268,"full":281,"on_shipper":15,"on_consignee":0,"shortage":0,"acc_shortage":459,"booking":12,"acc_booking":9134,"fulfillment":12,"acc_fulfillment":8675,"transfer_cost":0.0,"port_name":"San Antonio","position":{"lat":29.424349,"lng":-98.491142},"status":"surplus"},{"frame_index":1069,"name":"ports_14","capacity":10000,"empty":0,"full":378,"on_shipper":0,"on_consignee":0,"shortage":14,"acc_shortage":1031,"booking":14,"acc_booking":9193,"fulfillment":0,"acc_fulfillment":8162,"transfer_cost":0.0,"port_name":"Santos","position":{"lat":-23.96083,"lng":-46.33361},"status":"demand"},{"frame_index":1069,"name":"ports_15","capacity":10000,"empty":1480,"full":1728,"on_shipper":115,"on_consignee":0,"shortage":0,"acc_shortage":1489,"booking":83,"acc_booking":60875,"fulfillment":83,"acc_fulfillment":59386,"transfer_cost":0.0,"port_name":"Seattle","position":{"lat":47.608013,"lng":-122.335167},"status":"surplus"},{"frame_index":1069,"name":"ports_16","capacity":10000,"empty":1718,"full":2856,"on_shipper":200,"on_consignee":0,"shortage":0,"acc_shortage":817,"booking":120,"acc_booking":86807,"fulfillment":120,"acc_fulfillment":85990,"transfer_cost":0.0,"port_name":"Shanghai","position":{"lat":31.224361,"lng":121.46917},"status":"surplus"},{"frame_index":1069,"name":"ports_17","capacity":10000,"empty":3024,"full":697,"on_shipper":93,"on_consignee":15,"shortage":0,"acc_shortage":619,"booking":50,"acc_booking":35052,"fulfillment":50,"acc_fulfillment":34433,"transfer_cost":44.0,"port_name":"Singapore","position":{"lat":1.29027,"lng":103.851959},"status":"surplus"},{"frame_index":1069,"name":"ports_18","capacity":10000,"empty":388,"full":255,"on_shipper":17,"on_consignee":0,"shortage":0,"acc_shortage":1374,"booking":17,"acc_booking":13455,"fulfillment":17,"acc_fulfillment":12081,"transfer_cost":0.0,"port_name":"Sydney","position":{"lat":-33.865143,"lng":151.2099},"status":"surplus"},{"frame_index":1069,"name":"ports_19","capacity":10000,"empty":1041,"full":437,"on_shipper":44,"on_consignee":0,"shortage":0,"acc_shortage":0,"booking":26,"acc_booking":17818,"fulfillment":26,"acc_fulfillment":17818,"transfer_cost":0.0,"port_name":"Vancouver","position":{"lat":49.246292,"lng":-123.116226},"status":"surplus"},{"frame_index":1069,"name":"ports_20","capacity":10000,"empty":0,"full":2262,"on_shipper":77,"on_consignee":0,"shortage":66,"acc_shortage":1491,"booking":88,"acc_booking":60610,"fulfillment":22,"acc_fulfillment":59119,"transfer_cost":0.0,"port_name":"Yantian","position":{"lat":26.8533,"lng":119.8575},"status":"demand"},{"frame_index":1069,"name":"ports_21","capacity":10000,"empty":0,"full":1139,"on_shipper":0,"on_consignee":0,"shortage":87,"acc_shortage":8982,"booking":87,"acc_booking":57748,"fulfillment":0,"acc_fulfillment":48766,"transfer_cost":0.0,"port_name":"Yokohama","position":{"lat":35.443707,"lng":139.638031},"status":"demand"}]