[{"frame_index":584,"name":"ports_0","capacity":10000,"empty":7956,"full":1389,"on_shipper":95,"on_consignee":0,"shortage":0,"acc_shortage":522,"booking":95,"acc_booking":73063,"fulfillment":95,"acc_fulfillment":72541,"transfer_cost":0.0,"port_name":"Bremerhaven","position":{"lat":53.549999,"lng":8.583333},"status":"surplus"},{"frame_index":584,"name":"ports_1","capacity":10000,"empty":284,"full":304,"on_shipper":10,"on_consignee":0,"shortage":0,"acc_shortage":0,"booking":6,"acc_booking":4876,"fulfillment":6,"acc_fulfillment":4876,"transfer_cost":0.0,"port_name":"Durban","position":{"lat":-29.8579,"lng":31.0292},"status":"surplus"},{"frame_index":584,"name":"ports_2","capacity":10000,"empty":536,"full":44,"on_shipper":9,"on_consignee":0,"shortage":0,"acc_shortage":233,"booking":7,"acc_booking":4850,"fulfillment":7,"acc_fulfillment":4617,"transfer_cost":0.0,"port_name":"Itagual","position":{"lat":-22.85222,"lng":-43.77528},"status":"surplus"},{"frame_index":584,"name":"ports_3","capacity":10000,"empty":509,"full":1694,"on_shipper":50,"on_consignee":0,"shortage":0,"acc_shortage":0,"booking":35,"acc_booking":27697,"fulfillment":35,"acc_fulfillment":27697,"transfer_cost":0.0,"port_name":"LeHavre","position":{"lat":49.490002,"lng":0.1},"status":"surplus"},{"frame_index":584,"name":"ports_4","capacity":10000,"empty":1584,"full":290,"on_shipper":54,"on_consignee":0,"shortage":0,"acc_shortage":0,"booking":29,"acc_booking":23168,"fulfillment":29,"acc_fulfillment":23168,"transfer_cost":0.0,"port_name":"Los Angeles","position":{"lat":34.052235,"lng":-118.243683},"status":"surplus"},{"frame_index":584,"name":"ports_5","capacity":10000,"empty":1590,"full":792,"on_shipper":51,"on_consignee":0,"shortage":0,"acc_shortage":123,"booking":26,"acc_booking":23213,"fulfillment":26,"acc_fulfillment":23090,"transfer_cost":0.0,"port_name":"Manzanillo","position":{"lat":19.11695,"lng":-104.34214},"status":"surplus"},{"frame_index":584,"name":"ports_6","capacity":10000,"empty":506,"full":123,"on_shipper":15,"on_consignee":0,"shortage":0,"acc_shortage":1259,"booking":9,"acc_booking":7137,"fulfillment":9,"acc_fulfillment":5878,"transfer_cost":0.0,"port_name":"Melbourne","position":{"lat":-37.840935,"lng":144.946457},"status":"surplus"},{"frame_index":584,"name":"ports_7","capacity":10000,"empty":1387,"full":276,"on_shipper":19,"on_consignee":0,"shortage":0,"acc_shortage":0,"booking":9,"acc_booking":7140,"fulfillment":9,"acc_fulfillment":7140,"transfer_cost":0.0,"port_name":"Montreal","position":{"lat":45.516136,"lng":-73.65683},"status":"surplus"},{"frame_index":584,"name":"ports_8","capacity":10000,"empty":1720,"full":411,"on_shipper":17,"on_consignee":0,"shortage":0,"acc_shortage":0,"booking":17,"acc_booking":13947,"fulfillment":17,"acc_fulfillment":13947,"transfer_cost":0.0,"port_name":"New York","position":{"lat":40.73061,"lng":-73.935242},"status":"surplus"},{"frame_index":584,"name":"ports_9","capacity":10000,"empty":416,"full":324,"on_shipper":25,"on_consignee":0,"shortage":0,"acc_shortage":45,"booking":16,"acc_booking":13971,"fulfillment":16,"acc_fulfillment":13926,"transfer_cost":0.0,"port_name":"Oakland","position":{"lat":37.804363,"lng":-122.271111},"status":"surplus"},{"frame_index":584,"name":"ports_10","capacity":10000,"empty":767,"full":283,"on_shipper":15,"on_consignee":0,"shortage":0,"acc_shortage":314,"booking":10,"acc_booking":7157,"fulfillment":10,"acc_fulfillment":6843,"transfer_cost":0.0,"port_name":"Prince Rupert","position":{"lat":54.312519,"lng":-130.305405},"status":"surplus"},{"frame_index":584,"name":"ports_11","capacity":10000,"empty":1264,"full":532,"on_shipper":55,"on_consignee":0,"shortage":0,"acc_shortage":204,"booking":34,"acc_booking":27650,"fulfillment":34,"acc_fulfillment":27446,"transfer_cost":0.0,"port_name":"Pusan","position":{"lat":35.166668,"lng":129.066666},"status":"surplus"},{"frame_index":584,"name":"ports_12","capacity":10000,"empty":4851,"full":628,"on_shipper":70,"on_consignee":0,"shortage":0,"acc_shortage":0,"booking":45,"acc_booking":36963,"fulfillment":45,"acc_fulfillment":36963,"transfer_cost":0.0,"port_name":"Qingdao","position":{"lat":36.066898,"lng":120.382698},"status":"surplus"},{"frame_index":584,"name":"ports_13","capacity":10000,"empty":422,"full":58,"on_shipper":10,"on_consignee":0,"shortage":0,"acc_shortage":286,"booking":6,"acc_booking":4843,"fulfillment":6,"acc_fulfillment":4557,"transfer_cost":0.0,"port_name":"San Antonio","position":{"lat":29.424349,"lng":-98.491142},"status":"surplus"},{"frame_index":584,"name":"ports_14","capacity":10000,"empty":357,"full":134,"on_shipper":11,"on_consignee":0,"shortage":0,"acc_shortage":762,"booking":7,"acc_booking":4890,"fulfillment":7,"acc_fulfillment":4128,"transfer_cost":0.0,"port_name":"Santos","position":{"lat":-23.96083,"lng":-46.33361},"status":"surplus"},{"frame_index":584,"name":"ports_15","capacity":10000,"empty":4402,"full":126,"on_shipper":57,"on_consignee":0,"shortage":0,"acc_shortage":0,"booking":40,"acc_booking":32257,"fulfillment":40,"acc_fulfillment":32257,"transfer_cost":0.0,"port_name":"Seattle","position":{"lat":47.608013,"lng":-122.335167},"status":"surplus"},{"frame_index":584,"name":"ports_16","capacity":10000,"empty":1539,"full":256,"on_shipper":88,"on_consignee":16,"shortage":0,"acc_shortage":470,"booking":55,"acc_booking":45991,"fulfillment":55,"acc_fulfillment":45521,"transfer_cost":41.0,"port_name":"Shanghai","position":{"lat":31.224361,"lng":121.46917},"status":"surplus"},{"frame_index":584,"name":"ports_17","capacity":10000,"empty":566,"full":232,"on_shipper":32,"on_consignee":0,"shortage":0,"acc_shortage":40,"booking":22,"acc_booking":18590,"fulfillment":22,"acc_fulfillment":18550,"transfer_cost":0.0,"port_name":"Singapore","position":{"lat":1.29027,"lng":103.851959},"status":"surplus"},{"frame_index":584,"name":"ports_18","capacity":10000,"empty":559,"full":252,"on_shipper":8,"on_consignee":0,"shortage":0,"acc_shortage":957,"booking":8,"acc_booking":7106,"fulfillment":8,"acc_fulfillment":6149,"transfer_cost":0.0,"port_name":"Sydney","position":{"lat":-33.865143,"lng":151.2099},"status":"surplus"},{"frame_index":584,"name":"ports_19","capacity":10000,"empty":733,"full":439,"on_shipper":15,"on_consignee":0,"shortage":0,"acc_shortage":0,"booking":12,"acc_booking":9490,"fulfillment":12,"acc_fulfillment":9490,"transfer_cost":0.0,"port_name":"Vancouver","position":{"lat":49.246292,"lng":-123.116226},"status":"surplus"},{"frame_index":584,"name":"ports_20","capacity":10000,"empty":643,"full":1952,"on_shipper":58,"on_consignee":22,"shortage":0,"acc_shortage":395,"booking":44,"acc_booking":32065,"fulfillment":44,"acc_fulfillment":31670,"transfer_cost":0.0,"port_name":"Yantian","position":{"lat":26.8533,"lng":119.8575},"status":"surplus"},{"frame_index":584,"name":"ports_21","capacity":10000,"empty":1541,"full":218,"on_shipper":46,"on_consignee":14,"shortage":0,"acc_shortage":3258,"booking":33,"acc_booking":30429,"fulfillment":33,"acc_fulfillment":27171,"transfer_cost":873.0,"port_name":"Yokohama","position":{"lat":35.443707,"lng":139.638031},"status":"surplus"}]