[{"frame_index":735,"name":"ports_0","capacity":10000,"empty":4249,"full":1559,"on_shipper":221,"on_consignee":608,"shortage":0,"acc_shortage":522,"booking":95,"acc_booking":94491,"fulfillment":95,"acc_fulfillment":93969,"transfer_cost":422.0,"port_name":"Bremerhaven","position":{"lat":53.549999,"lng":8.583333},"status":"surplus"},{"frame_index":735,"name":"ports_1","capacity":10000,"empty":90,"full":339,"on_shipper":12,"on_consignee":0,"shortage":0,"acc_shortage":0,"booking":6,"acc_booking":6284,"fulfillment":6,"acc_fulfillment":6284,"transfer_cost":0.0,"port_name":"Durban","position":{"lat":-29.8579,"lng":31.0292},"status":"surplus"},{"frame_index":735,"name":"ports_2","capacity":10000,"empty":628,"full":60,"on_shipper":9,"on_consignee":0,"shortage":0,"acc_shortage":298,"booking":6,"acc_booking":6261,"fulfillment":6,"acc_fulfillment":5963,"transfer_cost":0.0,"port_name":"Itagual","position":{"lat":-22.85222,"lng":-43.77528},"status":"surplus"},{"frame_index":735,"name":"ports_3","capacity":10000,"empty":1718,"full":1947,"on_shipper":62,"on_consignee":0,"shortage":0,"acc_shortage":0,"booking":33,"acc_booking":35807,"fulfillment":33,"acc_fulfillment":35807,"transfer_cost":0.0,"port_name":"LeHavre","position":{"lat":49.490002,"lng":0.1},"status":"surplus"},{"frame_index":735,"name":"ports_4","capacity":10000,"empty":116,"full":1073,"on_shipper":48,"on_consignee":0,"shortage":0,"acc_shortage":290,"booking":28,"acc_booking":29968,"fulfillment":28,"acc_fulfillment":29678,"transfer_cost":0.0,"port_name":"Los Angeles","position":{"lat":34.052235,"lng":-118.243683},"status":"balance"},{"frame_index":735,"name":"ports_5","capacity":10000,"empty":1077,"full":844,"on_shipper":57,"on_consignee":0,"shortage":0,"acc_shortage":123,"booking":26,"acc_booking":30063,"fulfillment":26,"acc_fulfillment":29940,"transfer_cost":0.0,"port_name":"Manzanillo","position":{"lat":19.11695,"lng":-104.34214},"status":"surplus"},{"frame_index":735,"name":"ports_6","capacity":10000,"empty":0,"full":649,"on_shipper":0,"on_consignee":0,"shortage":9,"acc_shortage":1372,"booking":9,"acc_booking":9225,"fulfillment":0,"acc_fulfillment":7853,"transfer_cost":0.0,"port_name":"Melbourne","position":{"lat":-37.840935,"lng":144.946457},"status":"balance"},{"frame_index":735,"name":"ports_7","capacity":10000,"empty":517,"full":229,"on_shipper":18,"on_consignee":0,"shortage":0,"acc_shortage":0,"booking":9,"acc_booking":9233,"fulfillment":9,"acc_fulfillment":9233,"transfer_cost":0.0,"port_name":"Montreal","position":{"lat":45.516136,"lng":-73.65683},"status":"surplus"},{"frame_index":735,"name":"ports_8","capacity":10000,"empty":851,"full":181,"on_shipper":48,"on_consignee":0,"shortage":0,"acc_shortage":0,"booking":17,"acc_booking":18031,"fulfillment":17,"acc_fulfillment":18031,"transfer_cost":0.0,"port_name":"New York","position":{"lat":40.73061,"lng":-73.935242},"status":"surplus"},{"frame_index":735,"name":"ports_9","capacity":10000,"empty":630,"full":732,"on_shipper":35,"on_consignee":0,"shortage":0,"acc_shortage":45,"booking":17,"acc_booking":18079,"fulfillment":17,"acc_fulfillment":18034,"transfer_cost":0.0,"port_name":"Oakland","position":{"lat":37.804363,"lng":-122.271111},"status":"surplus"},{"frame_index":735,"name":"ports_10","capacity":10000,"empty":1175,"full":654,"on_shipper":16,"on_consignee":0,"shortage":0,"acc_shortage":314,"booking":10,"acc_booking":9236,"fulfillment":10,"acc_fulfillment":8922,"transfer_cost":0.0,"port_name":"Prince Rupert","position":{"lat":54.312519,"lng":-130.305405},"status":"surplus"},{"frame_index":735,"name":"ports_11","capacity":10000,"empty":1125,"full":3006,"on_shipper":57,"on_consignee":466,"shortage":0,"acc_shortage":204,"booking":33,"acc_booking":35750,"fulfillment":33,"acc_fulfillment":35546,"transfer_cost":0.0,"port_name":"Pusan","position":{"lat":35.166668,"lng":129.066666},"status":"surplus"},{"frame_index":735,"name":"ports_12","capacity":10000,"empty":2490,"full":1343,"on_shipper":85,"on_consignee":12,"shortage":0,"acc_shortage":0,"booking":41,"acc_booking":47760,"fulfillment":41,"acc_fulfillment":47760,"transfer_cost":0.0,"port_name":"Qingdao","position":{"lat":36.066898,"lng":120.382698},"status":"surplus"},{"frame_index":735,"name":"ports_13","capacity":10000,"empty":248,"full":359,"on_shipper":10,"on_consignee":0,"shortage":0,"acc_shortage":325,"booking":6,"acc_booking":6276,"fulfillment":6,"acc_fulfillment":5951,"transfer_cost":0.0,"port_name":"San Antonio","position":{"lat":29.424349,"lng":-98.491142},"status":"surplus"},{"frame_index":735,"name":"ports_14","capacity":10000,"empty":494,"full":405,"on_shipper":9,"on_consignee":0,"shortage":0,"acc_shortage":762,"booking":6,"acc_booking":6311,"fulfillment":6,"acc_fulfillment":5549,"transfer_cost":0.0,"port_name":"Santos","position":{"lat":-23.96083,"lng":-46.33361},"status":"surplus"},{"frame_index":735,"name":"ports_15","capacity":10000,"empty":1623,"full":2341,"on_shipper":75,"on_consignee":0,"shortage":0,"acc_shortage":0,"booking":38,"acc_booking":41749,"fulfillment":38,"acc_fulfillment":41749,"transfer_cost":0.0,"port_name":"Seattle","position":{"lat":47.608013,"lng":-122.335167},"status":"surplus"},{"frame_index":735,"name":"ports_16","capacity":10000,"empty":464,"full":3218,"on_shipper":85,"on_consignee":0,"shortage":0,"acc_shortage":712,"booking":47,"acc_booking":59503,"fulfillment":47,"acc_fulfillment":58791,"transfer_cost":0.0,"port_name":"Shanghai","position":{"lat":31.224361,"lng":121.46917},"status":"surplus"},{"frame_index":735,"name":"ports_17","capacity":10000,"empty":2448,"full":763,"on_shipper":50,"on_consignee":152,"shortage":0,"acc_shortage":283,"booking":22,"acc_booking":24061,"fulfillment":22,"acc_fulfillment":23778,"transfer_cost":7.0,"port_name":"Singapore","position":{"lat":1.29027,"lng":103.851959},"status":"surplus"},{"frame_index":735,"name":"ports_18","capacity":10000,"empty":0,"full":257,"on_shipper":0,"on_consignee":0,"shortage":9,"acc_shortage":1177,"booking":9,"acc_booking":9222,"fulfillment":0,"acc_fulfillment":8045,"transfer_cost":0.0,"port_name":"Sydney","position":{"lat":-33.865143,"lng":151.2099},"status":"balance"},{"frame_index":735,"name":"ports_19","capacity":10000,"empty":754,"full":611,"on_shipper":28,"on_consignee":0,"shortage":0,"acc_shortage":0,"booking":11,"acc_booking":12233,"fulfillment":11,"acc_fulfillment":12233,"transfer_cost":0.0,"port_name":"Vancouver","position":{"lat":49.246292,"lng":-123.116226},"status":"surplus"},{"frame_index":735,"name":"ports_20","capacity":10000,"empty":1073,"full":1841,"on_shipper":89,"on_consignee":0,"shortage":0,"acc_shortage":942,"booking":40,"acc_booking":41500,"fulfillment":40,"acc_fulfillment":40558,"transfer_cost":0.0,"port_name":"Yantian","position":{"lat":26.8533,"lng":119.8575},"status":"surplus"},{"frame_index":735,"name":"ports_21","capacity":10000,"empty":0,"full":746,"on_shipper":0,"on_consignee":0,"shortage":31,"acc_shortage":4937,"booking":31,"acc_booking":39581,"fulfillment":0,"acc_fulfillment":34644,"transfer_cost":0.0,"port_name":"Yokohama","position":{"lat":35.443707,"lng":139.638031},"status":"demand"}]