[{"frame_index":1077,"name":"ports_0","capacity":10000,"empty":1556,"full":2053,"on_shipper":425,"on_consignee":0,"shortage":0,"acc_shortage":861,"booking":230,"acc_booking":139290,"fulfillment":230,"acc_fulfillment":138429,"transfer_cost":0.0,"port_name":"Bremerhaven","position":{"lat":53.549999,"lng":8.583333},"status":"surplus"},{"frame_index":1077,"name":"ports_1","capacity":10000,"empty":276,"full":325,"on_shipper":23,"on_consignee":0,"shortage":0,"acc_shortage":113,"booking":15,"acc_booking":9255,"fulfillment":15,"acc_fulfillment":9142,"transfer_cost":0.0,"port_name":"Durban","position":{"lat":-29.8579,"lng":31.0292},"status":"surplus"},{"frame_index":1077,"name":"ports_2","capacity":10000,"empty":345,"full":192,"on_shipper":21,"on_consignee":487,"shortage":0,"acc_shortage":298,"booking":14,"acc_booking":9218,"fulfillment":14,"acc_fulfillment":8920,"transfer_cost":8.0,"port_name":"Itagual","position":{"lat":-22.85222,"lng":-43.77528},"status":"surplus"},{"frame_index":1077,"name":"ports_3","capacity":10000,"empty":4361,"full":2771,"on_shipper":109,"on_consignee":0,"shortage":0,"acc_shortage":0,"booking":81,"acc_booking":52660,"fulfillment":81,"acc_fulfillment":52660,"transfer_cost":0.0,"port_name":"LeHavre","position":{"lat":49.490002,"lng":0.1},"status":"surplus"},{"frame_index":1077,"name":"ports_4","capacity":10000,"empty":910,"full":2188,"on_shipper":114,"on_consignee":0,"shortage":0,"acc_shortage":290,"booking":68,"acc_booking":44103,"fulfillment":68,"acc_fulfillment":43813,"transfer_cost":0.0,"port_name":"Los Angeles","position":{"lat":34.052235,"lng":-118.243683},"status":"surplus"},{"frame_index":1077,"name":"ports_5","capacity":10000,"empty":286,"full":979,"on_shipper":125,"on_consignee":0,"shortage":0,"acc_shortage":194,"booking":67,"acc_booking":44175,"fulfillment":67,"acc_fulfillment":43981,"transfer_cost":0.0,"port_name":"Manzanillo","position":{"lat":19.11695,"lng":-104.34214},"status":"balance"},{"frame_index":1077,"name":"ports_6","capacity":10000,"empty":57,"full":523,"on_shipper":28,"on_consignee":0,"shortage":0,"acc_shortage":2108,"booking":22,"acc_booking":13579,"fulfillment":22,"acc_fulfillment":11471,"transfer_cost":0.0,"port_name":"Melbourne","position":{"lat":-37.840935,"lng":144.946457},"status":"demand"},{"frame_index":1077,"name":"ports_7","capacity":10000,"empty":1193,"full":485,"on_shipper":42,"on_consignee":0,"shortage":0,"acc_shortage":0,"booking":21,"acc_booking":13581,"fulfillment":21,"acc_fulfillment":13581,"transfer_cost":0.0,"port_name":"Montreal","position":{"lat":45.516136,"lng":-73.65683},"status":"surplus"},{"frame_index":1077,"name":"ports_8","capacity":10000,"empty":5062,"full":851,"on_shipper":39,"on_consignee":0,"shortage":0,"acc_shortage":136,"booking":39,"acc_booking":26552,"fulfillment":39,"acc_fulfillment":26416,"transfer_cost":0.0,"port_name":"New York","position":{"lat":40.73061,"lng":-73.935242},"status":"surplus"},{"frame_index":1077,"name":"ports_9","capacity":10000,"empty":1465,"full":701,"on_shipper":72,"on_consignee":0,"shortage":0,"acc_shortage":45,"booking":38,"acc_booking":26609,"fulfillment":38,"acc_fulfillment":26564,"transfer_cost":0.0,"port_name":"Oakland","position":{"lat":37.804363,"lng":-122.271111},"status":"surplus"},{"frame_index":1077,"name":"ports_10","capacity":10000,"empty":1549,"full":111,"on_shipper":39,"on_consignee":0,"shortage":0,"acc_shortage":314,"booking":24,"acc_booking":13579,"fulfillment":24,"acc_fulfillment":13265,"transfer_cost":0.0,"port_name":"Prince Rupert","position":{"lat":54.312519,"lng":-130.305405},"status":"surplus"},{"frame_index":1077,"name":"ports_11","capacity":10000,"empty":2599,"full":871,"on_shipper":148,"on_consignee":52,"shortage":0,"acc_shortage":204,"booking":84,"acc_booking":52629,"fulfillment":84,"acc_fulfillment":52425,"transfer_cost":0.0,"port_name":"Pusan","position":{"lat":35.166668,"lng":129.066666},"status":"surplus"},{"frame_index":1077,"name":"ports_12","capacity":10000,"empty":3612,"full":653,"on_shipper":151,"on_consignee":0,"shortage":0,"acc_shortage":0,"booking":98,"acc_booking":70276,"fulfillment":98,"acc_fulfillment":70276,"transfer_cost":0.0,"port_name":"Qingdao","position":{"lat":36.066898,"lng":120.382698},"status":"surplus"},{"frame_index":1077,"name":"ports_13","capacity":10000,"empty":37,"full":140,"on_shipper":22,"on_consignee":356,"shortage":0,"acc_shortage":459,"booking":16,"acc_booking":9217,"fulfillment":16,"acc_fulfillment":8758,"transfer_cost":148.0,"port_name":"San Antonio","position":{"lat":29.424349,"lng":-98.491142},"status":"balance"},{"frame_index":1077,"name":"ports_14","capacity":10000,"empty":0,"full":378,"on_shipper":0,"on_consignee":0,"shortage":16,"acc_shortage":1115,"booking":16,"acc_booking":9277,"fulfillment":0,"acc_fulfillment":8162,"transfer_cost":0.0,"port_name":"Santos","position":{"lat":-23.96083,"lng":-46.33361},"status":"demand"},{"frame_index":1077,"name":"ports_15","capacity":10000,"empty":940,"full":2248,"on_shipper":135,"on_consignee":0,"shortage":0,"acc_shortage":1489,"booking":99,"acc_booking":61415,"fulfillment":99,"acc_fulfillment":59926,"transfer_cost":0.0,"port_name":"Seattle","position":{"lat":47.608013,"lng":-122.335167},"status":"surplus"},{"frame_index":1077,"name":"ports_16","capacity":10000,"empty":2714,"full":1530,"on_shipper":216,"on_consignee":0,"shortage":0,"acc_shortage":817,"booking":135,"acc_booking":87562,"fulfillment":135,"acc_fulfillment":86745,"transfer_cost":0.0,"port_name":"Shanghai","position":{"lat":31.224361,"lng":121.46917},"status":"surplus"},{"frame_index":1077,"name":"ports_17","capacity":10000,"empty":2160,"full":850,"on_shipper":74,"on_consignee":0,"shortage":0,"acc_shortage":619,"booking":57,"acc_booking":35367,"fulfillment":57,"acc_fulfillment":34748,"transfer_cost":0.0,"port_name":"Singapore","position":{"lat":1.29027,"lng":103.851959},"status":"surplus"},{"frame_index":1077,"name":"ports_18","capacity":10000,"empty":276,"full":357,"on_shipper":27,"on_consignee":0,"shortage":0,"acc_shortage":1374,"booking":21,"acc_booking":13567,"fulfillment":21,"acc_fulfillment":12193,"transfer_cost":0.0,"port_name":"Sydney","position":{"lat":-33.865143,"lng":151.2099},"status":"surplus"},{"frame_index":1077,"name":"ports_19","capacity":10000,"empty":930,"full":509,"on_shipper":57,"on_consignee":0,"shortage":0,"acc_shortage":0,"booking":27,"acc_booking":17980,"fulfillment":27,"acc_fulfillment":17980,"transfer_cost":0.0,"port_name":"Vancouver","position":{"lat":49.246292,"lng":-123.116226},"status":"surplus"},{"frame_index":1077,"name":"ports_20","capacity":10000,"empty":36,"full":2178,"on_shipper":0,"on_consignee":34,"shortage":105,"acc_shortage":2053,"booking":105,"acc_booking":61182,"fulfillment":0,"acc_fulfillment":59129,"transfer_cost":36.0,"port_name":"Yantian","position":{"lat":26.8533,"lng":119.8575},"status":"demand"},{"frame_index":1077,"name":"ports_21","capacity":10000,"empty":0,"full":1139,"on_shipper":0,"on_consignee":0,"shortage":98,"acc_shortage":9513,"booking":98,"acc_booking":58279,"fulfillment":0,"acc_fulfillment":48766,"transfer_cost":0.0,"port_name":"Yokohama","position":{"lat":35.443707,"lng":139.638031},"status":"demand"}]