[{"frame_index":633,"name":"ports_0","capacity":10000,"empty":2334,"full":4746,"on_shipper":199,"on_consignee":0,"shortage":0,"acc_shortage":522,"booking":174,"acc_booking":82162,"fulfillment":174,"acc_fulfillment":81640,"transfer_cost":0.0,"port_name":"Bremerhaven","position":{"lat":53.549999,"lng":8.583333},"status":"surplus"},{"frame_index":633,"name":"ports_1","capacity":10000,"empty":123,"full":457,"on_shipper":23,"on_consignee":0,"shortage":0,"acc_shortage":0,"booking":14,"acc_booking":5462,"fulfillment":14,"acc_fulfillment":5462,"transfer_cost":0.0,"port_name":"Durban","position":{"lat":-29.8579,"lng":31.0292},"status":"surplus"},{"frame_index":633,"name":"ports_2","capacity":10000,"empty":90,"full":122,"on_shipper":28,"on_consignee":0,"shortage":0,"acc_shortage":233,"booking":12,"acc_booking":5438,"fulfillment":12,"acc_fulfillment":5205,"transfer_cost":0.0,"port_name":"Itagual","position":{"lat":-22.85222,"lng":-43.77528},"status":"balance"},{"frame_index":633,"name":"ports_3","capacity":10000,"empty":553,"full":859,"on_shipper":137,"on_consignee":273,"shortage":0,"acc_shortage":0,"booking":77,"acc_booking":31100,"fulfillment":77,"acc_fulfillment":31100,"transfer_cost":0.0,"port_name":"LeHavre","position":{"lat":49.490002,"lng":0.1},"status":"surplus"},{"frame_index":633,"name":"ports_4","capacity":10000,"empty":2,"full":1803,"on_shipper":118,"on_consignee":0,"shortage":0,"acc_shortage":0,"booking":65,"acc_booking":26027,"fulfillment":65,"acc_fulfillment":26027,"transfer_cost":0.0,"port_name":"Los Angeles","position":{"lat":34.052235,"lng":-118.243683},"status":"demand"},{"frame_index":633,"name":"ports_5","capacity":10000,"empty":1333,"full":1226,"on_shipper":136,"on_consignee":0,"shortage":0,"acc_shortage":123,"booking":75,"acc_booking":26114,"fulfillment":75,"acc_fulfillment":25991,"transfer_cost":0.0,"port_name":"Manzanillo","position":{"lat":19.11695,"lng":-104.34214},"status":"surplus"},{"frame_index":633,"name":"ports_6","capacity":10000,"empty":446,"full":162,"on_shipper":20,"on_consignee":0,"shortage":0,"acc_shortage":1336,"booking":20,"acc_booking":8009,"fulfillment":20,"acc_fulfillment":6673,"transfer_cost":0.0,"port_name":"Melbourne","position":{"lat":-37.840935,"lng":144.946457},"status":"surplus"},{"frame_index":633,"name":"ports_7","capacity":10000,"empty":1009,"full":470,"on_shipper":32,"on_consignee":0,"shortage":0,"acc_shortage":0,"booking":20,"acc_booking":8015,"fulfillment":20,"acc_fulfillment":8015,"transfer_cost":0.0,"port_name":"Montreal","position":{"lat":45.516136,"lng":-73.65683},"status":"surplus"},{"frame_index":633,"name":"ports_8","capacity":10000,"empty":1604,"full":1253,"on_shipper":65,"on_consignee":0,"shortage":0,"acc_shortage":0,"booking":41,"acc_booking":15672,"fulfillment":41,"acc_fulfillment":15672,"transfer_cost":0.0,"port_name":"New York","position":{"lat":40.73061,"lng":-73.935242},"status":"surplus"},{"frame_index":633,"name":"ports_9","capacity":10000,"empty":1412,"full":158,"on_shipper":83,"on_consignee":0,"shortage":0,"acc_shortage":45,"booking":42,"acc_booking":15730,"fulfillment":42,"acc_fulfillment":15685,"transfer_cost":0.0,"port_name":"Oakland","position":{"lat":37.804363,"lng":-122.271111},"status":"surplus"},{"frame_index":633,"name":"ports_10","capacity":10000,"empty":1304,"full":467,"on_shipper":34,"on_consignee":0,"shortage":0,"acc_shortage":314,"booking":20,"acc_booking":8037,"fulfillment":20,"acc_fulfillment":7723,"transfer_cost":0.0,"port_name":"Prince Rupert","position":{"lat":54.312519,"lng":-130.305405},"status":"surplus"},{"frame_index":633,"name":"ports_11","capacity":10000,"empty":3150,"full":477,"on_shipper":112,"on_consignee":136,"shortage":0,"acc_shortage":204,"booking":82,"acc_booking":31063,"fulfillment":82,"acc_fulfillment":30859,"transfer_cost":0.0,"port_name":"Pusan","position":{"lat":35.166668,"lng":129.066666},"status":"surplus"},{"frame_index":633,"name":"ports_12","capacity":10000,"empty":1796,"full":1943,"on_shipper":213,"on_consignee":0,"shortage":0,"acc_shortage":0,"booking":109,"acc_booking":41499,"fulfillment":109,"acc_fulfillment":41499,"transfer_cost":0.0,"port_name":"Qingdao","position":{"lat":36.066898,"lng":120.382698},"status":"surplus"},{"frame_index":633,"name":"ports_13","capacity":10000,"empty":399,"full":115,"on_shipper":19,"on_consignee":0,"shortage":0,"acc_shortage":325,"booking":13,"acc_booking":5438,"fulfillment":13,"acc_fulfillment":5113,"transfer_cost":0.0,"port_name":"San Antonio","position":{"lat":29.424349,"lng":-98.491142},"status":"surplus"},{"frame_index":633,"name":"ports_14","capacity":10000,"empty":946,"full":460,"on_shipper":24,"on_consignee":0,"shortage":0,"acc_shortage":762,"booking":13,"acc_booking":5480,"fulfillment":13,"acc_fulfillment":4718,"transfer_cost":0.0,"port_name":"Santos","position":{"lat":-23.96083,"lng":-46.33361},"status":"surplus"},{"frame_index":633,"name":"ports_15","capacity":10000,"empty":1111,"full":3374,"on_shipper":133,"on_consignee":0,"shortage":0,"acc_shortage":0,"booking":94,"acc_booking":36239,"fulfillment":94,"acc_fulfillment":36239,"transfer_cost":0.0,"port_name":"Seattle","position":{"lat":47.608013,"lng":-122.335167},"status":"surplus"},{"frame_index":633,"name":"ports_16","capacity":10000,"empty":165,"full":1200,"on_shipper":114,"on_consignee":423,"shortage":0,"acc_shortage":712,"booking":114,"acc_booking":51585,"fulfillment":114,"acc_fulfillment":50873,"transfer_cost":0.0,"port_name":"Shanghai","position":{"lat":31.224361,"lng":121.46917},"status":"demand"},{"frame_index":633,"name":"ports_17","capacity":10000,"empty":221,"full":435,"on_shipper":76,"on_consignee":586,"shortage":0,"acc_shortage":283,"booking":52,"acc_booking":20889,"fulfillment":52,"acc_fulfillment":20606,"transfer_cost":30.0,"port_name":"Singapore","position":{"lat":1.29027,"lng":103.851959},"status":"balance"},{"frame_index":633,"name":"ports_18","capacity":10000,"empty":152,"full":429,"on_shipper":18,"on_consignee":0,"shortage":0,"acc_shortage":957,"booking":18,"acc_booking":7977,"fulfillment":18,"acc_fulfillment":7020,"transfer_cost":0.0,"port_name":"Sydney","position":{"lat":-33.865143,"lng":151.2099},"status":"surplus"},{"frame_index":633,"name":"ports_19","capacity":10000,"empty":753,"full":599,"on_shipper":48,"on_consignee":0,"shortage":0,"acc_shortage":0,"booking":28,"acc_booking":10642,"fulfillment":28,"acc_fulfillment":10642,"transfer_cost":0.0,"port_name":"Vancouver","position":{"lat":49.246292,"lng":-123.116226},"status":"surplus"},{"frame_index":633,"name":"ports_20","capacity":10000,"empty":579,"full":963,"on_shipper":138,"on_consignee":0,"shortage":0,"acc_shortage":395,"booking":97,"acc_booking":35966,"fulfillment":97,"acc_fulfillment":35571,"transfer_cost":0.0,"port_name":"Yantian","position":{"lat":26.8533,"lng":119.8575},"status":"surplus"},{"frame_index":633,"name":"ports_21","capacity":10000,"empty":456,"full":1988,"on_shipper":160,"on_consignee":0,"shortage":0,"acc_shortage":3563,"booking":96,"acc_booking":34447,"fulfillment":96,"acc_fulfillment":30884,"transfer_cost":0.0,"port_name":"Yokohama","position":{"lat":35.443707,"lng":139.638031},"status":"balance"}]