[{"frame_index":283,"name":"ports_0","capacity":10000,"empty":1828,"full":3228,"on_shipper":273,"on_consignee":263,"shortage":0,"acc_shortage":0,"booking":249,"acc_booking":36245,"fulfillment":249,"acc_fulfillment":36245,"transfer_cost":248.0,"port_name":"Bremerhaven","position":{"lat":53.549999,"lng":8.583333},"status":"surplus"},{"frame_index":283,"name":"ports_1","capacity":10000,"empty":702,"full":183,"on_shipper":21,"on_consignee":0,"shortage":0,"acc_shortage":0,"booking":16,"acc_booking":2427,"fulfillment":16,"acc_fulfillment":2427,"transfer_cost":0.0,"port_name":"Durban","position":{"lat":-29.8579,"lng":31.0292},"status":"surplus"},{"frame_index":283,"name":"ports_2","capacity":10000,"empty":826,"full":118,"on_shipper":27,"on_consignee":0,"shortage":0,"acc_shortage":233,"booking":19,"acc_booking":2408,"fulfillment":19,"acc_fulfillment":2175,"transfer_cost":0.0,"port_name":"Itagual","position":{"lat":-22.85222,"lng":-43.77528},"status":"surplus"},{"frame_index":283,"name":"ports_3","capacity":10000,"empty":1292,"full":1963,"on_shipper":179,"on_consignee":0,"shortage":0,"acc_shortage":0,"booking":108,"acc_booking":13798,"fulfillment":108,"acc_fulfillment":13798,"transfer_cost":0.0,"port_name":"LeHavre","position":{"lat":49.490002,"lng":0.1},"status":"surplus"},{"frame_index":283,"name":"ports_4","capacity":10000,"empty":2337,"full":638,"on_shipper":146,"on_consignee":0,"shortage":0,"acc_shortage":0,"booking":89,"acc_booking":11519,"fulfillment":89,"acc_fulfillment":11519,"transfer_cost":0.0,"port_name":"Los Angeles","position":{"lat":34.052235,"lng":-118.243683},"status":"surplus"},{"frame_index":283,"name":"ports_5","capacity":10000,"empty":1698,"full":217,"on_shipper":157,"on_consignee":0,"shortage":0,"acc_shortage":123,"booking":87,"acc_booking":11547,"fulfillment":87,"acc_fulfillment":11424,"transfer_cost":0.0,"port_name":"Manzanillo","position":{"lat":19.11695,"lng":-104.34214},"status":"surplus"},{"frame_index":283,"name":"ports_6","capacity":10000,"empty":13,"full":50,"on_shipper":53,"on_consignee":171,"shortage":0,"acc_shortage":0,"booking":27,"acc_booking":3543,"fulfillment":27,"acc_fulfillment":3543,"transfer_cost":0.0,"port_name":"Melbourne","position":{"lat":-37.840935,"lng":144.946457},"status":"demand"},{"frame_index":283,"name":"ports_7","capacity":10000,"empty":1834,"full":450,"on_shipper":27,"on_consignee":0,"shortage":0,"acc_shortage":0,"booking":27,"acc_booking":3546,"fulfillment":27,"acc_fulfillment":3546,"transfer_cost":0.0,"port_name":"Montreal","position":{"lat":45.516136,"lng":-73.65683},"status":"surplus"},{"frame_index":283,"name":"ports_8","capacity":10000,"empty":2643,"full":340,"on_shipper":84,"on_consignee":0,"shortage":0,"acc_shortage":0,"booking":58,"acc_booking":6931,"fulfillment":58,"acc_fulfillment":6931,"transfer_cost":0.0,"port_name":"New York","position":{"lat":40.73061,"lng":-73.935242},"status":"surplus"},{"frame_index":283,"name":"ports_9","capacity":10000,"empty":143,"full":0,"on_shipper":73,"on_consignee":2722,"shortage":0,"acc_shortage":0,"booking":55,"acc_booking":6914,"fulfillment":55,"acc_fulfillment":6914,"transfer_cost":144.0,"port_name":"Oakland","position":{"lat":37.804363,"lng":-122.271111},"status":"demand"},{"frame_index":283,"name":"ports_10","capacity":10000,"empty":1052,"full":519,"on_shipper":58,"on_consignee":0,"shortage":0,"acc_shortage":0,"booking":27,"acc_booking":3537,"fulfillment":27,"acc_fulfillment":3537,"transfer_cost":0.0,"port_name":"Prince Rupert","position":{"lat":54.312519,"lng":-130.305405},"status":"surplus"},{"frame_index":283,"name":"ports_11","capacity":10000,"empty":1798,"full":334,"on_shipper":175,"on_consignee":345,"shortage":0,"acc_shortage":0,"booking":113,"acc_booking":13749,"fulfillment":113,"acc_fulfillment":13749,"transfer_cost":0.0,"port_name":"Pusan","position":{"lat":35.166668,"lng":129.066666},"status":"surplus"},{"frame_index":283,"name":"ports_12","capacity":10000,"empty":932,"full":2055,"on_shipper":240,"on_consignee":0,"shortage":0,"acc_shortage":0,"booking":142,"acc_booking":18378,"fulfillment":142,"acc_fulfillment":18378,"transfer_cost":0.0,"port_name":"Qingdao","position":{"lat":36.066898,"lng":120.382698},"status":"surplus"},{"frame_index":283,"name":"ports_13","capacity":10000,"empty":200,"full":446,"on_shipper":20,"on_consignee":0,"shortage":0,"acc_shortage":55,"booking":16,"acc_booking":2413,"fulfillment":16,"acc_fulfillment":2358,"transfer_cost":0.0,"port_name":"San Antonio","position":{"lat":29.424349,"lng":-98.491142},"status":"surplus"},{"frame_index":283,"name":"ports_14","capacity":10000,"empty":934,"full":331,"on_shipper":24,"on_consignee":0,"shortage":0,"acc_shortage":697,"booking":19,"acc_booking":2442,"fulfillment":19,"acc_fulfillment":1745,"transfer_cost":0.0,"port_name":"Santos","position":{"lat":-23.96083,"lng":-46.33361},"status":"surplus"},{"frame_index":283,"name":"ports_15","capacity":10000,"empty":3976,"full":1221,"on_shipper":223,"on_consignee":0,"shortage":0,"acc_shortage":0,"booking":123,"acc_booking":16027,"fulfillment":123,"acc_fulfillment":16027,"transfer_cost":0.0,"port_name":"Seattle","position":{"lat":47.608013,"lng":-122.335167},"status":"surplus"},{"frame_index":283,"name":"ports_16","capacity":10000,"empty":2167,"full":2136,"on_shipper":258,"on_consignee":0,"shortage":0,"acc_shortage":0,"booking":174,"acc_booking":22981,"fulfillment":174,"acc_fulfillment":22981,"transfer_cost":0.0,"port_name":"Shanghai","position":{"lat":31.224361,"lng":121.46917},"status":"surplus"},{"frame_index":283,"name":"ports_17","capacity":10000,"empty":186,"full":599,"on_shipper":103,"on_consignee":109,"shortage":0,"acc_shortage":40,"booking":73,"acc_booking":9242,"fulfillment":73,"acc_fulfillment":9202,"transfer_cost":0.0,"port_name":"Singapore","position":{"lat":1.29027,"lng":103.851959},"status":"demand"},{"frame_index":283,"name":"ports_18","capacity":10000,"empty":0,"full":433,"on_shipper":0,"on_consignee":0,"shortage":28,"acc_shortage":117,"booking":28,"acc_booking":3516,"fulfillment":0,"acc_fulfillment":3399,"transfer_cost":0.0,"port_name":"Sydney","position":{"lat":-33.865143,"lng":151.2099},"status":"demand"},{"frame_index":283,"name":"ports_19","capacity":10000,"empty":507,"full":649,"on_shipper":48,"on_consignee":0,"shortage":0,"acc_shortage":0,"booking":38,"acc_booking":4707,"fulfillment":38,"acc_fulfillment":4707,"transfer_cost":0.0,"port_name":"Vancouver","position":{"lat":49.246292,"lng":-123.116226},"status":"surplus"},{"frame_index":283,"name":"ports_20","capacity":10000,"empty":1623,"full":973,"on_shipper":223,"on_consignee":0,"shortage":0,"acc_shortage":0,"booking":135,"acc_booking":15818,"fulfillment":135,"acc_fulfillment":15818,"transfer_cost":0.0,"port_name":"Yantian","position":{"lat":26.8533,"lng":119.8575},"status":"surplus"},{"frame_index":283,"name":"ports_21","capacity":10000,"empty":472,"full":864,"on_shipper":242,"on_consignee":0,"shortage":0,"acc_shortage":492,"booking":135,"acc_booking":15172,"fulfillment":135,"acc_fulfillment":14680,"transfer_cost":0.0,"port_name":"Yokohama","position":{"lat":35.443707,"lng":139.638031},"status":"demand"}]