[{"frame_index":389,"name":"ports_0","capacity":10000,"empty":3995,"full":1472,"on_shipper":305,"on_consignee":46,"shortage":0,"acc_shortage":522,"booking":233,"acc_booking":48955,"fulfillment":233,"acc_fulfillment":48433,"transfer_cost":152.0,"port_name":"Bremerhaven","position":{"lat":53.549999,"lng":8.583333},"status":"surplus"},{"frame_index":389,"name":"ports_1","capacity":10000,"empty":407,"full":14,"on_shipper":19,"on_consignee":0,"shortage":0,"acc_shortage":0,"booking":14,"acc_booking":3270,"fulfillment":14,"acc_fulfillment":3270,"transfer_cost":0.0,"port_name":"Durban","position":{"lat":-29.8579,"lng":31.0292},"status":"surplus"},{"frame_index":389,"name":"ports_2","capacity":10000,"empty":888,"full":69,"on_shipper":19,"on_consignee":0,"shortage":0,"acc_shortage":233,"booking":13,"acc_booking":3252,"fulfillment":13,"acc_fulfillment":3019,"transfer_cost":0.0,"port_name":"Itagual","position":{"lat":-22.85222,"lng":-43.77528},"status":"surplus"},{"frame_index":389,"name":"ports_3","capacity":10000,"empty":2335,"full":963,"on_shipper":110,"on_consignee":0,"shortage":0,"acc_shortage":0,"booking":74,"acc_booking":18578,"fulfillment":74,"acc_fulfillment":18578,"transfer_cost":0.0,"port_name":"LeHavre","position":{"lat":49.490002,"lng":0.1},"status":"surplus"},{"frame_index":389,"name":"ports_4","capacity":10000,"empty":2597,"full":789,"on_shipper":97,"on_consignee":0,"shortage":0,"acc_shortage":0,"booking":64,"acc_booking":15523,"fulfillment":64,"acc_fulfillment":15523,"transfer_cost":0.0,"port_name":"Los Angeles","position":{"lat":34.052235,"lng":-118.243683},"status":"surplus"},{"frame_index":389,"name":"ports_5","capacity":10000,"empty":1428,"full":142,"on_shipper":92,"on_consignee":0,"shortage":0,"acc_shortage":123,"booking":66,"acc_booking":15581,"fulfillment":66,"acc_fulfillment":15458,"transfer_cost":0.0,"port_name":"Manzanillo","position":{"lat":19.11695,"lng":-104.34214},"status":"surplus"},{"frame_index":389,"name":"ports_6","capacity":10000,"empty":0,"full":447,"on_shipper":0,"on_consignee":0,"shortage":19,"acc_shortage":450,"booking":19,"acc_booking":4778,"fulfillment":0,"acc_fulfillment":4328,"transfer_cost":0.0,"port_name":"Melbourne","position":{"lat":-37.840935,"lng":144.946457},"status":"demand"},{"frame_index":389,"name":"ports_7","capacity":10000,"empty":2300,"full":411,"on_shipper":27,"on_consignee":0,"shortage":0,"acc_shortage":0,"booking":19,"acc_booking":4785,"fulfillment":19,"acc_fulfillment":4785,"transfer_cost":0.0,"port_name":"Montreal","position":{"lat":45.516136,"lng":-73.65683},"status":"surplus"},{"frame_index":389,"name":"ports_8","capacity":10000,"empty":1123,"full":883,"on_shipper":70,"on_consignee":0,"shortage":0,"acc_shortage":0,"booking":40,"acc_booking":9337,"fulfillment":40,"acc_fulfillment":9337,"transfer_cost":0.0,"port_name":"New York","position":{"lat":40.73061,"lng":-73.935242},"status":"surplus"},{"frame_index":389,"name":"ports_9","capacity":10000,"empty":1444,"full":453,"on_shipper":43,"on_consignee":0,"shortage":0,"acc_shortage":0,"booking":43,"acc_booking":9329,"fulfillment":43,"acc_fulfillment":9329,"transfer_cost":0.0,"port_name":"Oakland","position":{"lat":37.804363,"lng":-122.271111},"status":"surplus"},{"frame_index":389,"name":"ports_10","capacity":10000,"empty":930,"full":557,"on_shipper":28,"on_consignee":0,"shortage":0,"acc_shortage":0,"booking":22,"acc_booking":4773,"fulfillment":22,"acc_fulfillment":4773,"transfer_cost":0.0,"port_name":"Prince Rupert","position":{"lat":54.312519,"lng":-130.305405},"status":"surplus"},{"frame_index":389,"name":"ports_11","capacity":10000,"empty":1229,"full":590,"on_shipper":107,"on_consignee":0,"shortage":0,"acc_shortage":0,"booking":78,"acc_booking":18516,"fulfillment":78,"acc_fulfillment":18516,"transfer_cost":0.0,"port_name":"Pusan","position":{"lat":35.166668,"lng":129.066666},"status":"surplus"},{"frame_index":389,"name":"ports_12","capacity":10000,"empty":1901,"full":1379,"on_shipper":133,"on_consignee":73,"shortage":0,"acc_shortage":0,"booking":93,"acc_booking":24763,"fulfillment":93,"acc_fulfillment":24763,"transfer_cost":1141.0,"port_name":"Qingdao","position":{"lat":36.066898,"lng":120.382698},"status":"surplus"},{"frame_index":389,"name":"ports_13","capacity":10000,"empty":363,"full":178,"on_shipper":19,"on_consignee":0,"shortage":0,"acc_shortage":123,"booking":12,"acc_booking":3243,"fulfillment":12,"acc_fulfillment":3120,"transfer_cost":0.0,"port_name":"San Antonio","position":{"lat":29.424349,"lng":-98.491142},"status":"surplus"},{"frame_index":389,"name":"ports_14","capacity":10000,"empty":472,"full":412,"on_shipper":19,"on_consignee":0,"shortage":0,"acc_shortage":697,"booking":11,"acc_booking":3292,"fulfillment":11,"acc_fulfillment":2595,"transfer_cost":0.0,"port_name":"Santos","position":{"lat":-23.96083,"lng":-46.33361},"status":"surplus"},{"frame_index":389,"name":"ports_15","capacity":10000,"empty":4030,"full":718,"on_shipper":155,"on_consignee":259,"shortage":0,"acc_shortage":0,"booking":88,"acc_booking":21620,"fulfillment":88,"acc_fulfillment":21620,"transfer_cost":0.0,"port_name":"Seattle","position":{"lat":47.608013,"lng":-122.335167},"status":"surplus"},{"frame_index":389,"name":"ports_16","capacity":10000,"empty":1847,"full":2408,"on_shipper":141,"on_consignee":0,"shortage":0,"acc_shortage":0,"booking":118,"acc_booking":30920,"fulfillment":118,"acc_fulfillment":30920,"transfer_cost":0.0,"port_name":"Shanghai","position":{"lat":31.224361,"lng":121.46917},"status":"surplus"},{"frame_index":389,"name":"ports_17","capacity":10000,"empty":4624,"full":426,"on_shipper":76,"on_consignee":0,"shortage":0,"acc_shortage":40,"booking":52,"acc_booking":12458,"fulfillment":52,"acc_fulfillment":12418,"transfer_cost":0.0,"port_name":"Singapore","position":{"lat":1.29027,"lng":103.851959},"status":"surplus"},{"frame_index":389,"name":"ports_18","capacity":10000,"empty":51,"full":136,"on_shipper":25,"on_consignee":0,"shortage":0,"acc_shortage":419,"booking":21,"acc_booking":4755,"fulfillment":21,"acc_fulfillment":4336,"transfer_cost":0.0,"port_name":"Sydney","position":{"lat":-33.865143,"lng":151.2099},"status":"demand"},{"frame_index":389,"name":"ports_19","capacity":10000,"empty":602,"full":445,"on_shipper":37,"on_consignee":0,"shortage":0,"acc_shortage":0,"booking":25,"acc_booking":6354,"fulfillment":25,"acc_fulfillment":6354,"transfer_cost":0.0,"port_name":"Vancouver","position":{"lat":49.246292,"lng":-123.116226},"status":"surplus"},{"frame_index":389,"name":"ports_20","capacity":10000,"empty":1363,"full":475,"on_shipper":135,"on_consignee":45,"shortage":0,"acc_shortage":0,"booking":82,"acc_booking":21406,"fulfillment":82,"acc_fulfillment":21406,"transfer_cost":0.0,"port_name":"Yantian","position":{"lat":26.8533,"lng":119.8575},"status":"surplus"},{"frame_index":389,"name":"ports_21","capacity":10000,"empty":927,"full":149,"on_shipper":134,"on_consignee":238,"shortage":0,"acc_shortage":1887,"booking":91,"acc_booking":20397,"fulfillment":91,"acc_fulfillment":18510,"transfer_cost":45.0,"port_name":"Yokohama","position":{"lat":35.443707,"lng":139.638031},"status":"surplus"}]