[{"frame_index":614,"name":"ports_0","capacity":10000,"empty":2809,"full":6332,"on_shipper":299,"on_consignee":0,"shortage":0,"acc_shortage":522,"booking":261,"acc_booking":78210,"fulfillment":261,"acc_fulfillment":77688,"transfer_cost":0.0,"port_name":"Bremerhaven","position":{"lat":53.549999,"lng":8.583333},"status":"surplus"},{"frame_index":614,"name":"ports_1","capacity":10000,"empty":390,"full":190,"on_shipper":23,"on_consignee":0,"shortage":0,"acc_shortage":0,"booking":15,"acc_booking":5195,"fulfillment":15,"acc_fulfillment":5195,"transfer_cost":0.0,"port_name":"Durban","position":{"lat":-29.8579,"lng":31.0292},"status":"surplus"},{"frame_index":614,"name":"ports_2","capacity":10000,"empty":215,"full":346,"on_shipper":28,"on_consignee":0,"shortage":0,"acc_shortage":233,"booking":17,"acc_booking":5171,"fulfillment":17,"acc_fulfillment":4938,"transfer_cost":0.0,"port_name":"Itagual","position":{"lat":-22.85222,"lng":-43.77528},"status":"surplus"},{"frame_index":614,"name":"ports_3","capacity":10000,"empty":1810,"full":561,"on_shipper":117,"on_consignee":0,"shortage":0,"acc_shortage":0,"booking":100,"acc_booking":29578,"fulfillment":100,"acc_fulfillment":29578,"transfer_cost":0.0,"port_name":"LeHavre","position":{"lat":49.490002,"lng":0.1},"status":"surplus"},{"frame_index":614,"name":"ports_4","capacity":10000,"empty":20,"full":533,"on_shipper":105,"on_consignee":1265,"shortage":0,"acc_shortage":0,"booking":82,"acc_booking":24744,"fulfillment":82,"acc_fulfillment":24744,"transfer_cost":12.0,"port_name":"Los Angeles","position":{"lat":34.052235,"lng":-118.243683},"status":"demand"},{"frame_index":614,"name":"ports_5","capacity":10000,"empty":1760,"full":1099,"on_shipper":118,"on_consignee":0,"shortage":0,"acc_shortage":123,"booking":89,"acc_booking":24774,"fulfillment":89,"acc_fulfillment":24651,"transfer_cost":0.0,"port_name":"Manzanillo","position":{"lat":19.11695,"lng":-104.34214},"status":"surplus"},{"frame_index":614,"name":"ports_6","capacity":10000,"empty":133,"full":475,"on_shipper":29,"on_consignee":0,"shortage":0,"acc_shortage":1259,"booking":24,"acc_booking":7617,"fulfillment":24,"acc_fulfillment":6358,"transfer_cost":0.0,"port_name":"Melbourne","position":{"lat":-37.840935,"lng":144.946457},"status":"balance"},{"frame_index":614,"name":"ports_7","capacity":10000,"empty":1401,"full":78,"on_shipper":32,"on_consignee":0,"shortage":0,"acc_shortage":0,"booking":25,"acc_booking":7623,"fulfillment":25,"acc_fulfillment":7623,"transfer_cost":0.0,"port_name":"Montreal","position":{"lat":45.516136,"lng":-73.65683},"status":"surplus"},{"frame_index":614,"name":"ports_8","capacity":10000,"empty":2377,"full":477,"on_shipper":68,"on_consignee":0,"shortage":0,"acc_shortage":0,"booking":51,"acc_booking":14899,"fulfillment":51,"acc_fulfillment":14899,"transfer_cost":0.0,"port_name":"New York","position":{"lat":40.73061,"lng":-73.935242},"status":"surplus"},{"frame_index":614,"name":"ports_9","capacity":10000,"empty":743,"full":705,"on_shipper":57,"on_consignee":0,"shortage":0,"acc_shortage":45,"booking":47,"acc_booking":14936,"fulfillment":47,"acc_fulfillment":14891,"transfer_cost":0.0,"port_name":"Oakland","position":{"lat":37.804363,"lng":-122.271111},"status":"surplus"},{"frame_index":614,"name":"ports_10","capacity":10000,"empty":1705,"full":69,"on_shipper":31,"on_consignee":0,"shortage":0,"acc_shortage":314,"booking":23,"acc_booking":7636,"fulfillment":23,"acc_fulfillment":7322,"transfer_cost":0.0,"port_name":"Prince Rupert","position":{"lat":54.312519,"lng":-130.305405},"status":"surplus"},{"frame_index":614,"name":"ports_11","capacity":10000,"empty":2953,"full":712,"on_shipper":135,"on_consignee":0,"shortage":0,"acc_shortage":204,"booking":102,"acc_booking":29517,"fulfillment":102,"acc_fulfillment":29313,"transfer_cost":0.0,"port_name":"Pusan","position":{"lat":35.166668,"lng":129.066666},"status":"surplus"},{"frame_index":614,"name":"ports_12","capacity":10000,"empty":3416,"full":673,"on_shipper":166,"on_consignee":49,"shortage":0,"acc_shortage":0,"booking":116,"acc_booking":39384,"fulfillment":116,"acc_fulfillment":39384,"transfer_cost":0.0,"port_name":"Qingdao","position":{"lat":36.066898,"lng":120.382698},"status":"surplus"},{"frame_index":614,"name":"ports_13","capacity":10000,"empty":101,"full":368,"on_shipper":21,"on_consignee":0,"shortage":0,"acc_shortage":286,"booking":15,"acc_booking":5164,"fulfillment":15,"acc_fulfillment":4878,"transfer_cost":0.0,"port_name":"San Antonio","position":{"lat":29.424349,"lng":-98.491142},"status":"balance"},{"frame_index":614,"name":"ports_14","capacity":10000,"empty":1214,"full":200,"on_shipper":16,"on_consignee":0,"shortage":0,"acc_shortage":762,"booking":16,"acc_booking":5212,"fulfillment":16,"acc_fulfillment":4450,"transfer_cost":0.0,"port_name":"Santos","position":{"lat":-23.96083,"lng":-46.33361},"status":"surplus"},{"frame_index":614,"name":"ports_15","capacity":10000,"empty":2902,"full":1576,"on_shipper":140,"on_consignee":0,"shortage":0,"acc_shortage":0,"booking":110,"acc_booking":34448,"fulfillment":110,"acc_fulfillment":34448,"transfer_cost":0.0,"port_name":"Seattle","position":{"lat":47.608013,"lng":-122.335167},"status":"surplus"},{"frame_index":614,"name":"ports_16","capacity":10000,"empty":1710,"full":1348,"on_shipper":238,"on_consignee":0,"shortage":0,"acc_shortage":470,"booking":156,"acc_booking":49052,"fulfillment":156,"acc_fulfillment":48582,"transfer_cost":0.0,"port_name":"Shanghai","position":{"lat":31.224361,"lng":121.46917},"status":"surplus"},{"frame_index":614,"name":"ports_17","capacity":10000,"empty":462,"full":576,"on_shipper":85,"on_consignee":0,"shortage":0,"acc_shortage":40,"booking":66,"acc_booking":19856,"fulfillment":66,"acc_fulfillment":19816,"transfer_cost":0.0,"port_name":"Singapore","position":{"lat":1.29027,"lng":103.851959},"status":"surplus"},{"frame_index":614,"name":"ports_18","capacity":10000,"empty":476,"full":292,"on_shipper":33,"on_consignee":0,"shortage":0,"acc_shortage":957,"booking":26,"acc_booking":7588,"fulfillment":26,"acc_fulfillment":6631,"transfer_cost":0.0,"port_name":"Sydney","position":{"lat":-33.865143,"lng":151.2099},"status":"surplus"},{"frame_index":614,"name":"ports_19","capacity":10000,"empty":1066,"full":272,"on_shipper":45,"on_consignee":0,"shortage":0,"acc_shortage":0,"booking":32,"acc_booking":10123,"fulfillment":32,"acc_fulfillment":10123,"transfer_cost":0.0,"port_name":"Vancouver","position":{"lat":49.246292,"lng":-123.116226},"status":"surplus"},{"frame_index":614,"name":"ports_20","capacity":10000,"empty":583,"full":422,"on_shipper":129,"on_consignee":89,"shortage":0,"acc_shortage":395,"booking":109,"acc_booking":34201,"fulfillment":109,"acc_fulfillment":33806,"transfer_cost":0.0,"port_name":"Yantian","position":{"lat":26.8533,"lng":119.8575},"status":"balance"},{"frame_index":614,"name":"ports_21","capacity":10000,"empty":2293,"full":132,"on_shipper":179,"on_consignee":0,"shortage":0,"acc_shortage":3563,"booking":121,"acc_booking":32610,"fulfillment":121,"acc_fulfillment":29047,"transfer_cost":0.0,"port_name":"Yokohama","position":{"lat":35.443707,"lng":139.638031},"status":"surplus"}]