[{"frame_index":258,"name":"ports_0","capacity":10000,"empty":4917,"full":1339,"on_shipper":209,"on_consignee":0,"shortage":0,"acc_shortage":0,"booking":101,"acc_booking":31522,"fulfillment":101,"acc_fulfillment":31522,"transfer_cost":0.0,"port_name":"Bremerhaven","position":{"lat":53.549999,"lng":8.583333},"status":"surplus"},{"frame_index":258,"name":"ports_1","capacity":10000,"empty":747,"full":182,"on_shipper":8,"on_consignee":0,"shortage":0,"acc_shortage":0,"booking":8,"acc_booking":2121,"fulfillment":8,"acc_fulfillment":2121,"transfer_cost":0.0,"port_name":"Durban","position":{"lat":-29.8579,"lng":31.0292},"status":"surplus"},{"frame_index":258,"name":"ports_2","capacity":10000,"empty":751,"full":20,"on_shipper":7,"on_consignee":175,"shortage":0,"acc_shortage":233,"booking":7,"acc_booking":2103,"fulfillment":7,"acc_fulfillment":1870,"transfer_cost":0.0,"port_name":"Itagual","position":{"lat":-22.85222,"lng":-43.77528},"status":"surplus"},{"frame_index":258,"name":"ports_3","capacity":10000,"empty":1811,"full":847,"on_shipper":97,"on_consignee":0,"shortage":0,"acc_shortage":0,"booking":38,"acc_booking":11979,"fulfillment":38,"acc_fulfillment":11979,"transfer_cost":0.0,"port_name":"LeHavre","position":{"lat":49.490002,"lng":0.1},"status":"surplus"},{"frame_index":258,"name":"ports_4","capacity":10000,"empty":493,"full":1452,"on_shipper":80,"on_consignee":0,"shortage":0,"acc_shortage":0,"booking":32,"acc_booking":10014,"fulfillment":32,"acc_fulfillment":10014,"transfer_cost":0.0,"port_name":"Los Angeles","position":{"lat":34.052235,"lng":-118.243683},"status":"surplus"},{"frame_index":258,"name":"ports_5","capacity":10000,"empty":1024,"full":246,"on_shipper":44,"on_consignee":0,"shortage":0,"acc_shortage":0,"booking":29,"acc_booking":10033,"fulfillment":29,"acc_fulfillment":10033,"transfer_cost":0.0,"port_name":"Manzanillo","position":{"lat":19.11695,"lng":-104.34214},"status":"surplus"},{"frame_index":258,"name":"ports_6","capacity":10000,"empty":113,"full":259,"on_shipper":21,"on_consignee":0,"shortage":0,"acc_shortage":0,"booking":10,"acc_booking":3083,"fulfillment":10,"acc_fulfillment":3083,"transfer_cost":0.0,"port_name":"Melbourne","position":{"lat":-37.840935,"lng":144.946457},"status":"surplus"},{"frame_index":258,"name":"ports_7","capacity":10000,"empty":2083,"full":0,"on_shipper":19,"on_consignee":209,"shortage":0,"acc_shortage":0,"booking":10,"acc_booking":3088,"fulfillment":10,"acc_fulfillment":3088,"transfer_cost":142.0,"port_name":"Montreal","position":{"lat":45.516136,"lng":-73.65683},"status":"surplus"},{"frame_index":258,"name":"ports_8","capacity":10000,"empty":4432,"full":507,"on_shipper":21,"on_consignee":0,"shortage":0,"acc_shortage":0,"booking":21,"acc_booking":6029,"fulfillment":21,"acc_fulfillment":6029,"transfer_cost":0.0,"port_name":"New York","position":{"lat":40.73061,"lng":-73.935242},"status":"surplus"},{"frame_index":258,"name":"ports_9","capacity":10000,"empty":1197,"full":712,"on_shipper":42,"on_consignee":0,"shortage":0,"acc_shortage":0,"booking":21,"acc_booking":6004,"fulfillment":21,"acc_fulfillment":6004,"transfer_cost":0.0,"port_name":"Oakland","position":{"lat":37.804363,"lng":-122.271111},"status":"surplus"},{"frame_index":258,"name":"ports_10","capacity":10000,"empty":1516,"full":94,"on_shipper":19,"on_consignee":0,"shortage":0,"acc_shortage":0,"booking":9,"acc_booking":3073,"fulfillment":9,"acc_fulfillment":3073,"transfer_cost":0.0,"port_name":"Prince Rupert","position":{"lat":54.312519,"lng":-130.305405},"status":"surplus"},{"frame_index":258,"name":"ports_11","capacity":10000,"empty":1751,"full":711,"on_shipper":85,"on_consignee":0,"shortage":0,"acc_shortage":0,"booking":37,"acc_booking":11946,"fulfillment":37,"acc_fulfillment":11946,"transfer_cost":0.0,"port_name":"Pusan","position":{"lat":35.166668,"lng":129.066666},"status":"surplus"},{"frame_index":258,"name":"ports_12","capacity":10000,"empty":1056,"full":1361,"on_shipper":77,"on_consignee":0,"shortage":0,"acc_shortage":0,"booking":54,"acc_booking":15933,"fulfillment":54,"acc_fulfillment":15933,"transfer_cost":0.0,"port_name":"Qingdao","position":{"lat":36.066898,"lng":120.382698},"status":"surplus"},{"frame_index":258,"name":"ports_13","capacity":10000,"empty":512,"full":141,"on_shipper":13,"on_consignee":0,"shortage":0,"acc_shortage":55,"booking":7,"acc_booking":2101,"fulfillment":7,"acc_fulfillment":2046,"transfer_cost":0.0,"port_name":"San Antonio","position":{"lat":29.424349,"lng":-98.491142},"status":"surplus"},{"frame_index":258,"name":"ports_14","capacity":10000,"empty":1252,"full":25,"on_shipper":12,"on_consignee":0,"shortage":0,"acc_shortage":697,"booking":8,"acc_booking":2124,"fulfillment":8,"acc_fulfillment":1427,"transfer_cost":0.0,"port_name":"Santos","position":{"lat":-23.96083,"lng":-46.33361},"status":"surplus"},{"frame_index":258,"name":"ports_15","capacity":10000,"empty":4648,"full":592,"on_shipper":105,"on_consignee":0,"shortage":0,"acc_shortage":0,"booking":45,"acc_booking":13944,"fulfillment":45,"acc_fulfillment":13944,"transfer_cost":0.0,"port_name":"Seattle","position":{"lat":47.608013,"lng":-122.335167},"status":"surplus"},{"frame_index":258,"name":"ports_16","capacity":10000,"empty":3097,"full":379,"on_shipper":94,"on_consignee":840,"shortage":0,"acc_shortage":0,"booking":55,"acc_booking":19878,"fulfillment":55,"acc_fulfillment":19878,"transfer_cost":7.0,"port_name":"Shanghai","position":{"lat":31.224361,"lng":121.46917},"status":"surplus"},{"frame_index":258,"name":"ports_17","capacity":10000,"empty":2486,"full":187,"on_shipper":51,"on_consignee":4,"shortage":0,"acc_shortage":40,"booking":26,"acc_booking":8036,"fulfillment":26,"acc_fulfillment":7996,"transfer_cost":0.0,"port_name":"Singapore","position":{"lat":1.29027,"lng":103.851959},"status":"surplus"},{"frame_index":258,"name":"ports_18","capacity":10000,"empty":340,"full":71,"on_shipper":22,"on_consignee":0,"shortage":0,"acc_shortage":5,"booking":11,"acc_booking":3064,"fulfillment":11,"acc_fulfillment":3059,"transfer_cost":0.0,"port_name":"Sydney","position":{"lat":-33.865143,"lng":151.2099},"status":"surplus"},{"frame_index":258,"name":"ports_19","capacity":10000,"empty":962,"full":378,"on_shipper":23,"on_consignee":0,"shortage":0,"acc_shortage":0,"booking":13,"acc_booking":4098,"fulfillment":13,"acc_fulfillment":4098,"transfer_cost":0.0,"port_name":"Vancouver","position":{"lat":49.246292,"lng":-123.116226},"status":"surplus"},{"frame_index":258,"name":"ports_20","capacity":10000,"empty":2511,"full":1205,"on_shipper":73,"on_consignee":0,"shortage":0,"acc_shortage":0,"booking":41,"acc_booking":13763,"fulfillment":41,"acc_fulfillment":13763,"transfer_cost":0.0,"port_name":"Yantian","position":{"lat":26.8533,"lng":119.8575},"status":"surplus"},{"frame_index":258,"name":"ports_21","capacity":10000,"empty":1450,"full":649,"on_shipper":99,"on_consignee":0,"shortage":0,"acc_shortage":492,"booking":41,"acc_booking":13050,"fulfillment":41,"acc_fulfillment":12558,"transfer_cost":0.0,"port_name":"Yokohama","position":{"lat":35.443707,"lng":139.638031},"status":"surplus"}]