[{"frame_index":910,"name":"ports_0","capacity":10000,"empty":3689,"full":890,"on_shipper":111,"on_consignee":0,"shortage":0,"acc_shortage":522,"booking":88,"acc_booking":115938,"fulfillment":88,"acc_fulfillment":115416,"transfer_cost":0.0,"port_name":"Bremerhaven","position":{"lat":53.549999,"lng":8.583333},"status":"surplus"},{"frame_index":910,"name":"ports_1","capacity":10000,"empty":459,"full":32,"on_shipper":11,"on_consignee":0,"shortage":0,"acc_shortage":113,"booking":7,"acc_booking":7711,"fulfillment":7,"acc_fulfillment":7598,"transfer_cost":0.0,"port_name":"Durban","position":{"lat":-29.8579,"lng":31.0292},"status":"surplus"},{"frame_index":910,"name":"ports_2","capacity":10000,"empty":846,"full":9,"on_shipper":9,"on_consignee":0,"shortage":0,"acc_shortage":298,"booking":7,"acc_booking":7675,"fulfillment":7,"acc_fulfillment":7377,"transfer_cost":0.0,"port_name":"Itagual","position":{"lat":-22.85222,"lng":-43.77528},"status":"surplus"},{"frame_index":910,"name":"ports_3","capacity":10000,"empty":2392,"full":1547,"on_shipper":54,"on_consignee":0,"shortage":0,"acc_shortage":0,"booking":37,"acc_booking":43880,"fulfillment":37,"acc_fulfillment":43880,"transfer_cost":0.0,"port_name":"LeHavre","position":{"lat":49.490002,"lng":0.1},"status":"surplus"},{"frame_index":910,"name":"ports_4","capacity":10000,"empty":136,"full":680,"on_shipper":37,"on_consignee":0,"shortage":0,"acc_shortage":290,"booking":30,"acc_booking":36751,"fulfillment":30,"acc_fulfillment":36461,"transfer_cost":0.0,"port_name":"Los Angeles","position":{"lat":34.052235,"lng":-118.243683},"status":"balance"},{"frame_index":910,"name":"ports_5","capacity":10000,"empty":1352,"full":50,"on_shipper":34,"on_consignee":0,"shortage":0,"acc_shortage":163,"booking":27,"acc_booking":36861,"fulfillment":27,"acc_fulfillment":36698,"transfer_cost":0.0,"port_name":"Manzanillo","position":{"lat":19.11695,"lng":-104.34214},"status":"surplus"},{"frame_index":910,"name":"ports_6","capacity":10000,"empty":473,"full":228,"on_shipper":14,"on_consignee":0,"shortage":0,"acc_shortage":1855,"booking":10,"acc_booking":11314,"fulfillment":10,"acc_fulfillment":9459,"transfer_cost":0.0,"port_name":"Melbourne","position":{"lat":-37.840935,"lng":144.946457},"status":"surplus"},{"frame_index":910,"name":"ports_7","capacity":10000,"empty":1552,"full":39,"on_shipper":9,"on_consignee":0,"shortage":0,"acc_shortage":0,"booking":9,"acc_booking":11324,"fulfillment":9,"acc_fulfillment":11324,"transfer_cost":0.0,"port_name":"Montreal","position":{"lat":45.516136,"lng":-73.65683},"status":"surplus"},{"frame_index":910,"name":"ports_8","capacity":10000,"empty":2889,"full":25,"on_shipper":18,"on_consignee":141,"shortage":0,"acc_shortage":136,"booking":18,"acc_booking":22121,"fulfillment":18,"acc_fulfillment":21985,"transfer_cost":0.0,"port_name":"New York","position":{"lat":40.73061,"lng":-73.935242},"status":"surplus"},{"frame_index":910,"name":"ports_9","capacity":10000,"empty":762,"full":125,"on_shipper":22,"on_consignee":0,"shortage":0,"acc_shortage":45,"booking":19,"acc_booking":22148,"fulfillment":19,"acc_fulfillment":22103,"transfer_cost":0.0,"port_name":"Oakland","position":{"lat":37.804363,"lng":-122.271111},"status":"surplus"},{"frame_index":910,"name":"ports_10","capacity":10000,"empty":1049,"full":134,"on_shipper":10,"on_consignee":0,"shortage":0,"acc_shortage":314,"booking":10,"acc_booking":11352,"fulfillment":10,"acc_fulfillment":11038,"transfer_cost":0.0,"port_name":"Prince Rupert","position":{"lat":54.312519,"lng":-130.305405},"status":"surplus"},{"frame_index":910,"name":"ports_11","capacity":10000,"empty":437,"full":2477,"on_shipper":51,"on_consignee":0,"shortage":0,"acc_shortage":204,"booking":37,"acc_booking":43832,"fulfillment":37,"acc_fulfillment":43628,"transfer_cost":0.0,"port_name":"Pusan","position":{"lat":35.166668,"lng":129.066666},"status":"surplus"},{"frame_index":910,"name":"ports_12","capacity":10000,"empty":4035,"full":357,"on_shipper":47,"on_consignee":0,"shortage":0,"acc_shortage":0,"booking":43,"acc_booking":58597,"fulfillment":43,"acc_fulfillment":58597,"transfer_cost":0.0,"port_name":"Qingdao","position":{"lat":36.066898,"lng":120.382698},"status":"surplus"},{"frame_index":910,"name":"ports_13","capacity":10000,"empty":212,"full":148,"on_shipper":8,"on_consignee":0,"shortage":0,"acc_shortage":449,"booking":6,"acc_booking":7680,"fulfillment":6,"acc_fulfillment":7231,"transfer_cost":0.0,"port_name":"San Antonio","position":{"lat":29.424349,"lng":-98.491142},"status":"surplus"},{"frame_index":910,"name":"ports_14","capacity":10000,"empty":277,"full":52,"on_shipper":7,"on_consignee":0,"shortage":0,"acc_shortage":819,"booking":6,"acc_booking":7734,"fulfillment":6,"acc_fulfillment":6915,"transfer_cost":0.0,"port_name":"Santos","position":{"lat":-23.96083,"lng":-46.33361},"status":"surplus"},{"frame_index":910,"name":"ports_15","capacity":10000,"empty":1695,"full":774,"on_shipper":54,"on_consignee":0,"shortage":0,"acc_shortage":0,"booking":41,"acc_booking":51190,"fulfillment":41,"acc_fulfillment":51190,"transfer_cost":0.0,"port_name":"Seattle","position":{"lat":47.608013,"lng":-122.335167},"status":"surplus"},{"frame_index":910,"name":"ports_16","capacity":10000,"empty":1681,"full":2800,"on_shipper":85,"on_consignee":0,"shortage":0,"acc_shortage":817,"booking":60,"acc_booking":72890,"fulfillment":60,"acc_fulfillment":72073,"transfer_cost":0.0,"port_name":"Shanghai","position":{"lat":31.224361,"lng":121.46917},"status":"surplus"},{"frame_index":910,"name":"ports_17","capacity":10000,"empty":1931,"full":341,"on_shipper":36,"on_consignee":0,"shortage":0,"acc_shortage":283,"booking":25,"acc_booking":29471,"fulfillment":25,"acc_fulfillment":29188,"transfer_cost":0.0,"port_name":"Singapore","position":{"lat":1.29027,"lng":103.851959},"status":"surplus"},{"frame_index":910,"name":"ports_18","capacity":10000,"empty":1039,"full":151,"on_shipper":16,"on_consignee":0,"shortage":0,"acc_shortage":1374,"booking":10,"acc_booking":11331,"fulfillment":10,"acc_fulfillment":9957,"transfer_cost":0.0,"port_name":"Sydney","position":{"lat":-33.865143,"lng":151.2099},"status":"surplus"},{"frame_index":910,"name":"ports_19","capacity":10000,"empty":1092,"full":298,"on_shipper":15,"on_consignee":0,"shortage":0,"acc_shortage":0,"booking":13,"acc_booking":14996,"fulfillment":13,"acc_fulfillment":14996,"transfer_cost":0.0,"port_name":"Vancouver","position":{"lat":49.246292,"lng":-123.116226},"status":"surplus"},{"frame_index":910,"name":"ports_20","capacity":10000,"empty":1035,"full":1780,"on_shipper":57,"on_consignee":0,"shortage":0,"acc_shortage":1292,"booking":41,"acc_booking":50900,"fulfillment":41,"acc_fulfillment":49608,"transfer_cost":0.0,"port_name":"Yantian","position":{"lat":26.8533,"lng":119.8575},"status":"surplus"},{"frame_index":910,"name":"ports_21","capacity":10000,"empty":1134,"full":279,"on_shipper":52,"on_consignee":0,"shortage":0,"acc_shortage":7235,"booking":38,"acc_booking":48440,"fulfillment":38,"acc_fulfillment":41205,"transfer_cost":0.0,"port_name":"Yokohama","position":{"lat":35.443707,"lng":139.638031},"status":"surplus"}]