[{"frame_index":1101,"name":"ports_0","capacity":10000,"empty":0,"full":4034,"on_shipper":0,"on_consignee":0,"shortage":66,"acc_shortage":2697,"booking":66,"acc_booking":142682,"fulfillment":0,"acc_fulfillment":139985,"transfer_cost":0.0,"port_name":"Bremerhaven","position":{"lat":53.549999,"lng":8.583333},"status":"demand"},{"frame_index":1101,"name":"ports_1","capacity":10000,"empty":312,"full":234,"on_shipper":6,"on_consignee":0,"shortage":0,"acc_shortage":113,"booking":5,"acc_booking":9481,"fulfillment":5,"acc_fulfillment":9368,"transfer_cost":0.0,"port_name":"Durban","position":{"lat":-29.8579,"lng":31.0292},"status":"surplus"},{"frame_index":1101,"name":"ports_2","capacity":10000,"empty":713,"full":401,"on_shipper":6,"on_consignee":0,"shortage":0,"acc_shortage":298,"booking":5,"acc_booking":9444,"fulfillment":5,"acc_fulfillment":9146,"transfer_cost":0.0,"port_name":"Itagual","position":{"lat":-22.85222,"lng":-43.77528},"status":"surplus"},{"frame_index":1101,"name":"ports_3","capacity":10000,"empty":5488,"full":1278,"on_shipper":28,"on_consignee":0,"shortage":0,"acc_shortage":0,"booking":26,"acc_booking":53960,"fulfillment":26,"acc_fulfillment":53960,"transfer_cost":0.0,"port_name":"LeHavre","position":{"lat":49.490002,"lng":0.1},"status":"surplus"},{"frame_index":1101,"name":"ports_4","capacity":10000,"empty":341,"full":73,"on_shipper":33,"on_consignee":518,"shortage":0,"acc_shortage":290,"booking":22,"acc_booking":45192,"fulfillment":22,"acc_fulfillment":44902,"transfer_cost":0.0,"port_name":"Los Angeles","position":{"lat":34.052235,"lng":-118.243683},"status":"surplus"},{"frame_index":1101,"name":"ports_5","capacity":10000,"empty":390,"full":741,"on_shipper":27,"on_consignee":0,"shortage":0,"acc_shortage":194,"booking":23,"acc_booking":45266,"fulfillment":23,"acc_fulfillment":45072,"transfer_cost":0.0,"port_name":"Manzanillo","position":{"lat":19.11695,"lng":-104.34214},"status":"surplus"},{"frame_index":1101,"name":"ports_6","capacity":10000,"empty":267,"full":319,"on_shipper":7,"on_consignee":0,"shortage":0,"acc_shortage":2377,"booking":7,"acc_booking":13913,"fulfillment":7,"acc_fulfillment":11536,"transfer_cost":0.0,"port_name":"Melbourne","position":{"lat":-37.840935,"lng":144.946457},"status":"surplus"},{"frame_index":1101,"name":"ports_7","capacity":10000,"empty":1324,"full":167,"on_shipper":8,"on_consignee":0,"shortage":0,"acc_shortage":0,"booking":7,"acc_booking":13913,"fulfillment":7,"acc_fulfillment":13913,"transfer_cost":0.0,"port_name":"Montreal","position":{"lat":45.516136,"lng":-73.65683},"status":"surplus"},{"frame_index":1101,"name":"ports_8","capacity":10000,"empty":3374,"full":4,"on_shipper":17,"on_consignee":0,"shortage":0,"acc_shortage":136,"booking":13,"acc_booking":27214,"fulfillment":13,"acc_fulfillment":27078,"transfer_cost":0.0,"port_name":"New York","position":{"lat":40.73061,"lng":-73.935242},"status":"surplus"},{"frame_index":1101,"name":"ports_9","capacity":10000,"empty":805,"full":1412,"on_shipper":21,"on_consignee":0,"shortage":0,"acc_shortage":45,"booking":15,"acc_booking":27269,"fulfillment":15,"acc_fulfillment":27224,"transfer_cost":0.0,"port_name":"Oakland","position":{"lat":37.804363,"lng":-122.271111},"status":"surplus"},{"frame_index":1101,"name":"ports_10","capacity":10000,"empty":1231,"full":457,"on_shipper":11,"on_consignee":0,"shortage":0,"acc_shortage":314,"booking":7,"acc_booking":13897,"fulfillment":7,"acc_fulfillment":13583,"transfer_cost":0.0,"port_name":"Prince Rupert","position":{"lat":54.312519,"lng":-130.305405},"status":"surplus"},{"frame_index":1101,"name":"ports_11","capacity":10000,"empty":1583,"full":1135,"on_shipper":33,"on_consignee":0,"shortage":0,"acc_shortage":204,"booking":26,"acc_booking":53925,"fulfillment":26,"acc_fulfillment":53721,"transfer_cost":0.0,"port_name":"Pusan","position":{"lat":35.166668,"lng":129.066666},"status":"surplus"},{"frame_index":1101,"name":"ports_12","capacity":10000,"empty":2537,"full":2058,"on_shipper":45,"on_consignee":0,"shortage":0,"acc_shortage":0,"booking":32,"acc_booking":71994,"fulfillment":32,"acc_fulfillment":71994,"transfer_cost":0.0,"port_name":"Qingdao","position":{"lat":36.066898,"lng":120.382698},"status":"surplus"},{"frame_index":1101,"name":"ports_13","capacity":10000,"empty":166,"full":383,"on_shipper":6,"on_consignee":0,"shortage":0,"acc_shortage":459,"booking":5,"acc_booking":9444,"fulfillment":5,"acc_fulfillment":8985,"transfer_cost":0.0,"port_name":"San Antonio","position":{"lat":29.424349,"lng":-98.491142},"status":"surplus"},{"frame_index":1101,"name":"ports_14","capacity":10000,"empty":124,"full":193,"on_shipper":5,"on_consignee":0,"shortage":0,"acc_shortage":1294,"booking":4,"acc_booking":9501,"fulfillment":4,"acc_fulfillment":8207,"transfer_cost":0.0,"port_name":"Santos","position":{"lat":-23.96083,"lng":-46.33361},"status":"surplus"},{"frame_index":1101,"name":"ports_15","capacity":10000,"empty":621,"full":2069,"on_shipper":39,"on_consignee":0,"shortage":0,"acc_shortage":1985,"booking":31,"acc_booking":62927,"fulfillment":31,"acc_fulfillment":60942,"transfer_cost":0.0,"port_name":"Seattle","position":{"lat":47.608013,"lng":-122.335167},"status":"surplus"},{"frame_index":1101,"name":"ports_16","capacity":10000,"empty":1623,"full":2175,"on_shipper":41,"on_consignee":0,"shortage":0,"acc_shortage":817,"booking":37,"acc_booking":89718,"fulfillment":37,"acc_fulfillment":88901,"transfer_cost":0.0,"port_name":"Shanghai","position":{"lat":31.224361,"lng":121.46917},"status":"surplus"},{"frame_index":1101,"name":"ports_17","capacity":10000,"empty":1170,"full":1072,"on_shipper":25,"on_consignee":0,"shortage":0,"acc_shortage":619,"booking":17,"acc_booking":36234,"fulfillment":17,"acc_fulfillment":35615,"transfer_cost":0.0,"port_name":"Singapore","position":{"lat":1.29027,"lng":103.851959},"status":"surplus"},{"frame_index":1101,"name":"ports_18","capacity":10000,"empty":454,"full":110,"on_shipper":8,"on_consignee":0,"shortage":0,"acc_shortage":1374,"booking":8,"acc_booking":13904,"fulfillment":8,"acc_fulfillment":12530,"transfer_cost":0.0,"port_name":"Sydney","position":{"lat":-33.865143,"lng":151.2099},"status":"surplus"},{"frame_index":1101,"name":"ports_19","capacity":10000,"empty":490,"full":996,"on_shipper":10,"on_consignee":0,"shortage":0,"acc_shortage":0,"booking":9,"acc_booking":18420,"fulfillment":9,"acc_fulfillment":18420,"transfer_cost":0.0,"port_name":"Vancouver","position":{"lat":49.246292,"lng":-123.116226},"status":"surplus"},{"frame_index":1101,"name":"ports_20","capacity":10000,"empty":1121,"full":1450,"on_shipper":46,"on_consignee":0,"shortage":0,"acc_shortage":2447,"booking":31,"acc_booking":62743,"fulfillment":31,"acc_fulfillment":60296,"transfer_cost":0.0,"port_name":"Yantian","position":{"lat":26.8533,"lng":119.8575},"status":"surplus"},{"frame_index":1101,"name":"ports_21","capacity":10000,"empty":763,"full":1263,"on_shipper":26,"on_consignee":0,"shortage":0,"acc_shortage":10285,"booking":22,"acc_booking":59749,"fulfillment":22,"acc_fulfillment":49464,"transfer_cost":0.0,"port_name":"Yokohama","position":{"lat":35.443707,"lng":139.638031},"status":"surplus"}]