[{"frame_index":890,"name":"ports_0","capacity":10000,"empty":1232,"full":1084,"on_shipper":71,"on_consignee":0,"shortage":0,"acc_shortage":522,"booking":50,"acc_booking":114903,"fulfillment":50,"acc_fulfillment":114381,"transfer_cost":0.0,"port_name":"Bremerhaven","position":{"lat":53.549999,"lng":8.583333},"status":"surplus"},{"frame_index":890,"name":"ports_1","capacity":10000,"empty":436,"full":5,"on_shipper":8,"on_consignee":0,"shortage":0,"acc_shortage":113,"booking":4,"acc_booking":7635,"fulfillment":4,"acc_fulfillment":7522,"transfer_cost":0.0,"port_name":"Durban","position":{"lat":-29.8579,"lng":31.0292},"status":"surplus"},{"frame_index":890,"name":"ports_2","capacity":10000,"empty":278,"full":423,"on_shipper":7,"on_consignee":0,"shortage":0,"acc_shortage":298,"booking":3,"acc_booking":7595,"fulfillment":3,"acc_fulfillment":7297,"transfer_cost":0.0,"port_name":"Itagual","position":{"lat":-22.85222,"lng":-43.77528},"status":"surplus"},{"frame_index":890,"name":"ports_3","capacity":10000,"empty":3290,"full":1437,"on_shipper":33,"on_consignee":0,"shortage":0,"acc_shortage":0,"booking":20,"acc_booking":43465,"fulfillment":20,"acc_fulfillment":43465,"transfer_cost":0.0,"port_name":"LeHavre","position":{"lat":49.490002,"lng":0.1},"status":"surplus"},{"frame_index":890,"name":"ports_4","capacity":10000,"empty":485,"full":337,"on_shipper":31,"on_consignee":0,"shortage":0,"acc_shortage":290,"booking":17,"acc_booking":36402,"fulfillment":17,"acc_fulfillment":36112,"transfer_cost":0.0,"port_name":"Los Angeles","position":{"lat":34.052235,"lng":-118.243683},"status":"surplus"},{"frame_index":890,"name":"ports_5","capacity":10000,"empty":1396,"full":171,"on_shipper":25,"on_consignee":0,"shortage":0,"acc_shortage":163,"booking":19,"acc_booking":36508,"fulfillment":19,"acc_fulfillment":36345,"transfer_cost":0.0,"port_name":"Manzanillo","position":{"lat":19.11695,"lng":-104.34214},"status":"surplus"},{"frame_index":890,"name":"ports_6","capacity":10000,"empty":0,"full":506,"on_shipper":0,"on_consignee":0,"shortage":5,"acc_shortage":1825,"booking":5,"acc_booking":11201,"fulfillment":0,"acc_fulfillment":9376,"transfer_cost":0.0,"port_name":"Melbourne","position":{"lat":-37.840935,"lng":144.946457},"status":"balance"},{"frame_index":890,"name":"ports_7","capacity":10000,"empty":1061,"full":6,"on_shipper":8,"on_consignee":0,"shortage":0,"acc_shortage":0,"booking":5,"acc_booking":11212,"fulfillment":5,"acc_fulfillment":11212,"transfer_cost":0.0,"port_name":"Montreal","position":{"lat":45.516136,"lng":-73.65683},"status":"surplus"},{"frame_index":890,"name":"ports_8","capacity":10000,"empty":4508,"full":92,"on_shipper":10,"on_consignee":0,"shortage":0,"acc_shortage":136,"booking":10,"acc_booking":21908,"fulfillment":10,"acc_fulfillment":21772,"transfer_cost":0.0,"port_name":"New York","position":{"lat":40.73061,"lng":-73.935242},"status":"surplus"},{"frame_index":890,"name":"ports_9","capacity":10000,"empty":1773,"full":56,"on_shipper":11,"on_consignee":0,"shortage":0,"acc_shortage":45,"booking":11,"acc_booking":21927,"fulfillment":11,"acc_fulfillment":21882,"transfer_cost":0.0,"port_name":"Oakland","position":{"lat":37.804363,"lng":-122.271111},"status":"surplus"},{"frame_index":890,"name":"ports_10","capacity":10000,"empty":1156,"full":30,"on_shipper":7,"on_consignee":0,"shortage":0,"acc_shortage":314,"booking":5,"acc_booking":11245,"fulfillment":5,"acc_fulfillment":10931,"transfer_cost":0.0,"port_name":"Prince Rupert","position":{"lat":54.312519,"lng":-130.305405},"status":"surplus"},{"frame_index":890,"name":"ports_11","capacity":10000,"empty":393,"full":2314,"on_shipper":36,"on_consignee":0,"shortage":0,"acc_shortage":204,"booking":20,"acc_booking":43418,"fulfillment":20,"acc_fulfillment":43214,"transfer_cost":0.0,"port_name":"Pusan","position":{"lat":35.166668,"lng":129.066666},"status":"surplus"},{"frame_index":890,"name":"ports_12","capacity":10000,"empty":295,"full":672,"on_shipper":44,"on_consignee":130,"shortage":0,"acc_shortage":0,"booking":24,"acc_booking":58054,"fulfillment":24,"acc_fulfillment":58054,"transfer_cost":464.0,"port_name":"Qingdao","position":{"lat":36.066898,"lng":120.382698},"status":"surplus"},{"frame_index":890,"name":"ports_13","capacity":10000,"empty":289,"full":74,"on_shipper":5,"on_consignee":0,"shortage":0,"acc_shortage":449,"booking":4,"acc_booking":7603,"fulfillment":4,"acc_fulfillment":7154,"transfer_cost":0.0,"port_name":"San Antonio","position":{"lat":29.424349,"lng":-98.491142},"status":"surplus"},{"frame_index":890,"name":"ports_14","capacity":10000,"empty":478,"full":14,"on_shipper":5,"on_consignee":0,"shortage":0,"acc_shortage":819,"booking":4,"acc_booking":7656,"fulfillment":4,"acc_fulfillment":6837,"transfer_cost":0.0,"port_name":"Santos","position":{"lat":-23.96083,"lng":-46.33361},"status":"surplus"},{"frame_index":890,"name":"ports_15","capacity":10000,"empty":452,"full":2029,"on_shipper":49,"on_consignee":0,"shortage":0,"acc_shortage":0,"booking":24,"acc_booking":50708,"fulfillment":24,"acc_fulfillment":50708,"transfer_cost":0.0,"port_name":"Seattle","position":{"lat":47.608013,"lng":-122.335167},"status":"surplus"},{"frame_index":890,"name":"ports_16","capacity":10000,"empty":946,"full":2954,"on_shipper":57,"on_consignee":0,"shortage":0,"acc_shortage":817,"booking":38,"acc_booking":72212,"fulfillment":38,"acc_fulfillment":71395,"transfer_cost":0.0,"port_name":"Shanghai","position":{"lat":31.224361,"lng":121.46917},"status":"surplus"},{"frame_index":890,"name":"ports_17","capacity":10000,"empty":1118,"full":396,"on_shipper":24,"on_consignee":68,"shortage":0,"acc_shortage":283,"booking":13,"acc_booking":29190,"fulfillment":13,"acc_fulfillment":28907,"transfer_cost":1054.0,"port_name":"Singapore","position":{"lat":1.29027,"lng":103.851959},"status":"surplus"},{"frame_index":890,"name":"ports_18","capacity":10000,"empty":1153,"full":45,"on_shipper":8,"on_consignee":0,"shortage":0,"acc_shortage":1374,"booking":6,"acc_booking":11217,"fulfillment":6,"acc_fulfillment":9843,"transfer_cost":0.0,"port_name":"Sydney","position":{"lat":-33.865143,"lng":151.2099},"status":"surplus"},{"frame_index":890,"name":"ports_19","capacity":10000,"empty":1127,"full":288,"on_shipper":11,"on_consignee":0,"shortage":0,"acc_shortage":0,"booking":7,"acc_booking":14849,"fulfillment":7,"acc_fulfillment":14849,"transfer_cost":0.0,"port_name":"Vancouver","position":{"lat":49.246292,"lng":-123.116226},"status":"surplus"},{"frame_index":890,"name":"ports_20","capacity":10000,"empty":0,"full":1868,"on_shipper":26,"on_consignee":297,"shortage":21,"acc_shortage":1292,"booking":25,"acc_booking":50440,"fulfillment":4,"acc_fulfillment":49148,"transfer_cost":0.0,"port_name":"Yantian","position":{"lat":26.8533,"lng":119.8575},"status":"demand"},{"frame_index":890,"name":"ports_21","capacity":10000,"empty":536,"full":103,"on_shipper":23,"on_consignee":240,"shortage":0,"acc_shortage":7235,"booking":17,"acc_booking":48115,"fulfillment":17,"acc_fulfillment":40880,"transfer_cost":30.0,"port_name":"Yokohama","position":{"lat":35.443707,"lng":139.638031},"status":"surplus"}]