[{"frame_index":383,"name":"ports_0","capacity":10000,"empty":4726,"full":923,"on_shipper":351,"on_consignee":0,"shortage":0,"acc_shortage":522,"booking":205,"acc_booking":48072,"fulfillment":205,"acc_fulfillment":47550,"transfer_cost":0.0,"port_name":"Bremerhaven","position":{"lat":53.549999,"lng":8.583333},"status":"surplus"},{"frame_index":383,"name":"ports_1","capacity":10000,"empty":442,"full":34,"on_shipper":20,"on_consignee":0,"shortage":0,"acc_shortage":0,"booking":15,"acc_booking":3215,"fulfillment":15,"acc_fulfillment":3215,"transfer_cost":0.0,"port_name":"Durban","position":{"lat":-29.8579,"lng":31.0292},"status":"surplus"},{"frame_index":383,"name":"ports_2","capacity":10000,"empty":855,"full":4,"on_shipper":29,"on_consignee":88,"shortage":0,"acc_shortage":233,"booking":15,"acc_booking":3197,"fulfillment":15,"acc_fulfillment":2964,"transfer_cost":0.0,"port_name":"Itagual","position":{"lat":-22.85222,"lng":-43.77528},"status":"surplus"},{"frame_index":383,"name":"ports_3","capacity":10000,"empty":882,"full":1518,"on_shipper":121,"on_consignee":0,"shortage":0,"acc_shortage":0,"booking":79,"acc_booking":18276,"fulfillment":79,"acc_fulfillment":18276,"transfer_cost":0.0,"port_name":"LeHavre","position":{"lat":49.490002,"lng":0.1},"status":"surplus"},{"frame_index":383,"name":"ports_4","capacity":10000,"empty":2852,"full":526,"on_shipper":105,"on_consignee":0,"shortage":0,"acc_shortage":0,"booking":67,"acc_booking":15268,"fulfillment":67,"acc_fulfillment":15268,"transfer_cost":0.0,"port_name":"Los Angeles","position":{"lat":34.052235,"lng":-118.243683},"status":"surplus"},{"frame_index":383,"name":"ports_5","capacity":10000,"empty":1579,"full":877,"on_shipper":124,"on_consignee":0,"shortage":0,"acc_shortage":123,"booking":68,"acc_booking":15320,"fulfillment":68,"acc_fulfillment":15197,"transfer_cost":0.0,"port_name":"Manzanillo","position":{"lat":19.11695,"lng":-104.34214},"status":"surplus"},{"frame_index":383,"name":"ports_6","capacity":10000,"empty":0,"full":440,"on_shipper":7,"on_consignee":0,"shortage":21,"acc_shortage":372,"booking":21,"acc_booking":4700,"fulfillment":0,"acc_fulfillment":4328,"transfer_cost":0.0,"port_name":"Melbourne","position":{"lat":-37.840935,"lng":144.946457},"status":"demand"},{"frame_index":383,"name":"ports_7","capacity":10000,"empty":2377,"full":329,"on_shipper":32,"on_consignee":0,"shortage":0,"acc_shortage":0,"booking":20,"acc_booking":4708,"fulfillment":20,"acc_fulfillment":4708,"transfer_cost":0.0,"port_name":"Montreal","position":{"lat":45.516136,"lng":-73.65683},"status":"surplus"},{"frame_index":383,"name":"ports_8","capacity":10000,"empty":1275,"full":737,"on_shipper":64,"on_consignee":0,"shortage":0,"acc_shortage":0,"booking":43,"acc_booking":9185,"fulfillment":43,"acc_fulfillment":9185,"transfer_cost":0.0,"port_name":"New York","position":{"lat":40.73061,"lng":-73.935242},"status":"surplus"},{"frame_index":383,"name":"ports_9","capacity":10000,"empty":1614,"full":277,"on_shipper":49,"on_consignee":0,"shortage":0,"acc_shortage":0,"booking":38,"acc_booking":9159,"fulfillment":38,"acc_fulfillment":9159,"transfer_cost":0.0,"port_name":"Oakland","position":{"lat":37.804363,"lng":-122.271111},"status":"surplus"},{"frame_index":383,"name":"ports_10","capacity":10000,"empty":1010,"full":475,"on_shipper":30,"on_consignee":0,"shortage":0,"acc_shortage":0,"booking":17,"acc_booking":4693,"fulfillment":17,"acc_fulfillment":4693,"transfer_cost":0.0,"port_name":"Prince Rupert","position":{"lat":54.312519,"lng":-130.305405},"status":"surplus"},{"frame_index":383,"name":"ports_11","capacity":10000,"empty":788,"full":1398,"on_shipper":136,"on_consignee":0,"shortage":0,"acc_shortage":0,"booking":77,"acc_booking":18213,"fulfillment":77,"acc_fulfillment":18213,"transfer_cost":0.0,"port_name":"Pusan","position":{"lat":35.166668,"lng":129.066666},"status":"surplus"},{"frame_index":383,"name":"ports_12","capacity":10000,"empty":33,"full":1861,"on_shipper":158,"on_consignee":361,"shortage":0,"acc_shortage":0,"booking":118,"acc_booking":24368,"fulfillment":118,"acc_fulfillment":24368,"transfer_cost":0.0,"port_name":"Qingdao","position":{"lat":36.066898,"lng":120.382698},"status":"demand"},{"frame_index":383,"name":"ports_13","capacity":10000,"empty":416,"full":125,"on_shipper":19,"on_consignee":0,"shortage":0,"acc_shortage":123,"booking":14,"acc_booking":3190,"fulfillment":14,"acc_fulfillment":3067,"transfer_cost":0.0,"port_name":"San Antonio","position":{"lat":29.424349,"lng":-98.491142},"status":"surplus"},{"frame_index":383,"name":"ports_14","capacity":10000,"empty":522,"full":361,"on_shipper":20,"on_consignee":0,"shortage":0,"acc_shortage":697,"booking":12,"acc_booking":3242,"fulfillment":12,"acc_fulfillment":2545,"transfer_cost":0.0,"port_name":"Santos","position":{"lat":-23.96083,"lng":-46.33361},"status":"surplus"},{"frame_index":383,"name":"ports_15","capacity":10000,"empty":4382,"full":1474,"on_shipper":103,"on_consignee":0,"shortage":0,"acc_shortage":0,"booking":93,"acc_booking":21268,"fulfillment":93,"acc_fulfillment":21268,"transfer_cost":0.0,"port_name":"Seattle","position":{"lat":47.608013,"lng":-122.335167},"status":"surplus"},{"frame_index":383,"name":"ports_16","capacity":10000,"empty":2336,"full":1815,"on_shipper":245,"on_consignee":0,"shortage":0,"acc_shortage":0,"booking":125,"acc_booking":30431,"fulfillment":125,"acc_fulfillment":30431,"transfer_cost":0.0,"port_name":"Shanghai","position":{"lat":31.224361,"lng":121.46917},"status":"surplus"},{"frame_index":383,"name":"ports_17","capacity":10000,"empty":3640,"full":477,"on_shipper":92,"on_consignee":0,"shortage":0,"acc_shortage":40,"booking":53,"acc_booking":12250,"fulfillment":53,"acc_fulfillment":12210,"transfer_cost":0.0,"port_name":"Singapore","position":{"lat":1.29027,"lng":103.851959},"status":"surplus"},{"frame_index":383,"name":"ports_18","capacity":10000,"empty":107,"full":282,"on_shipper":27,"on_consignee":0,"shortage":0,"acc_shortage":419,"booking":21,"acc_booking":4674,"fulfillment":21,"acc_fulfillment":4255,"transfer_cost":0.0,"port_name":"Sydney","position":{"lat":-33.865143,"lng":151.2099},"status":"balance"},{"frame_index":383,"name":"ports_19","capacity":10000,"empty":704,"full":328,"on_shipper":52,"on_consignee":0,"shortage":0,"acc_shortage":0,"booking":27,"acc_booking":6252,"fulfillment":27,"acc_fulfillment":6252,"transfer_cost":0.0,"port_name":"Vancouver","position":{"lat":49.246292,"lng":-123.116226},"status":"surplus"},{"frame_index":383,"name":"ports_20","capacity":10000,"empty":1563,"full":1611,"on_shipper":126,"on_consignee":0,"shortage":0,"acc_shortage":0,"booking":103,"acc_booking":21058,"fulfillment":103,"acc_fulfillment":21058,"transfer_cost":0.0,"port_name":"Yantian","position":{"lat":26.8533,"lng":119.8575},"status":"surplus"},{"frame_index":383,"name":"ports_21","capacity":10000,"empty":771,"full":919,"on_shipper":136,"on_consignee":0,"shortage":0,"acc_shortage":1887,"booking":96,"acc_booking":20054,"fulfillment":96,"acc_fulfillment":18167,"transfer_cost":0.0,"port_name":"Yokohama","position":{"lat":35.443707,"lng":139.638031},"status":"surplus"}]