[{"frame_index":999,"name":"ports_0","capacity":10000,"empty":4045,"full":824,"on_shipper":88,"on_consignee":0,"shortage":0,"acc_shortage":861,"booking":46,"acc_booking":129174,"fulfillment":46,"acc_fulfillment":128313,"transfer_cost":0.0,"port_name":"Bremerhaven","position":{"lat":53.549999,"lng":8.583333},"status":"surplus"},{"frame_index":999,"name":"ports_1","capacity":10000,"empty":366,"full":65,"on_shipper":5,"on_consignee":0,"shortage":0,"acc_shortage":113,"booking":3,"acc_booking":8586,"fulfillment":3,"acc_fulfillment":8473,"transfer_cost":0.0,"port_name":"Durban","position":{"lat":-29.8579,"lng":31.0292},"status":"surplus"},{"frame_index":999,"name":"ports_2","capacity":10000,"empty":361,"full":267,"on_shipper":8,"on_consignee":0,"shortage":0,"acc_shortage":298,"booking":3,"acc_booking":8551,"fulfillment":3,"acc_fulfillment":8253,"transfer_cost":0.0,"port_name":"Itagual","position":{"lat":-22.85222,"lng":-43.77528},"status":"surplus"},{"frame_index":999,"name":"ports_3","capacity":10000,"empty":5560,"full":244,"on_shipper":28,"on_consignee":0,"shortage":0,"acc_shortage":0,"booking":18,"acc_booking":48894,"fulfillment":18,"acc_fulfillment":48894,"transfer_cost":0.0,"port_name":"LeHavre","position":{"lat":49.490002,"lng":0.1},"status":"surplus"},{"frame_index":999,"name":"ports_4","capacity":10000,"empty":1885,"full":174,"on_shipper":28,"on_consignee":0,"shortage":0,"acc_shortage":290,"booking":15,"acc_booking":40948,"fulfillment":15,"acc_fulfillment":40658,"transfer_cost":0.0,"port_name":"Los Angeles","position":{"lat":34.052235,"lng":-118.243683},"status":"surplus"},{"frame_index":999,"name":"ports_5","capacity":10000,"empty":200,"full":166,"on_shipper":19,"on_consignee":0,"shortage":0,"acc_shortage":163,"booking":13,"acc_booking":40971,"fulfillment":13,"acc_fulfillment":40808,"transfer_cost":0.0,"port_name":"Manzanillo","position":{"lat":19.11695,"lng":-104.34214},"status":"surplus"},{"frame_index":999,"name":"ports_6","capacity":10000,"empty":278,"full":224,"on_shipper":5,"on_consignee":0,"shortage":0,"acc_shortage":2108,"booking":5,"acc_booking":12605,"fulfillment":5,"acc_fulfillment":10497,"transfer_cost":0.0,"port_name":"Melbourne","position":{"lat":-37.840935,"lng":144.946457},"status":"surplus"},{"frame_index":999,"name":"ports_7","capacity":10000,"empty":776,"full":0,"on_shipper":5,"on_consignee":742,"shortage":0,"acc_shortage":0,"booking":5,"acc_booking":12613,"fulfillment":5,"acc_fulfillment":12613,"transfer_cost":197.0,"port_name":"Montreal","position":{"lat":45.516136,"lng":-73.65683},"status":"surplus"},{"frame_index":999,"name":"ports_8","capacity":10000,"empty":1918,"full":819,"on_shipper":17,"on_consignee":0,"shortage":0,"acc_shortage":136,"booking":9,"acc_booking":24645,"fulfillment":9,"acc_fulfillment":24509,"transfer_cost":0.0,"port_name":"New York","position":{"lat":40.73061,"lng":-73.935242},"status":"surplus"},{"frame_index":999,"name":"ports_9","capacity":10000,"empty":1010,"full":655,"on_shipper":16,"on_consignee":0,"shortage":0,"acc_shortage":45,"booking":11,"acc_booking":24681,"fulfillment":11,"acc_fulfillment":24636,"transfer_cost":0.0,"port_name":"Oakland","position":{"lat":37.804363,"lng":-122.271111},"status":"surplus"},{"frame_index":999,"name":"ports_10","capacity":10000,"empty":931,"full":235,"on_shipper":5,"on_consignee":0,"shortage":0,"acc_shortage":314,"booking":5,"acc_booking":12615,"fulfillment":5,"acc_fulfillment":12301,"transfer_cost":0.0,"port_name":"Prince Rupert","position":{"lat":54.312519,"lng":-130.305405},"status":"surplus"},{"frame_index":999,"name":"ports_11","capacity":10000,"empty":1760,"full":1406,"on_shipper":36,"on_consignee":0,"shortage":0,"acc_shortage":204,"booking":18,"acc_booking":48845,"fulfillment":18,"acc_fulfillment":48641,"transfer_cost":0.0,"port_name":"Pusan","position":{"lat":35.166668,"lng":129.066666},"status":"surplus"},{"frame_index":999,"name":"ports_12","capacity":10000,"empty":2838,"full":1635,"on_shipper":48,"on_consignee":299,"shortage":0,"acc_shortage":0,"booking":24,"acc_booking":65315,"fulfillment":24,"acc_fulfillment":65315,"transfer_cost":0.0,"port_name":"Qingdao","position":{"lat":36.066898,"lng":120.382698},"status":"surplus"},{"frame_index":999,"name":"ports_13","capacity":10000,"empty":221,"full":176,"on_shipper":5,"on_consignee":0,"shortage":0,"acc_shortage":459,"booking":4,"acc_booking":8558,"fulfillment":4,"acc_fulfillment":8099,"transfer_cost":0.0,"port_name":"San Antonio","position":{"lat":29.424349,"lng":-98.491142},"status":"surplus"},{"frame_index":999,"name":"ports_14","capacity":10000,"empty":136,"full":106,"on_shipper":5,"on_consignee":0,"shortage":0,"acc_shortage":876,"booking":3,"acc_booking":8606,"fulfillment":3,"acc_fulfillment":7730,"transfer_cost":0.0,"port_name":"Santos","position":{"lat":-23.96083,"lng":-46.33361},"status":"surplus"},{"frame_index":999,"name":"ports_15","capacity":10000,"empty":0,"full":1260,"on_shipper":0,"on_consignee":0,"shortage":21,"acc_shortage":1432,"booking":21,"acc_booking":57032,"fulfillment":0,"acc_fulfillment":55600,"transfer_cost":0.0,"port_name":"Seattle","position":{"lat":47.608013,"lng":-122.335167},"status":"demand"},{"frame_index":999,"name":"ports_16","capacity":10000,"empty":1509,"full":1153,"on_shipper":56,"on_consignee":0,"shortage":0,"acc_shortage":817,"booking":31,"acc_booking":81382,"fulfillment":31,"acc_fulfillment":80565,"transfer_cost":0.0,"port_name":"Shanghai","position":{"lat":31.224361,"lng":121.46917},"status":"surplus"},{"frame_index":999,"name":"ports_17","capacity":10000,"empty":1117,"full":358,"on_shipper":22,"on_consignee":0,"shortage":0,"acc_shortage":619,"booking":12,"acc_booking":32835,"fulfillment":12,"acc_fulfillment":32216,"transfer_cost":0.0,"port_name":"Singapore","position":{"lat":1.29027,"lng":103.851959},"status":"surplus"},{"frame_index":999,"name":"ports_18","capacity":10000,"empty":481,"full":387,"on_shipper":11,"on_consignee":0,"shortage":0,"acc_shortage":1374,"booking":6,"acc_booking":12616,"fulfillment":6,"acc_fulfillment":11242,"transfer_cost":0.0,"port_name":"Sydney","position":{"lat":-33.865143,"lng":151.2099},"status":"surplus"},{"frame_index":999,"name":"ports_19","capacity":10000,"empty":893,"full":583,"on_shipper":11,"on_consignee":0,"shortage":0,"acc_shortage":0,"booking":6,"acc_booking":16692,"fulfillment":6,"acc_fulfillment":16692,"transfer_cost":0.0,"port_name":"Vancouver","position":{"lat":49.246292,"lng":-123.116226},"status":"surplus"},{"frame_index":999,"name":"ports_20","capacity":10000,"empty":810,"full":743,"on_shipper":29,"on_consignee":0,"shortage":0,"acc_shortage":1425,"booking":19,"acc_booking":56734,"fulfillment":19,"acc_fulfillment":55309,"transfer_cost":0.0,"port_name":"Yantian","position":{"lat":26.8533,"lng":119.8575},"status":"surplus"},{"frame_index":999,"name":"ports_21","capacity":10000,"empty":0,"full":1201,"on_shipper":0,"on_consignee":0,"shortage":12,"acc_shortage":7730,"booking":12,"acc_booking":54115,"fulfillment":0,"acc_fulfillment":46385,"transfer_cost":0.0,"port_name":"Yokohama","position":{"lat":35.443707,"lng":139.638031},"status":"demand"}]