[{"frame_index":208,"name":"ports_0","capacity":10000,"empty":2628,"full":1074,"on_shipper":135,"on_consignee":1958,"shortage":0,"acc_shortage":0,"booking":79,"acc_booking":27560,"fulfillment":79,"acc_fulfillment":27560,"transfer_cost":0.0,"port_name":"Bremerhaven","position":{"lat":53.549999,"lng":8.583333},"status":"surplus"},{"frame_index":208,"name":"ports_1","capacity":10000,"empty":701,"full":177,"on_shipper":7,"on_consignee":0,"shortage":0,"acc_shortage":0,"booking":5,"acc_booking":1841,"fulfillment":5,"acc_fulfillment":1841,"transfer_cost":0.0,"port_name":"Durban","position":{"lat":-29.8579,"lng":31.0292},"status":"surplus"},{"frame_index":208,"name":"ports_2","capacity":10000,"empty":652,"full":0,"on_shipper":7,"on_consignee":218,"shortage":0,"acc_shortage":233,"booking":5,"acc_booking":1831,"fulfillment":5,"acc_fulfillment":1598,"transfer_cost":12.0,"port_name":"Itagual","position":{"lat":-22.85222,"lng":-43.77528},"status":"surplus"},{"frame_index":208,"name":"ports_3","capacity":10000,"empty":1789,"full":683,"on_shipper":29,"on_consignee":471,"shortage":0,"acc_shortage":0,"booking":27,"acc_booking":10461,"fulfillment":27,"acc_fulfillment":10461,"transfer_cost":766.0,"port_name":"LeHavre","position":{"lat":49.490002,"lng":0.1},"status":"surplus"},{"frame_index":208,"name":"ports_4","capacity":10000,"empty":1407,"full":223,"on_shipper":32,"on_consignee":363,"shortage":0,"acc_shortage":0,"booking":23,"acc_booking":8737,"fulfillment":23,"acc_fulfillment":8737,"transfer_cost":1622.0,"port_name":"Los Angeles","position":{"lat":34.052235,"lng":-118.243683},"status":"surplus"},{"frame_index":208,"name":"ports_5","capacity":10000,"empty":45,"full":216,"on_shipper":33,"on_consignee":0,"shortage":0,"acc_shortage":0,"booking":21,"acc_booking":8768,"fulfillment":21,"acc_fulfillment":8768,"transfer_cost":0.0,"port_name":"Manzanillo","position":{"lat":19.11695,"lng":-104.34214},"status":"demand"},{"frame_index":208,"name":"ports_6","capacity":10000,"empty":193,"full":342,"on_shipper":7,"on_consignee":0,"shortage":0,"acc_shortage":0,"booking":7,"acc_booking":2685,"fulfillment":7,"acc_fulfillment":2685,"transfer_cost":0.0,"port_name":"Melbourne","position":{"lat":-37.840935,"lng":144.946457},"status":"surplus"},{"frame_index":208,"name":"ports_7","capacity":10000,"empty":2384,"full":38,"on_shipper":13,"on_consignee":0,"shortage":0,"acc_shortage":0,"booking":7,"acc_booking":2685,"fulfillment":7,"acc_fulfillment":2685,"transfer_cost":0.0,"port_name":"Montreal","position":{"lat":45.516136,"lng":-73.65683},"status":"surplus"},{"frame_index":208,"name":"ports_8","capacity":10000,"empty":3051,"full":1373,"on_shipper":25,"on_consignee":0,"shortage":0,"acc_shortage":0,"booking":13,"acc_booking":5258,"fulfillment":13,"acc_fulfillment":5258,"transfer_cost":0.0,"port_name":"New York","position":{"lat":40.73061,"lng":-73.935242},"status":"surplus"},{"frame_index":208,"name":"ports_9","capacity":10000,"empty":957,"full":229,"on_shipper":20,"on_consignee":0,"shortage":0,"acc_shortage":0,"booking":16,"acc_booking":5243,"fulfillment":16,"acc_fulfillment":5243,"transfer_cost":0.0,"port_name":"Oakland","position":{"lat":37.804363,"lng":-122.271111},"status":"surplus"},{"frame_index":208,"name":"ports_10","capacity":10000,"empty":513,"full":570,"on_shipper":10,"on_consignee":0,"shortage":0,"acc_shortage":0,"booking":6,"acc_booking":2671,"fulfillment":6,"acc_fulfillment":2671,"transfer_cost":0.0,"port_name":"Prince Rupert","position":{"lat":54.312519,"lng":-130.305405},"status":"surplus"},{"frame_index":208,"name":"ports_11","capacity":10000,"empty":1586,"full":892,"on_shipper":46,"on_consignee":0,"shortage":0,"acc_shortage":0,"booking":26,"acc_booking":10428,"fulfillment":26,"acc_fulfillment":10428,"transfer_cost":0.0,"port_name":"Pusan","position":{"lat":35.166668,"lng":129.066666},"status":"surplus"},{"frame_index":208,"name":"ports_12","capacity":10000,"empty":1446,"full":1760,"on_shipper":45,"on_consignee":0,"shortage":0,"acc_shortage":0,"booking":35,"acc_booking":13908,"fulfillment":35,"acc_fulfillment":13908,"transfer_cost":0.0,"port_name":"Qingdao","position":{"lat":36.066898,"lng":120.382698},"status":"surplus"},{"frame_index":208,"name":"ports_13","capacity":10000,"empty":255,"full":0,"on_shipper":5,"on_consignee":397,"shortage":0,"acc_shortage":55,"booking":5,"acc_booking":1828,"fulfillment":5,"acc_fulfillment":1773,"transfer_cost":110.0,"port_name":"San Antonio","position":{"lat":29.424349,"lng":-98.491142},"status":"surplus"},{"frame_index":208,"name":"ports_14","capacity":10000,"empty":0,"full":224,"on_shipper":0,"on_consignee":0,"shortage":5,"acc_shortage":671,"booking":5,"acc_booking":1847,"fulfillment":0,"acc_fulfillment":1176,"transfer_cost":0.0,"port_name":"Santos","position":{"lat":-23.96083,"lng":-46.33361},"status":"balance"},{"frame_index":208,"name":"ports_15","capacity":10000,"empty":2322,"full":511,"on_shipper":36,"on_consignee":0,"shortage":0,"acc_shortage":0,"booking":32,"acc_booking":12172,"fulfillment":32,"acc_fulfillment":12172,"transfer_cost":0.0,"port_name":"Seattle","position":{"lat":47.608013,"lng":-122.335167},"status":"surplus"},{"frame_index":208,"name":"ports_16","capacity":10000,"empty":1029,"full":1767,"on_shipper":81,"on_consignee":0,"shortage":0,"acc_shortage":0,"booking":48,"acc_booking":17316,"fulfillment":48,"acc_fulfillment":17316,"transfer_cost":0.0,"port_name":"Shanghai","position":{"lat":31.224361,"lng":121.46917},"status":"surplus"},{"frame_index":208,"name":"ports_17","capacity":10000,"empty":280,"full":576,"on_shipper":25,"on_consignee":0,"shortage":0,"acc_shortage":40,"booking":18,"acc_booking":7014,"fulfillment":18,"acc_fulfillment":6974,"transfer_cost":0.0,"port_name":"Singapore","position":{"lat":1.29027,"lng":103.851959},"status":"surplus"},{"frame_index":208,"name":"ports_18","capacity":10000,"empty":109,"full":158,"on_shipper":13,"on_consignee":0,"shortage":0,"acc_shortage":0,"booking":7,"acc_booking":2659,"fulfillment":7,"acc_fulfillment":2659,"transfer_cost":0.0,"port_name":"Sydney","position":{"lat":-33.865143,"lng":151.2099},"status":"surplus"},{"frame_index":208,"name":"ports_19","capacity":10000,"empty":951,"full":66,"on_shipper":17,"on_consignee":0,"shortage":0,"acc_shortage":0,"booking":9,"acc_booking":3560,"fulfillment":9,"acc_fulfillment":3560,"transfer_cost":0.0,"port_name":"Vancouver","position":{"lat":49.246292,"lng":-123.116226},"status":"surplus"},{"frame_index":208,"name":"ports_20","capacity":10000,"empty":1498,"full":711,"on_shipper":37,"on_consignee":0,"shortage":0,"acc_shortage":0,"booking":31,"acc_booking":11980,"fulfillment":31,"acc_fulfillment":11980,"transfer_cost":0.0,"port_name":"Yantian","position":{"lat":26.8533,"lng":119.8575},"status":"surplus"},{"frame_index":208,"name":"ports_21","capacity":10000,"empty":485,"full":1,"on_shipper":36,"on_consignee":341,"shortage":0,"acc_shortage":492,"booking":24,"acc_booking":11611,"fulfillment":24,"acc_fulfillment":11119,"transfer_cost":315.0,"port_name":"Yokohama","position":{"lat":35.443707,"lng":139.638031},"status":"surplus"}]