[{"frame_index":731,"name":"ports_0","capacity":10000,"empty":1813,"full":5161,"on_shipper":467,"on_consignee":0,"shortage":0,"acc_shortage":522,"booking":268,"acc_booking":93862,"fulfillment":268,"acc_fulfillment":93340,"transfer_cost":0.0,"port_name":"Bremerhaven","position":{"lat":53.549999,"lng":8.583333},"status":"surplus"},{"frame_index":731,"name":"ports_1","capacity":10000,"empty":136,"full":275,"on_shipper":30,"on_consignee":0,"shortage":0,"acc_shortage":0,"booking":15,"acc_booking":6238,"fulfillment":15,"acc_fulfillment":6238,"transfer_cost":0.0,"port_name":"Durban","position":{"lat":-29.8579,"lng":31.0292},"status":"surplus"},{"frame_index":731,"name":"ports_2","capacity":10000,"empty":551,"full":0,"on_shipper":25,"on_consignee":121,"shortage":0,"acc_shortage":298,"booking":17,"acc_booking":6217,"fulfillment":17,"acc_fulfillment":5919,"transfer_cost":13.0,"port_name":"Itagual","position":{"lat":-22.85222,"lng":-43.77528},"status":"surplus"},{"frame_index":731,"name":"ports_3","capacity":10000,"empty":1987,"full":1595,"on_shipper":145,"on_consignee":0,"shortage":0,"acc_shortage":0,"booking":100,"acc_booking":35538,"fulfillment":100,"acc_fulfillment":35538,"transfer_cost":0.0,"port_name":"LeHavre","position":{"lat":49.490002,"lng":0.1},"status":"surplus"},{"frame_index":731,"name":"ports_4","capacity":10000,"empty":342,"full":756,"on_shipper":139,"on_consignee":0,"shortage":0,"acc_shortage":290,"booking":84,"acc_booking":29742,"fulfillment":84,"acc_fulfillment":29452,"transfer_cost":0.0,"port_name":"Los Angeles","position":{"lat":34.052235,"lng":-118.243683},"status":"demand"},{"frame_index":731,"name":"ports_5","capacity":10000,"empty":1296,"full":539,"on_shipper":143,"on_consignee":0,"shortage":0,"acc_shortage":123,"booking":79,"acc_booking":29844,"fulfillment":79,"acc_fulfillment":29721,"transfer_cost":0.0,"port_name":"Manzanillo","position":{"lat":19.11695,"lng":-104.34214},"status":"surplus"},{"frame_index":731,"name":"ports_6","capacity":10000,"empty":34,"full":573,"on_shipper":42,"on_consignee":0,"shortage":0,"acc_shortage":1336,"booking":25,"acc_booking":9155,"fulfillment":25,"acc_fulfillment":7819,"transfer_cost":0.0,"port_name":"Melbourne","position":{"lat":-37.840935,"lng":144.946457},"status":"demand"},{"frame_index":731,"name":"ports_7","capacity":10000,"empty":587,"full":127,"on_shipper":50,"on_consignee":0,"shortage":0,"acc_shortage":0,"booking":26,"acc_booking":9163,"fulfillment":26,"acc_fulfillment":9163,"transfer_cost":0.0,"port_name":"Montreal","position":{"lat":45.516136,"lng":-73.65683},"status":"surplus"},{"frame_index":731,"name":"ports_8","capacity":10000,"empty":780,"full":20,"on_shipper":80,"on_consignee":200,"shortage":0,"acc_shortage":0,"booking":48,"acc_booking":17902,"fulfillment":48,"acc_fulfillment":17902,"transfer_cost":0.0,"port_name":"New York","position":{"lat":40.73061,"lng":-73.935242},"status":"surplus"},{"frame_index":731,"name":"ports_9","capacity":10000,"empty":765,"full":575,"on_shipper":57,"on_consignee":0,"shortage":0,"acc_shortage":45,"booking":43,"acc_booking":17944,"fulfillment":43,"acc_fulfillment":17899,"transfer_cost":0.0,"port_name":"Oakland","position":{"lat":37.804363,"lng":-122.271111},"status":"surplus"},{"frame_index":731,"name":"ports_10","capacity":10000,"empty":1245,"full":562,"on_shipper":38,"on_consignee":0,"shortage":0,"acc_shortage":314,"booking":26,"acc_booking":9166,"fulfillment":26,"acc_fulfillment":8852,"transfer_cost":0.0,"port_name":"Prince Rupert","position":{"lat":54.312519,"lng":-130.305405},"status":"surplus"},{"frame_index":731,"name":"ports_11","capacity":10000,"empty":1351,"full":3405,"on_shipper":140,"on_consignee":0,"shortage":0,"acc_shortage":204,"booking":103,"acc_booking":35485,"fulfillment":103,"acc_fulfillment":35281,"transfer_cost":0.0,"port_name":"Pusan","position":{"lat":35.166668,"lng":129.066666},"status":"surplus"},{"frame_index":731,"name":"ports_12","capacity":10000,"empty":2757,"full":1038,"on_shipper":213,"on_consignee":0,"shortage":0,"acc_shortage":0,"booking":133,"acc_booking":47403,"fulfillment":133,"acc_fulfillment":47403,"transfer_cost":0.0,"port_name":"Qingdao","position":{"lat":36.066898,"lng":120.382698},"status":"surplus"},{"frame_index":731,"name":"ports_13","capacity":10000,"empty":296,"full":303,"on_shipper":18,"on_consignee":0,"shortage":0,"acc_shortage":325,"booking":18,"acc_booking":6228,"fulfillment":18,"acc_fulfillment":5903,"transfer_cost":0.0,"port_name":"San Antonio","position":{"lat":29.424349,"lng":-98.491142},"status":"surplus"},{"frame_index":731,"name":"ports_14","capacity":10000,"empty":543,"full":336,"on_shipper":29,"on_consignee":0,"shortage":0,"acc_shortage":762,"booking":20,"acc_booking":6262,"fulfillment":20,"acc_fulfillment":5500,"transfer_cost":0.0,"port_name":"Santos","position":{"lat":-23.96083,"lng":-46.33361},"status":"surplus"},{"frame_index":731,"name":"ports_15","capacity":10000,"empty":1947,"full":1905,"on_shipper":187,"on_consignee":0,"shortage":0,"acc_shortage":0,"booking":117,"acc_booking":41425,"fulfillment":117,"acc_fulfillment":41425,"transfer_cost":0.0,"port_name":"Seattle","position":{"lat":47.608013,"lng":-122.335167},"status":"surplus"},{"frame_index":731,"name":"ports_16","capacity":10000,"empty":329,"full":3011,"on_shipper":253,"on_consignee":0,"shortage":0,"acc_shortage":712,"booking":184,"acc_booking":59065,"fulfillment":184,"acc_fulfillment":58353,"transfer_cost":0.0,"port_name":"Shanghai","position":{"lat":31.224361,"lng":121.46917},"status":"demand"},{"frame_index":731,"name":"ports_17","capacity":10000,"empty":2620,"full":759,"on_shipper":101,"on_consignee":0,"shortage":0,"acc_shortage":283,"booking":70,"acc_booking":23882,"fulfillment":70,"acc_fulfillment":23599,"transfer_cost":0.0,"port_name":"Singapore","position":{"lat":1.29027,"lng":103.851959},"status":"surplus"},{"frame_index":731,"name":"ports_18","capacity":10000,"empty":0,"full":257,"on_shipper":0,"on_consignee":0,"shortage":29,"acc_shortage":1111,"booking":29,"acc_booking":9156,"fulfillment":0,"acc_fulfillment":8045,"transfer_cost":0.0,"port_name":"Sydney","position":{"lat":-33.865143,"lng":151.2099},"status":"demand"},{"frame_index":731,"name":"ports_19","capacity":10000,"empty":843,"full":502,"on_shipper":48,"on_consignee":0,"shortage":0,"acc_shortage":0,"booking":33,"acc_booking":12144,"fulfillment":33,"acc_fulfillment":12144,"transfer_cost":0.0,"port_name":"Vancouver","position":{"lat":49.246292,"lng":-123.116226},"status":"surplus"},{"frame_index":731,"name":"ports_20","capacity":10000,"empty":1355,"full":1423,"on_shipper":195,"on_consignee":30,"shortage":0,"acc_shortage":942,"booking":105,"acc_booking":41188,"fulfillment":105,"acc_fulfillment":40246,"transfer_cost":0.0,"port_name":"Yantian","position":{"lat":26.8533,"lng":119.8575},"status":"surplus"},{"frame_index":731,"name":"ports_21","capacity":10000,"empty":0,"full":746,"on_shipper":0,"on_consignee":0,"shortage":125,"acc_shortage":4622,"booking":125,"acc_booking":39266,"fulfillment":0,"acc_fulfillment":34644,"transfer_cost":0.0,"port_name":"Yokohama","position":{"lat":35.443707,"lng":139.638031},"status":"demand"}]