[{"frame_index":1090,"name":"ports_0","capacity":10000,"empty":0,"full":4034,"on_shipper":0,"on_consignee":0,"shortage":136,"acc_shortage":1423,"booking":136,"acc_booking":141408,"fulfillment":0,"acc_fulfillment":139985,"transfer_cost":0.0,"port_name":"Bremerhaven","position":{"lat":53.549999,"lng":8.583333},"status":"demand"},{"frame_index":1090,"name":"ports_1","capacity":10000,"empty":135,"full":477,"on_shipper":12,"on_consignee":0,"shortage":0,"acc_shortage":113,"booking":9,"acc_booking":9396,"fulfillment":9,"acc_fulfillment":9283,"transfer_cost":0.0,"port_name":"Durban","position":{"lat":-29.8579,"lng":31.0292},"status":"surplus"},{"frame_index":1090,"name":"ports_2","capacity":10000,"empty":797,"full":314,"on_shipper":9,"on_consignee":0,"shortage":0,"acc_shortage":298,"booking":9,"acc_booking":9360,"fulfillment":9,"acc_fulfillment":9062,"transfer_cost":0.0,"port_name":"Itagual","position":{"lat":-22.85222,"lng":-43.77528},"status":"surplus"},{"frame_index":1090,"name":"ports_3","capacity":10000,"empty":3666,"full":2168,"on_shipper":67,"on_consignee":0,"shortage":0,"acc_shortage":0,"booking":56,"acc_booking":53477,"fulfillment":56,"acc_fulfillment":53477,"transfer_cost":0.0,"port_name":"LeHavre","position":{"lat":49.490002,"lng":0.1},"status":"surplus"},{"frame_index":1090,"name":"ports_4","capacity":10000,"empty":1805,"full":84,"on_shipper":60,"on_consignee":96,"shortage":0,"acc_shortage":290,"booking":46,"acc_booking":44788,"fulfillment":46,"acc_fulfillment":44498,"transfer_cost":0.0,"port_name":"Los Angeles","position":{"lat":34.052235,"lng":-118.243683},"status":"surplus"},{"frame_index":1090,"name":"ports_5","capacity":10000,"empty":912,"full":762,"on_shipper":50,"on_consignee":0,"shortage":0,"acc_shortage":194,"booking":39,"acc_booking":44862,"fulfillment":39,"acc_fulfillment":44668,"transfer_cost":0.0,"port_name":"Manzanillo","position":{"lat":19.11695,"lng":-104.34214},"status":"surplus"},{"frame_index":1090,"name":"ports_6","capacity":10000,"empty":0,"full":608,"on_shipper":0,"on_consignee":0,"shortage":14,"acc_shortage":2261,"booking":14,"acc_booking":13789,"fulfillment":0,"acc_fulfillment":11528,"transfer_cost":0.0,"port_name":"Melbourne","position":{"lat":-37.840935,"lng":144.946457},"status":"demand"},{"frame_index":1090,"name":"ports_7","capacity":10000,"empty":1448,"full":30,"on_shipper":21,"on_consignee":0,"shortage":0,"acc_shortage":0,"booking":14,"acc_booking":13789,"fulfillment":14,"acc_fulfillment":13789,"transfer_cost":0.0,"port_name":"Montreal","position":{"lat":45.516136,"lng":-73.65683},"status":"surplus"},{"frame_index":1090,"name":"ports_8","capacity":10000,"empty":4293,"full":54,"on_shipper":58,"on_consignee":0,"shortage":0,"acc_shortage":136,"booking":28,"acc_booking":26967,"fulfillment":28,"acc_fulfillment":26831,"transfer_cost":0.0,"port_name":"New York","position":{"lat":40.73061,"lng":-73.935242},"status":"surplus"},{"frame_index":1090,"name":"ports_9","capacity":10000,"empty":1063,"full":1132,"on_shipper":43,"on_consignee":0,"shortage":0,"acc_shortage":45,"booking":24,"acc_booking":27011,"fulfillment":24,"acc_fulfillment":26966,"transfer_cost":0.0,"port_name":"Oakland","position":{"lat":37.804363,"lng":-122.271111},"status":"surplus"},{"frame_index":1090,"name":"ports_10","capacity":10000,"empty":1350,"full":324,"on_shipper":25,"on_consignee":0,"shortage":0,"acc_shortage":314,"booking":15,"acc_booking":13778,"fulfillment":15,"acc_fulfillment":13464,"transfer_cost":0.0,"port_name":"Prince Rupert","position":{"lat":54.312519,"lng":-130.305405},"status":"surplus"},{"frame_index":1090,"name":"ports_11","capacity":10000,"empty":1825,"full":1752,"on_shipper":93,"on_consignee":0,"shortage":0,"acc_shortage":204,"booking":55,"acc_booking":53455,"fulfillment":55,"acc_fulfillment":53251,"transfer_cost":0.0,"port_name":"Pusan","position":{"lat":35.166668,"lng":129.066666},"status":"surplus"},{"frame_index":1090,"name":"ports_12","capacity":10000,"empty":2694,"full":1657,"on_shipper":106,"on_consignee":0,"shortage":0,"acc_shortage":0,"booking":80,"acc_booking":71362,"fulfillment":80,"acc_fulfillment":71362,"transfer_cost":0.0,"port_name":"Qingdao","position":{"lat":36.066898,"lng":120.382698},"status":"surplus"},{"frame_index":1090,"name":"ports_13","capacity":10000,"empty":252,"full":286,"on_shipper":17,"on_consignee":0,"shortage":0,"acc_shortage":459,"booking":9,"acc_booking":9358,"fulfillment":9,"acc_fulfillment":8899,"transfer_cost":0.0,"port_name":"San Antonio","position":{"lat":29.424349,"lng":-98.491142},"status":"surplus"},{"frame_index":1090,"name":"ports_14","capacity":10000,"empty":0,"full":378,"on_shipper":0,"on_consignee":0,"shortage":9,"acc_shortage":1254,"booking":9,"acc_booking":9416,"fulfillment":0,"acc_fulfillment":8162,"transfer_cost":0.0,"port_name":"Santos","position":{"lat":-23.96083,"lng":-46.33361},"status":"balance"},{"frame_index":1090,"name":"ports_15","capacity":10000,"empty":0,"full":3264,"on_shipper":59,"on_consignee":0,"shortage":12,"acc_shortage":1501,"booking":63,"acc_booking":62367,"fulfillment":51,"acc_fulfillment":60866,"transfer_cost":0.0,"port_name":"Seattle","position":{"lat":47.608013,"lng":-122.335167},"status":"demand"},{"frame_index":1090,"name":"ports_16","capacity":10000,"empty":2021,"full":2367,"on_shipper":138,"on_consignee":0,"shortage":0,"acc_shortage":817,"booking":97,"acc_booking":88931,"fulfillment":97,"acc_fulfillment":88114,"transfer_cost":0.0,"port_name":"Shanghai","position":{"lat":31.224361,"lng":121.46917},"status":"surplus"},{"frame_index":1090,"name":"ports_17","capacity":10000,"empty":935,"full":945,"on_shipper":63,"on_consignee":204,"shortage":0,"acc_shortage":619,"booking":37,"acc_booking":35911,"fulfillment":37,"acc_fulfillment":35292,"transfer_cost":0.0,"port_name":"Singapore","position":{"lat":1.29027,"lng":103.851959},"status":"surplus"},{"frame_index":1090,"name":"ports_18","capacity":10000,"empty":277,"full":195,"on_shipper":16,"on_consignee":0,"shortage":0,"acc_shortage":1374,"booking":13,"acc_booking":13772,"fulfillment":13,"acc_fulfillment":12398,"transfer_cost":0.0,"port_name":"Sydney","position":{"lat":-33.865143,"lng":151.2099},"status":"surplus"},{"frame_index":1090,"name":"ports_19","capacity":10000,"empty":653,"full":814,"on_shipper":29,"on_consignee":0,"shortage":0,"acc_shortage":0,"booking":17,"acc_booking":18257,"fulfillment":17,"acc_fulfillment":18257,"transfer_cost":0.0,"port_name":"Vancouver","position":{"lat":49.246292,"lng":-123.116226},"status":"surplus"},{"frame_index":1090,"name":"ports_20","capacity":10000,"empty":563,"full":1414,"on_shipper":85,"on_consignee":0,"shortage":0,"acc_shortage":2447,"booking":60,"acc_booking":62151,"fulfillment":60,"acc_fulfillment":59704,"transfer_cost":0.0,"port_name":"Yantian","position":{"lat":26.8533,"lng":119.8575},"status":"surplus"},{"frame_index":1090,"name":"ports_21","capacity":10000,"empty":1283,"full":668,"on_shipper":101,"on_consignee":0,"shortage":0,"acc_shortage":10285,"booking":62,"acc_booking":59229,"fulfillment":62,"acc_fulfillment":48944,"transfer_cost":0.0,"port_name":"Yokohama","position":{"lat":35.443707,"lng":139.638031},"status":"surplus"}]