[{"frame_index":1037,"name":"ports_0","capacity":10000,"empty":7696,"full":1076,"on_shipper":204,"on_consignee":0,"shortage":0,"acc_shortage":861,"booking":193,"acc_booking":131860,"fulfillment":193,"acc_fulfillment":130999,"transfer_cost":0.0,"port_name":"Bremerhaven","position":{"lat":53.549999,"lng":8.583333},"status":"surplus"},{"frame_index":1037,"name":"ports_1","capacity":10000,"empty":506,"full":91,"on_shipper":17,"on_consignee":0,"shortage":0,"acc_shortage":113,"booking":11,"acc_booking":8767,"fulfillment":11,"acc_fulfillment":8654,"transfer_cost":0.0,"port_name":"Durban","position":{"lat":-29.8579,"lng":31.0292},"status":"surplus"},{"frame_index":1037,"name":"ports_2","capacity":10000,"empty":177,"full":447,"on_shipper":12,"on_consignee":0,"shortage":0,"acc_shortage":298,"booking":10,"acc_booking":8735,"fulfillment":10,"acc_fulfillment":8437,"transfer_cost":0.0,"port_name":"Itagual","position":{"lat":-22.85222,"lng":-43.77528},"status":"surplus"},{"frame_index":1037,"name":"ports_3","capacity":10000,"empty":6052,"full":685,"on_shipper":88,"on_consignee":0,"shortage":0,"acc_shortage":0,"booking":64,"acc_booking":49895,"fulfillment":64,"acc_fulfillment":49895,"transfer_cost":0.0,"port_name":"LeHavre","position":{"lat":49.490002,"lng":0.1},"status":"surplus"},{"frame_index":1037,"name":"ports_4","capacity":10000,"empty":2416,"full":542,"on_shipper":71,"on_consignee":0,"shortage":0,"acc_shortage":290,"booking":53,"acc_booking":41783,"fulfillment":53,"acc_fulfillment":41493,"transfer_cost":0.0,"port_name":"Los Angeles","position":{"lat":34.052235,"lng":-118.243683},"status":"surplus"},{"frame_index":1037,"name":"ports_5","capacity":10000,"empty":1768,"full":346,"on_shipper":69,"on_consignee":0,"shortage":0,"acc_shortage":194,"booking":55,"acc_booking":41791,"fulfillment":55,"acc_fulfillment":41597,"transfer_cost":0.0,"port_name":"Manzanillo","position":{"lat":19.11695,"lng":-104.34214},"status":"surplus"},{"frame_index":1037,"name":"ports_6","capacity":10000,"empty":238,"full":230,"on_shipper":22,"on_consignee":0,"shortage":0,"acc_shortage":2108,"booking":16,"acc_booking":12868,"fulfillment":16,"acc_fulfillment":10760,"transfer_cost":0.0,"port_name":"Melbourne","position":{"lat":-37.840935,"lng":144.946457},"status":"surplus"},{"frame_index":1037,"name":"ports_7","capacity":10000,"empty":1607,"full":115,"on_shipper":16,"on_consignee":0,"shortage":0,"acc_shortage":0,"booking":16,"acc_booking":12874,"fulfillment":16,"acc_fulfillment":12874,"transfer_cost":0.0,"port_name":"Montreal","position":{"lat":45.516136,"lng":-73.65683},"status":"surplus"},{"frame_index":1037,"name":"ports_8","capacity":10000,"empty":5180,"full":188,"on_shipper":61,"on_consignee":0,"shortage":0,"acc_shortage":136,"booking":30,"acc_booking":25155,"fulfillment":30,"acc_fulfillment":25019,"transfer_cost":0.0,"port_name":"New York","position":{"lat":40.73061,"lng":-73.935242},"status":"surplus"},{"frame_index":1037,"name":"ports_9","capacity":10000,"empty":1531,"full":258,"on_shipper":57,"on_consignee":0,"shortage":0,"acc_shortage":45,"booking":33,"acc_booking":25191,"fulfillment":33,"acc_fulfillment":25146,"transfer_cost":0.0,"port_name":"Oakland","position":{"lat":37.804363,"lng":-122.271111},"status":"surplus"},{"frame_index":1037,"name":"ports_10","capacity":10000,"empty":1444,"full":157,"on_shipper":22,"on_consignee":0,"shortage":0,"acc_shortage":314,"booking":14,"acc_booking":12881,"fulfillment":14,"acc_fulfillment":12567,"transfer_cost":0.0,"port_name":"Prince Rupert","position":{"lat":54.312519,"lng":-130.305405},"status":"surplus"},{"frame_index":1037,"name":"ports_11","capacity":10000,"empty":2400,"full":1264,"on_shipper":73,"on_consignee":349,"shortage":0,"acc_shortage":204,"booking":63,"acc_booking":49843,"fulfillment":63,"acc_fulfillment":49639,"transfer_cost":0.0,"port_name":"Pusan","position":{"lat":35.166668,"lng":129.066666},"status":"surplus"},{"frame_index":1037,"name":"ports_12","capacity":10000,"empty":4880,"full":1876,"on_shipper":142,"on_consignee":0,"shortage":0,"acc_shortage":0,"booking":79,"acc_booking":66657,"fulfillment":79,"acc_fulfillment":66657,"transfer_cost":0.0,"port_name":"Qingdao","position":{"lat":36.066898,"lng":120.382698},"status":"surplus"},{"frame_index":1037,"name":"ports_13","capacity":10000,"empty":194,"full":153,"on_shipper":17,"on_consignee":0,"shortage":0,"acc_shortage":459,"booking":12,"acc_booking":8738,"fulfillment":12,"acc_fulfillment":8279,"transfer_cost":0.0,"port_name":"San Antonio","position":{"lat":29.424349,"lng":-98.491142},"status":"surplus"},{"frame_index":1037,"name":"ports_14","capacity":10000,"empty":250,"full":109,"on_shipper":19,"on_consignee":0,"shortage":0,"acc_shortage":877,"booking":10,"acc_booking":8789,"fulfillment":10,"acc_fulfillment":7912,"transfer_cost":0.0,"port_name":"Santos","position":{"lat":-23.96083,"lng":-46.33361},"status":"surplus"},{"frame_index":1037,"name":"ports_15","capacity":10000,"empty":3337,"full":442,"on_shipper":132,"on_consignee":0,"shortage":0,"acc_shortage":1489,"booking":77,"acc_booking":58181,"fulfillment":77,"acc_fulfillment":56692,"transfer_cost":0.0,"port_name":"Seattle","position":{"lat":47.608013,"lng":-122.335167},"status":"surplus"},{"frame_index":1037,"name":"ports_16","capacity":10000,"empty":2995,"full":1569,"on_shipper":149,"on_consignee":0,"shortage":0,"acc_shortage":817,"booking":109,"acc_booking":83015,"fulfillment":109,"acc_fulfillment":82198,"transfer_cost":0.0,"port_name":"Shanghai","position":{"lat":31.224361,"lng":121.46917},"status":"surplus"},{"frame_index":1037,"name":"ports_17","capacity":10000,"empty":739,"full":489,"on_shipper":69,"on_consignee":135,"shortage":0,"acc_shortage":619,"booking":44,"acc_booking":33508,"fulfillment":44,"acc_fulfillment":32889,"transfer_cost":0.0,"port_name":"Singapore","position":{"lat":1.29027,"lng":103.851959},"status":"surplus"},{"frame_index":1037,"name":"ports_18","capacity":10000,"empty":831,"full":125,"on_shipper":28,"on_consignee":0,"shortage":0,"acc_shortage":1374,"booking":16,"acc_booking":12878,"fulfillment":16,"acc_fulfillment":11504,"transfer_cost":0.0,"port_name":"Sydney","position":{"lat":-33.865143,"lng":151.2099},"status":"surplus"},{"frame_index":1037,"name":"ports_19","capacity":10000,"empty":1520,"full":164,"on_shipper":31,"on_consignee":0,"shortage":0,"acc_shortage":0,"booking":23,"acc_booking":17039,"fulfillment":23,"acc_fulfillment":17039,"transfer_cost":0.0,"port_name":"Vancouver","position":{"lat":49.246292,"lng":-123.116226},"status":"surplus"},{"frame_index":1037,"name":"ports_20","capacity":10000,"empty":590,"full":1090,"on_shipper":106,"on_consignee":0,"shortage":0,"acc_shortage":1425,"booking":71,"acc_booking":57888,"fulfillment":71,"acc_fulfillment":56463,"transfer_cost":0.0,"port_name":"Yantian","position":{"lat":26.8533,"lng":119.8575},"status":"surplus"},{"frame_index":1037,"name":"ports_21","capacity":10000,"empty":386,"full":600,"on_shipper":109,"on_consignee":0,"shortage":0,"acc_shortage":7747,"booking":74,"acc_booking":55016,"fulfillment":74,"acc_fulfillment":47269,"transfer_cost":0.0,"port_name":"Yokohama","position":{"lat":35.443707,"lng":139.638031},"status":"balance"}]