[{"frame_index":941,"name":"ports_0","capacity":10000,"empty":3474,"full":2569,"on_shipper":465,"on_consignee":0,"shortage":0,"acc_shortage":522,"booking":245,"acc_booking":120294,"fulfillment":245,"acc_fulfillment":119772,"transfer_cost":0.0,"port_name":"Bremerhaven","position":{"lat":53.549999,"lng":8.583333},"status":"surplus"},{"frame_index":941,"name":"ports_1","capacity":10000,"empty":423,"full":177,"on_shipper":20,"on_consignee":0,"shortage":0,"acc_shortage":113,"booking":13,"acc_booking":7996,"fulfillment":13,"acc_fulfillment":7883,"transfer_cost":0.0,"port_name":"Durban","position":{"lat":-29.8579,"lng":31.0292},"status":"surplus"},{"frame_index":941,"name":"ports_2","capacity":10000,"empty":672,"full":142,"on_shipper":23,"on_consignee":0,"shortage":0,"acc_shortage":298,"booking":15,"acc_booking":7956,"fulfillment":15,"acc_fulfillment":7658,"transfer_cost":0.0,"port_name":"Itagual","position":{"lat":-22.85222,"lng":-43.77528},"status":"surplus"},{"frame_index":941,"name":"ports_3","capacity":10000,"empty":992,"full":2207,"on_shipper":106,"on_consignee":422,"shortage":0,"acc_shortage":0,"booking":87,"acc_booking":45515,"fulfillment":87,"acc_fulfillment":45515,"transfer_cost":50.0,"port_name":"LeHavre","position":{"lat":49.490002,"lng":0.1},"status":"surplus"},{"frame_index":941,"name":"ports_4","capacity":10000,"empty":2579,"full":897,"on_shipper":135,"on_consignee":0,"shortage":0,"acc_shortage":290,"booking":71,"acc_booking":38124,"fulfillment":71,"acc_fulfillment":37834,"transfer_cost":0.0,"port_name":"Los Angeles","position":{"lat":34.052235,"lng":-118.243683},"status":"surplus"},{"frame_index":941,"name":"ports_5","capacity":10000,"empty":1126,"full":364,"on_shipper":126,"on_consignee":0,"shortage":0,"acc_shortage":163,"booking":81,"acc_booking":38206,"fulfillment":81,"acc_fulfillment":38043,"transfer_cost":0.0,"port_name":"Manzanillo","position":{"lat":19.11695,"lng":-104.34214},"status":"surplus"},{"frame_index":941,"name":"ports_6","capacity":10000,"empty":324,"full":287,"on_shipper":29,"on_consignee":0,"shortage":0,"acc_shortage":1855,"booking":22,"acc_booking":11734,"fulfillment":22,"acc_fulfillment":9879,"transfer_cost":0.0,"port_name":"Melbourne","position":{"lat":-37.840935,"lng":144.946457},"status":"surplus"},{"frame_index":941,"name":"ports_7","capacity":10000,"empty":1131,"full":433,"on_shipper":36,"on_consignee":0,"shortage":0,"acc_shortage":0,"booking":22,"acc_booking":11745,"fulfillment":22,"acc_fulfillment":11745,"transfer_cost":0.0,"port_name":"Montreal","position":{"lat":45.516136,"lng":-73.65683},"status":"surplus"},{"frame_index":941,"name":"ports_8","capacity":10000,"empty":1569,"full":134,"on_shipper":66,"on_consignee":0,"shortage":0,"acc_shortage":136,"booking":45,"acc_booking":22942,"fulfillment":45,"acc_fulfillment":22806,"transfer_cost":0.0,"port_name":"New York","position":{"lat":40.73061,"lng":-73.935242},"status":"surplus"},{"frame_index":941,"name":"ports_9","capacity":10000,"empty":1506,"full":312,"on_shipper":57,"on_consignee":0,"shortage":0,"acc_shortage":45,"booking":41,"acc_booking":22973,"fulfillment":41,"acc_fulfillment":22928,"transfer_cost":0.0,"port_name":"Oakland","position":{"lat":37.804363,"lng":-122.271111},"status":"surplus"},{"frame_index":941,"name":"ports_10","capacity":10000,"empty":1615,"full":186,"on_shipper":38,"on_consignee":0,"shortage":0,"acc_shortage":314,"booking":22,"acc_booking":11770,"fulfillment":22,"acc_fulfillment":11456,"transfer_cost":0.0,"port_name":"Prince Rupert","position":{"lat":54.312519,"lng":-130.305405},"status":"surplus"},{"frame_index":941,"name":"ports_11","capacity":10000,"empty":2833,"full":494,"on_shipper":144,"on_consignee":100,"shortage":0,"acc_shortage":204,"booking":83,"acc_booking":45456,"fulfillment":83,"acc_fulfillment":45252,"transfer_cost":67.0,"port_name":"Pusan","position":{"lat":35.166668,"lng":129.066666},"status":"surplus"},{"frame_index":941,"name":"ports_12","capacity":10000,"empty":4945,"full":1047,"on_shipper":159,"on_consignee":0,"shortage":0,"acc_shortage":0,"booking":111,"acc_booking":60735,"fulfillment":111,"acc_fulfillment":60735,"transfer_cost":0.0,"port_name":"Qingdao","position":{"lat":36.066898,"lng":120.382698},"status":"surplus"},{"frame_index":941,"name":"ports_13","capacity":10000,"empty":308,"full":83,"on_shipper":22,"on_consignee":0,"shortage":0,"acc_shortage":449,"booking":13,"acc_booking":7964,"fulfillment":13,"acc_fulfillment":7515,"transfer_cost":0.0,"port_name":"San Antonio","position":{"lat":29.424349,"lng":-98.491142},"status":"surplus"},{"frame_index":941,"name":"ports_14","capacity":10000,"empty":0,"full":320,"on_shipper":16,"on_consignee":0,"shortage":11,"acc_shortage":830,"booking":14,"acc_booking":8022,"fulfillment":3,"acc_fulfillment":7192,"transfer_cost":0.0,"port_name":"Santos","position":{"lat":-23.96083,"lng":-46.33361},"status":"demand"},{"frame_index":941,"name":"ports_15","capacity":10000,"empty":111,"full":2098,"on_shipper":167,"on_consignee":0,"shortage":0,"acc_shortage":0,"booking":99,"acc_booking":53091,"fulfillment":99,"acc_fulfillment":53091,"transfer_cost":0.0,"port_name":"Seattle","position":{"lat":47.608013,"lng":-122.335167},"status":"demand"},{"frame_index":941,"name":"ports_16","capacity":10000,"empty":1451,"full":989,"on_shipper":233,"on_consignee":1473,"shortage":0,"acc_shortage":817,"booking":144,"acc_booking":75625,"fulfillment":144,"acc_fulfillment":74808,"transfer_cost":0.0,"port_name":"Shanghai","position":{"lat":31.224361,"lng":121.46917},"status":"surplus"},{"frame_index":941,"name":"ports_17","capacity":10000,"empty":926,"full":735,"on_shipper":76,"on_consignee":0,"shortage":0,"acc_shortage":283,"booking":57,"acc_booking":30567,"fulfillment":57,"acc_fulfillment":30284,"transfer_cost":0.0,"port_name":"Singapore","position":{"lat":1.29027,"lng":103.851959},"status":"surplus"},{"frame_index":941,"name":"ports_18","capacity":10000,"empty":617,"full":541,"on_shipper":48,"on_consignee":0,"shortage":0,"acc_shortage":1374,"booking":20,"acc_booking":11753,"fulfillment":20,"acc_fulfillment":10379,"transfer_cost":0.0,"port_name":"Sydney","position":{"lat":-33.865143,"lng":151.2099},"status":"surplus"},{"frame_index":941,"name":"ports_19","capacity":10000,"empty":882,"full":745,"on_shipper":56,"on_consignee":0,"shortage":0,"acc_shortage":0,"booking":27,"acc_booking":15545,"fulfillment":27,"acc_fulfillment":15545,"transfer_cost":0.0,"port_name":"Vancouver","position":{"lat":49.246292,"lng":-123.116226},"status":"surplus"},{"frame_index":941,"name":"ports_20","capacity":10000,"empty":683,"full":2638,"on_shipper":155,"on_consignee":50,"shortage":0,"acc_shortage":1292,"booking":93,"acc_booking":52770,"fulfillment":93,"acc_fulfillment":51478,"transfer_cost":129.0,"port_name":"Yantian","position":{"lat":26.8533,"lng":119.8575},"status":"surplus"},{"frame_index":941,"name":"ports_21","capacity":10000,"empty":520,"full":1048,"on_shipper":144,"on_consignee":0,"shortage":0,"acc_shortage":7235,"booking":103,"acc_booking":50270,"fulfillment":103,"acc_fulfillment":43035,"transfer_cost":0.0,"port_name":"Yokohama","position":{"lat":35.443707,"lng":139.638031},"status":"balance"}]