[{"frame_index":475,"name":"ports_0","capacity":10000,"empty":4360,"full":576,"on_shipper":300,"on_consignee":0,"shortage":0,"acc_shortage":522,"booking":175,"acc_booking":58939,"fulfillment":175,"acc_fulfillment":58417,"transfer_cost":0.0,"port_name":"Bremerhaven","position":{"lat":53.549999,"lng":8.583333},"status":"surplus"},{"frame_index":475,"name":"ports_1","capacity":10000,"empty":196,"full":209,"on_shipper":14,"on_consignee":0,"shortage":0,"acc_shortage":0,"booking":10,"acc_booking":3955,"fulfillment":10,"acc_fulfillment":3955,"transfer_cost":0.0,"port_name":"Durban","position":{"lat":-29.8579,"lng":31.0292},"status":"surplus"},{"frame_index":475,"name":"ports_2","capacity":10000,"empty":911,"full":67,"on_shipper":15,"on_consignee":0,"shortage":0,"acc_shortage":233,"booking":11,"acc_booking":3930,"fulfillment":11,"acc_fulfillment":3697,"transfer_cost":0.0,"port_name":"Itagual","position":{"lat":-22.85222,"lng":-43.77528},"status":"surplus"},{"frame_index":475,"name":"ports_3","capacity":10000,"empty":1257,"full":58,"on_shipper":74,"on_consignee":367,"shortage":0,"acc_shortage":0,"booking":60,"acc_booking":22415,"fulfillment":60,"acc_fulfillment":22415,"transfer_cost":539.0,"port_name":"LeHavre","position":{"lat":49.490002,"lng":0.1},"status":"surplus"},{"frame_index":475,"name":"ports_4","capacity":10000,"empty":3314,"full":70,"on_shipper":73,"on_consignee":196,"shortage":0,"acc_shortage":0,"booking":48,"acc_booking":18732,"fulfillment":48,"acc_fulfillment":18732,"transfer_cost":0.0,"port_name":"Los Angeles","position":{"lat":34.052235,"lng":-118.243683},"status":"surplus"},{"frame_index":475,"name":"ports_5","capacity":10000,"empty":1614,"full":436,"on_shipper":67,"on_consignee":0,"shortage":0,"acc_shortage":123,"booking":48,"acc_booking":18813,"fulfillment":48,"acc_fulfillment":18690,"transfer_cost":0.0,"port_name":"Manzanillo","position":{"lat":19.11695,"lng":-104.34214},"status":"surplus"},{"frame_index":475,"name":"ports_6","capacity":10000,"empty":58,"full":440,"on_shipper":25,"on_consignee":0,"shortage":0,"acc_shortage":819,"booking":15,"acc_booking":5773,"fulfillment":15,"acc_fulfillment":4954,"transfer_cost":0.0,"port_name":"Melbourne","position":{"lat":-37.840935,"lng":144.946457},"status":"balance"},{"frame_index":475,"name":"ports_7","capacity":10000,"empty":1447,"full":384,"on_shipper":23,"on_consignee":0,"shortage":0,"acc_shortage":0,"booking":15,"acc_booking":5776,"fulfillment":15,"acc_fulfillment":5776,"transfer_cost":0.0,"port_name":"Montreal","position":{"lat":45.516136,"lng":-73.65683},"status":"surplus"},{"frame_index":475,"name":"ports_8","capacity":10000,"empty":3362,"full":340,"on_shipper":31,"on_consignee":0,"shortage":0,"acc_shortage":0,"booking":31,"acc_booking":11267,"fulfillment":31,"acc_fulfillment":11267,"transfer_cost":0.0,"port_name":"New York","position":{"lat":40.73061,"lng":-73.935242},"status":"surplus"},{"frame_index":475,"name":"ports_9","capacity":10000,"empty":2628,"full":160,"on_shipper":46,"on_consignee":0,"shortage":0,"acc_shortage":45,"booking":31,"acc_booking":11283,"fulfillment":31,"acc_fulfillment":11238,"transfer_cost":0.0,"port_name":"Oakland","position":{"lat":37.804363,"lng":-122.271111},"status":"surplus"},{"frame_index":475,"name":"ports_10","capacity":10000,"empty":263,"full":207,"on_shipper":22,"on_consignee":0,"shortage":0,"acc_shortage":0,"booking":15,"acc_booking":5774,"fulfillment":15,"acc_fulfillment":5774,"transfer_cost":0.0,"port_name":"Prince Rupert","position":{"lat":54.312519,"lng":-130.305405},"status":"surplus"},{"frame_index":475,"name":"ports_11","capacity":10000,"empty":2750,"full":110,"on_shipper":80,"on_consignee":508,"shortage":0,"acc_shortage":204,"booking":57,"acc_booking":22345,"fulfillment":57,"acc_fulfillment":22141,"transfer_cost":0.0,"port_name":"Pusan","position":{"lat":35.166668,"lng":129.066666},"status":"surplus"},{"frame_index":475,"name":"ports_12","capacity":10000,"empty":3632,"full":465,"on_shipper":117,"on_consignee":524,"shortage":0,"acc_shortage":0,"booking":74,"acc_booking":29873,"fulfillment":74,"acc_fulfillment":29873,"transfer_cost":957.0,"port_name":"Qingdao","position":{"lat":36.066898,"lng":120.382698},"status":"surplus"},{"frame_index":475,"name":"ports_13","capacity":10000,"empty":469,"full":137,"on_shipper":15,"on_consignee":0,"shortage":0,"acc_shortage":286,"booking":9,"acc_booking":3921,"fulfillment":9,"acc_fulfillment":3635,"transfer_cost":0.0,"port_name":"San Antonio","position":{"lat":29.424349,"lng":-98.491142},"status":"surplus"},{"frame_index":475,"name":"ports_14","capacity":10000,"empty":291,"full":123,"on_shipper":16,"on_consignee":0,"shortage":0,"acc_shortage":697,"booking":11,"acc_booking":3965,"fulfillment":11,"acc_fulfillment":3268,"transfer_cost":0.0,"port_name":"Santos","position":{"lat":-23.96083,"lng":-46.33361},"status":"surplus"},{"frame_index":475,"name":"ports_15","capacity":10000,"empty":4366,"full":497,"on_shipper":94,"on_consignee":0,"shortage":0,"acc_shortage":0,"booking":67,"acc_booking":26094,"fulfillment":67,"acc_fulfillment":26094,"transfer_cost":0.0,"port_name":"Seattle","position":{"lat":47.608013,"lng":-122.335167},"status":"surplus"},{"frame_index":475,"name":"ports_16","capacity":10000,"empty":1775,"full":619,"on_shipper":100,"on_consignee":33,"shortage":0,"acc_shortage":0,"booking":86,"acc_booking":37223,"fulfillment":86,"acc_fulfillment":37223,"transfer_cost":268.0,"port_name":"Shanghai","position":{"lat":31.224361,"lng":121.46917},"status":"surplus"},{"frame_index":475,"name":"ports_17","capacity":10000,"empty":1442,"full":404,"on_shipper":52,"on_consignee":0,"shortage":0,"acc_shortage":40,"booking":38,"acc_booking":15030,"fulfillment":38,"acc_fulfillment":14990,"transfer_cost":0.0,"port_name":"Singapore","position":{"lat":1.29027,"lng":103.851959},"status":"surplus"},{"frame_index":475,"name":"ports_18","capacity":10000,"empty":727,"full":74,"on_shipper":28,"on_consignee":0,"shortage":0,"acc_shortage":774,"booking":13,"acc_booking":5737,"fulfillment":13,"acc_fulfillment":4963,"transfer_cost":0.0,"port_name":"Sydney","position":{"lat":-33.865143,"lng":151.2099},"status":"surplus"},{"frame_index":475,"name":"ports_19","capacity":10000,"empty":790,"full":283,"on_shipper":36,"on_consignee":0,"shortage":0,"acc_shortage":0,"booking":21,"acc_booking":7673,"fulfillment":21,"acc_fulfillment":7673,"transfer_cost":0.0,"port_name":"Vancouver","position":{"lat":49.246292,"lng":-123.116226},"status":"surplus"},{"frame_index":475,"name":"ports_20","capacity":10000,"empty":1523,"full":472,"on_shipper":87,"on_consignee":401,"shortage":0,"acc_shortage":350,"booking":72,"acc_booking":25822,"fulfillment":72,"acc_fulfillment":25472,"transfer_cost":0.0,"port_name":"Yantian","position":{"lat":26.8533,"lng":119.8575},"status":"surplus"},{"frame_index":475,"name":"ports_21","capacity":10000,"empty":63,"full":100,"on_shipper":92,"on_consignee":1307,"shortage":0,"acc_shortage":2740,"booking":67,"acc_booking":24563,"fulfillment":67,"acc_fulfillment":21823,"transfer_cost":0.0,"port_name":"Yokohama","position":{"lat":35.443707,"lng":139.638031},"status":"demand"}]