[{"frame_index":485,"name":"ports_0","capacity":10000,"empty":2975,"full":2114,"on_shipper":147,"on_consignee":0,"shortage":0,"acc_shortage":522,"booking":107,"acc_booking":60324,"fulfillment":107,"acc_fulfillment":59802,"transfer_cost":0.0,"port_name":"Bremerhaven","position":{"lat":53.549999,"lng":8.583333},"status":"surplus"},{"frame_index":485,"name":"ports_1","capacity":10000,"empty":107,"full":304,"on_shipper":8,"on_consignee":0,"shortage":0,"acc_shortage":0,"booking":8,"acc_booking":4044,"fulfillment":8,"acc_fulfillment":4044,"transfer_cost":0.0,"port_name":"Durban","position":{"lat":-29.8579,"lng":31.0292},"status":"surplus"},{"frame_index":485,"name":"ports_2","capacity":10000,"empty":823,"full":158,"on_shipper":12,"on_consignee":0,"shortage":0,"acc_shortage":233,"booking":8,"acc_booking":4018,"fulfillment":8,"acc_fulfillment":3785,"transfer_cost":0.0,"port_name":"Itagual","position":{"lat":-22.85222,"lng":-43.77528},"status":"surplus"},{"frame_index":485,"name":"ports_3","capacity":10000,"empty":1556,"full":525,"on_shipper":52,"on_consignee":0,"shortage":0,"acc_shortage":0,"booking":43,"acc_booking":22932,"fulfillment":43,"acc_fulfillment":22932,"transfer_cost":0.0,"port_name":"LeHavre","position":{"lat":49.490002,"lng":0.1},"status":"surplus"},{"frame_index":485,"name":"ports_4","capacity":10000,"empty":3073,"full":530,"on_shipper":50,"on_consignee":0,"shortage":0,"acc_shortage":0,"booking":35,"acc_booking":19169,"fulfillment":35,"acc_fulfillment":19169,"transfer_cost":0.0,"port_name":"Los Angeles","position":{"lat":34.052235,"lng":-118.243683},"status":"surplus"},{"frame_index":485,"name":"ports_5","capacity":10000,"empty":2080,"full":0,"on_shipper":42,"on_consignee":546,"shortage":0,"acc_shortage":123,"booking":33,"acc_booking":19239,"fulfillment":33,"acc_fulfillment":19116,"transfer_cost":0.0,"port_name":"Manzanillo","position":{"lat":19.11695,"lng":-104.34214},"status":"surplus"},{"frame_index":485,"name":"ports_6","capacity":10000,"empty":278,"full":250,"on_shipper":12,"on_consignee":0,"shortage":0,"acc_shortage":837,"booking":11,"acc_booking":5907,"fulfillment":11,"acc_fulfillment":5070,"transfer_cost":0.0,"port_name":"Melbourne","position":{"lat":-37.840935,"lng":144.946457},"status":"surplus"},{"frame_index":485,"name":"ports_7","capacity":10000,"empty":2201,"full":5,"on_shipper":17,"on_consignee":27,"shortage":0,"acc_shortage":0,"booking":11,"acc_booking":5910,"fulfillment":11,"acc_fulfillment":5910,"transfer_cost":0.0,"port_name":"Montreal","position":{"lat":45.516136,"lng":-73.65683},"status":"surplus"},{"frame_index":485,"name":"ports_8","capacity":10000,"empty":2118,"full":223,"on_shipper":32,"on_consignee":0,"shortage":0,"acc_shortage":0,"booking":21,"acc_booking":11534,"fulfillment":21,"acc_fulfillment":11534,"transfer_cost":0.0,"port_name":"New York","position":{"lat":40.73061,"lng":-73.935242},"status":"surplus"},{"frame_index":485,"name":"ports_9","capacity":10000,"empty":2370,"full":439,"on_shipper":25,"on_consignee":0,"shortage":0,"acc_shortage":45,"booking":19,"acc_booking":11541,"fulfillment":19,"acc_fulfillment":11496,"transfer_cost":0.0,"port_name":"Oakland","position":{"lat":37.804363,"lng":-122.271111},"status":"surplus"},{"frame_index":485,"name":"ports_10","capacity":10000,"empty":121,"full":358,"on_shipper":13,"on_consignee":0,"shortage":0,"acc_shortage":0,"booking":12,"acc_booking":5916,"fulfillment":12,"acc_fulfillment":5916,"transfer_cost":0.0,"port_name":"Prince Rupert","position":{"lat":54.312519,"lng":-130.305405},"status":"surplus"},{"frame_index":485,"name":"ports_11","capacity":10000,"empty":3471,"full":434,"on_shipper":57,"on_consignee":0,"shortage":0,"acc_shortage":204,"booking":42,"acc_booking":22868,"fulfillment":42,"acc_fulfillment":22664,"transfer_cost":0.0,"port_name":"Pusan","position":{"lat":35.166668,"lng":129.066666},"status":"surplus"},{"frame_index":485,"name":"ports_12","capacity":10000,"empty":4247,"full":900,"on_shipper":70,"on_consignee":670,"shortage":0,"acc_shortage":0,"booking":59,"acc_booking":30567,"fulfillment":59,"acc_fulfillment":30567,"transfer_cost":0.0,"port_name":"Qingdao","position":{"lat":36.066898,"lng":120.382698},"status":"surplus"},{"frame_index":485,"name":"ports_13","capacity":10000,"empty":637,"full":24,"on_shipper":10,"on_consignee":0,"shortage":0,"acc_shortage":286,"booking":8,"acc_booking":4009,"fulfillment":8,"acc_fulfillment":3723,"transfer_cost":0.0,"port_name":"San Antonio","position":{"lat":29.424349,"lng":-98.491142},"status":"surplus"},{"frame_index":485,"name":"ports_14","capacity":10000,"empty":207,"full":214,"on_shipper":9,"on_consignee":0,"shortage":0,"acc_shortage":697,"booking":7,"acc_booking":4049,"fulfillment":7,"acc_fulfillment":3352,"transfer_cost":0.0,"port_name":"Santos","position":{"lat":-23.96083,"lng":-46.33361},"status":"surplus"},{"frame_index":485,"name":"ports_15","capacity":10000,"empty":4608,"full":144,"on_shipper":57,"on_consignee":0,"shortage":0,"acc_shortage":0,"booking":47,"acc_booking":26699,"fulfillment":47,"acc_fulfillment":26699,"transfer_cost":0.0,"port_name":"Seattle","position":{"lat":47.608013,"lng":-122.335167},"status":"surplus"},{"frame_index":485,"name":"ports_16","capacity":10000,"empty":1277,"full":1274,"on_shipper":96,"on_consignee":0,"shortage":0,"acc_shortage":0,"booking":71,"acc_booking":38085,"fulfillment":71,"acc_fulfillment":38085,"transfer_cost":0.0,"port_name":"Shanghai","position":{"lat":31.224361,"lng":121.46917},"status":"surplus"},{"frame_index":485,"name":"ports_17","capacity":10000,"empty":3161,"full":312,"on_shipper":36,"on_consignee":20,"shortage":0,"acc_shortage":40,"booking":28,"acc_booking":15380,"fulfillment":28,"acc_fulfillment":15340,"transfer_cost":0.0,"port_name":"Singapore","position":{"lat":1.29027,"lng":103.851959},"status":"surplus"},{"frame_index":485,"name":"ports_18","capacity":10000,"empty":588,"full":224,"on_shipper":17,"on_consignee":0,"shortage":0,"acc_shortage":774,"booking":12,"acc_booking":5876,"fulfillment":12,"acc_fulfillment":5102,"transfer_cost":0.0,"port_name":"Sydney","position":{"lat":-33.865143,"lng":151.2099},"status":"surplus"},{"frame_index":485,"name":"ports_19","capacity":10000,"empty":873,"full":241,"on_shipper":19,"on_consignee":0,"shortage":0,"acc_shortage":0,"booking":15,"acc_booking":7848,"fulfillment":15,"acc_fulfillment":7848,"transfer_cost":0.0,"port_name":"Vancouver","position":{"lat":49.246292,"lng":-123.116226},"status":"surplus"},{"frame_index":485,"name":"ports_20","capacity":10000,"empty":1863,"full":562,"on_shipper":61,"on_consignee":95,"shortage":0,"acc_shortage":350,"booking":48,"acc_booking":26458,"fulfillment":48,"acc_fulfillment":26108,"transfer_cost":0.0,"port_name":"Yantian","position":{"lat":26.8533,"lng":119.8575},"status":"surplus"},{"frame_index":485,"name":"ports_21","capacity":10000,"empty":1728,"full":530,"on_shipper":54,"on_consignee":0,"shortage":0,"acc_shortage":2740,"booking":44,"acc_booking":25155,"fulfillment":44,"acc_fulfillment":22415,"transfer_cost":0.0,"port_name":"Yokohama","position":{"lat":35.443707,"lng":139.638031},"status":"surplus"}]