[{"frame_index":155,"name":"ports_0","capacity":10000,"empty":5107,"full":2946,"on_shipper":302,"on_consignee":0,"shortage":0,"acc_shortage":0,"booking":233,"acc_booking":18728,"fulfillment":233,"acc_fulfillment":18728,"transfer_cost":0.0,"port_name":"Bremerhaven","position":{"lat":53.549999,"lng":8.583333},"status":"surplus"},{"frame_index":155,"name":"ports_1","capacity":10000,"empty":822,"full":68,"on_shipper":27,"on_consignee":0,"shortage":0,"acc_shortage":0,"booking":19,"acc_booking":1267,"fulfillment":19,"acc_fulfillment":1267,"transfer_cost":0.0,"port_name":"Durban","position":{"lat":-29.8579,"lng":31.0292},"status":"surplus"},{"frame_index":155,"name":"ports_2","capacity":10000,"empty":0,"full":720,"on_shipper":0,"on_consignee":0,"shortage":16,"acc_shortage":174,"booking":16,"acc_booking":1254,"fulfillment":0,"acc_fulfillment":1080,"transfer_cost":0.0,"port_name":"Itagual","position":{"lat":-22.85222,"lng":-43.77528},"status":"demand"},{"frame_index":155,"name":"ports_3","capacity":10000,"empty":1266,"full":1350,"on_shipper":118,"on_consignee":0,"shortage":0,"acc_shortage":0,"booking":101,"acc_booking":7182,"fulfillment":101,"acc_fulfillment":7182,"transfer_cost":0.0,"port_name":"LeHavre","position":{"lat":49.490002,"lng":0.1},"status":"surplus"},{"frame_index":155,"name":"ports_4","capacity":10000,"empty":2151,"full":1442,"on_shipper":109,"on_consignee":0,"shortage":0,"acc_shortage":0,"booking":84,"acc_booking":5997,"fulfillment":84,"acc_fulfillment":5997,"transfer_cost":0.0,"port_name":"Los Angeles","position":{"lat":34.052235,"lng":-118.243683},"status":"surplus"},{"frame_index":155,"name":"ports_5","capacity":10000,"empty":2183,"full":424,"on_shipper":122,"on_consignee":0,"shortage":0,"acc_shortage":0,"booking":91,"acc_booking":5958,"fulfillment":91,"acc_fulfillment":5958,"transfer_cost":0.0,"port_name":"Manzanillo","position":{"lat":19.11695,"lng":-104.34214},"status":"surplus"},{"frame_index":155,"name":"ports_6","capacity":10000,"empty":546,"full":81,"on_shipper":40,"on_consignee":43,"shortage":0,"acc_shortage":0,"booking":26,"acc_booking":1850,"fulfillment":26,"acc_fulfillment":1850,"transfer_cost":0.0,"port_name":"Melbourne","position":{"lat":-37.840935,"lng":144.946457},"status":"surplus"},{"frame_index":155,"name":"ports_7","capacity":10000,"empty":2478,"full":211,"on_shipper":26,"on_consignee":0,"shortage":0,"acc_shortage":0,"booking":26,"acc_booking":1845,"fulfillment":26,"acc_fulfillment":1845,"transfer_cost":0.0,"port_name":"Montreal","position":{"lat":45.516136,"lng":-73.65683},"status":"surplus"},{"frame_index":155,"name":"ports_8","capacity":10000,"empty":961,"full":852,"on_shipper":72,"on_consignee":0,"shortage":0,"acc_shortage":0,"booking":48,"acc_booking":3608,"fulfillment":48,"acc_fulfillment":3608,"transfer_cost":0.0,"port_name":"New York","position":{"lat":40.73061,"lng":-73.935242},"status":"surplus"},{"frame_index":155,"name":"ports_9","capacity":10000,"empty":1638,"full":685,"on_shipper":93,"on_consignee":0,"shortage":0,"acc_shortage":0,"booking":59,"acc_booking":3600,"fulfillment":59,"acc_fulfillment":3600,"transfer_cost":0.0,"port_name":"Oakland","position":{"lat":37.804363,"lng":-122.271111},"status":"surplus"},{"frame_index":155,"name":"ports_10","capacity":10000,"empty":992,"full":103,"on_shipper":43,"on_consignee":0,"shortage":0,"acc_shortage":0,"booking":30,"acc_booking":1844,"fulfillment":30,"acc_fulfillment":1844,"transfer_cost":0.0,"port_name":"Prince Rupert","position":{"lat":54.312519,"lng":-130.305405},"status":"surplus"},{"frame_index":155,"name":"ports_11","capacity":10000,"empty":1944,"full":621,"on_shipper":159,"on_consignee":21,"shortage":0,"acc_shortage":0,"booking":97,"acc_booking":7143,"fulfillment":97,"acc_fulfillment":7143,"transfer_cost":0.0,"port_name":"Pusan","position":{"lat":35.166668,"lng":129.066666},"status":"surplus"},{"frame_index":155,"name":"ports_12","capacity":10000,"empty":3560,"full":983,"on_shipper":199,"on_consignee":0,"shortage":0,"acc_shortage":0,"booking":144,"acc_booking":9560,"fulfillment":144,"acc_fulfillment":9560,"transfer_cost":0.0,"port_name":"Qingdao","position":{"lat":36.066898,"lng":120.382698},"status":"surplus"},{"frame_index":155,"name":"ports_13","capacity":10000,"empty":140,"full":325,"on_shipper":20,"on_consignee":0,"shortage":0,"acc_shortage":0,"booking":16,"acc_booking":1264,"fulfillment":16,"acc_fulfillment":1264,"transfer_cost":0.0,"port_name":"San Antonio","position":{"lat":29.424349,"lng":-98.491142},"status":"surplus"},{"frame_index":155,"name":"ports_14","capacity":10000,"empty":0,"full":224,"on_shipper":0,"on_consignee":0,"shortage":14,"acc_shortage":97,"booking":14,"acc_booking":1273,"fulfillment":0,"acc_fulfillment":1176,"transfer_cost":0.0,"port_name":"Santos","position":{"lat":-23.96083,"lng":-46.33361},"status":"demand"},{"frame_index":155,"name":"ports_15","capacity":10000,"empty":3063,"full":885,"on_shipper":171,"on_consignee":0,"shortage":0,"acc_shortage":0,"booking":120,"acc_booking":8343,"fulfillment":120,"acc_fulfillment":8343,"transfer_cost":0.0,"port_name":"Seattle","position":{"lat":47.608013,"lng":-122.335167},"status":"surplus"},{"frame_index":155,"name":"ports_16","capacity":10000,"empty":1832,"full":1086,"on_shipper":236,"on_consignee":798,"shortage":0,"acc_shortage":0,"booking":195,"acc_booking":12005,"fulfillment":195,"acc_fulfillment":12005,"transfer_cost":0.0,"port_name":"Shanghai","position":{"lat":31.224361,"lng":121.46917},"status":"surplus"},{"frame_index":155,"name":"ports_17","capacity":10000,"empty":1137,"full":373,"on_shipper":96,"on_consignee":73,"shortage":0,"acc_shortage":0,"booking":68,"acc_booking":4820,"fulfillment":68,"acc_fulfillment":4820,"transfer_cost":0.0,"port_name":"Singapore","position":{"lat":1.29027,"lng":103.851959},"status":"surplus"},{"frame_index":155,"name":"ports_18","capacity":10000,"empty":607,"full":204,"on_shipper":33,"on_consignee":0,"shortage":0,"acc_shortage":0,"booking":25,"acc_booking":1827,"fulfillment":25,"acc_fulfillment":1827,"transfer_cost":0.0,"port_name":"Sydney","position":{"lat":-33.865143,"lng":151.2099},"status":"surplus"},{"frame_index":155,"name":"ports_19","capacity":10000,"empty":1072,"full":456,"on_shipper":44,"on_consignee":0,"shortage":0,"acc_shortage":0,"booking":34,"acc_booking":2448,"fulfillment":34,"acc_fulfillment":2448,"transfer_cost":0.0,"port_name":"Vancouver","position":{"lat":49.246292,"lng":-123.116226},"status":"surplus"},{"frame_index":155,"name":"ports_20","capacity":10000,"empty":1872,"full":582,"on_shipper":179,"on_consignee":0,"shortage":0,"acc_shortage":0,"booking":122,"acc_booking":8205,"fulfillment":122,"acc_fulfillment":8205,"transfer_cost":0.0,"port_name":"Yantian","position":{"lat":26.8533,"lng":119.8575},"status":"surplus"},{"frame_index":155,"name":"ports_21","capacity":10000,"empty":2879,"full":622,"on_shipper":174,"on_consignee":1,"shortage":0,"acc_shortage":0,"booking":126,"acc_booking":7816,"fulfillment":126,"acc_fulfillment":7816,"transfer_cost":0.0,"port_name":"Yokohama","position":{"lat":35.443707,"lng":139.638031},"status":"surplus"}]