[{"frame_index":583,"name":"ports_0","capacity":10000,"empty":8051,"full":1292,"on_shipper":97,"on_consignee":0,"shortage":0,"acc_shortage":522,"booking":91,"acc_booking":72968,"fulfillment":91,"acc_fulfillment":72446,"transfer_cost":0.0,"port_name":"Bremerhaven","position":{"lat":53.549999,"lng":8.583333},"status":"surplus"},{"frame_index":583,"name":"ports_1","capacity":10000,"empty":290,"full":299,"on_shipper":9,"on_consignee":0,"shortage":0,"acc_shortage":0,"booking":7,"acc_booking":4870,"fulfillment":7,"acc_fulfillment":4870,"transfer_cost":0.0,"port_name":"Durban","position":{"lat":-29.8579,"lng":31.0292},"status":"surplus"},{"frame_index":583,"name":"ports_2","capacity":10000,"empty":543,"full":37,"on_shipper":9,"on_consignee":0,"shortage":0,"acc_shortage":233,"booking":6,"acc_booking":4843,"fulfillment":6,"acc_fulfillment":4610,"transfer_cost":0.0,"port_name":"Itagual","position":{"lat":-22.85222,"lng":-43.77528},"status":"surplus"},{"frame_index":583,"name":"ports_3","capacity":10000,"empty":544,"full":1663,"on_shipper":46,"on_consignee":0,"shortage":0,"acc_shortage":0,"booking":39,"acc_booking":27662,"fulfillment":39,"acc_fulfillment":27662,"transfer_cost":0.0,"port_name":"LeHavre","position":{"lat":49.490002,"lng":0.1},"status":"surplus"},{"frame_index":583,"name":"ports_4","capacity":10000,"empty":1613,"full":276,"on_shipper":39,"on_consignee":0,"shortage":0,"acc_shortage":0,"booking":31,"acc_booking":23139,"fulfillment":31,"acc_fulfillment":23139,"transfer_cost":0.0,"port_name":"Los Angeles","position":{"lat":34.052235,"lng":-118.243683},"status":"surplus"},{"frame_index":583,"name":"ports_5","capacity":10000,"empty":1616,"full":771,"on_shipper":46,"on_consignee":0,"shortage":0,"acc_shortage":123,"booking":35,"acc_booking":23187,"fulfillment":35,"acc_fulfillment":23064,"transfer_cost":0.0,"port_name":"Manzanillo","position":{"lat":19.11695,"lng":-104.34214},"status":"surplus"},{"frame_index":583,"name":"ports_6","capacity":10000,"empty":515,"full":115,"on_shipper":14,"on_consignee":0,"shortage":0,"acc_shortage":1259,"booking":10,"acc_booking":7128,"fulfillment":10,"acc_fulfillment":5869,"transfer_cost":0.0,"port_name":"Melbourne","position":{"lat":-37.840935,"lng":144.946457},"status":"surplus"},{"frame_index":583,"name":"ports_7","capacity":10000,"empty":1396,"full":270,"on_shipper":16,"on_consignee":0,"shortage":0,"acc_shortage":0,"booking":10,"acc_booking":7131,"fulfillment":10,"acc_fulfillment":7131,"transfer_cost":0.0,"port_name":"Montreal","position":{"lat":45.516136,"lng":-73.65683},"status":"surplus"},{"frame_index":583,"name":"ports_8","capacity":10000,"empty":1737,"full":391,"on_shipper":20,"on_consignee":0,"shortage":0,"acc_shortage":0,"booking":20,"acc_booking":13930,"fulfillment":20,"acc_fulfillment":13930,"transfer_cost":0.0,"port_name":"New York","position":{"lat":40.73061,"lng":-73.935242},"status":"surplus"},{"frame_index":583,"name":"ports_9","capacity":10000,"empty":432,"full":306,"on_shipper":27,"on_consignee":0,"shortage":0,"acc_shortage":45,"booking":20,"acc_booking":13955,"fulfillment":20,"acc_fulfillment":13910,"transfer_cost":0.0,"port_name":"Oakland","position":{"lat":37.804363,"lng":-122.271111},"status":"surplus"},{"frame_index":583,"name":"ports_10","capacity":10000,"empty":777,"full":275,"on_shipper":13,"on_consignee":0,"shortage":0,"acc_shortage":314,"booking":11,"acc_booking":7147,"fulfillment":11,"acc_fulfillment":6833,"transfer_cost":0.0,"port_name":"Prince Rupert","position":{"lat":54.312519,"lng":-130.305405},"status":"surplus"},{"frame_index":583,"name":"ports_11","capacity":10000,"empty":1298,"full":503,"on_shipper":50,"on_consignee":0,"shortage":0,"acc_shortage":204,"booking":37,"acc_booking":27616,"fulfillment":37,"acc_fulfillment":27412,"transfer_cost":0.0,"port_name":"Pusan","position":{"lat":35.166668,"lng":129.066666},"status":"surplus"},{"frame_index":583,"name":"ports_12","capacity":10000,"empty":4896,"full":592,"on_shipper":61,"on_consignee":0,"shortage":0,"acc_shortage":0,"booking":47,"acc_booking":36918,"fulfillment":47,"acc_fulfillment":36918,"transfer_cost":0.0,"port_name":"Qingdao","position":{"lat":36.066898,"lng":120.382698},"status":"surplus"},{"frame_index":583,"name":"ports_13","capacity":10000,"empty":428,"full":52,"on_shipper":10,"on_consignee":0,"shortage":0,"acc_shortage":286,"booking":7,"acc_booking":4837,"fulfillment":7,"acc_fulfillment":4551,"transfer_cost":0.0,"port_name":"San Antonio","position":{"lat":29.424349,"lng":-98.491142},"status":"surplus"},{"frame_index":583,"name":"ports_14","capacity":10000,"empty":364,"full":130,"on_shipper":8,"on_consignee":0,"shortage":0,"acc_shortage":762,"booking":6,"acc_booking":4883,"fulfillment":6,"acc_fulfillment":4121,"transfer_cost":0.0,"port_name":"Santos","position":{"lat":-23.96083,"lng":-46.33361},"status":"surplus"},{"frame_index":583,"name":"ports_15","capacity":10000,"empty":4442,"full":93,"on_shipper":50,"on_consignee":0,"shortage":0,"acc_shortage":0,"booking":43,"acc_booking":32217,"fulfillment":43,"acc_fulfillment":32217,"transfer_cost":0.0,"port_name":"Seattle","position":{"lat":47.608013,"lng":-122.335167},"status":"surplus"},{"frame_index":583,"name":"ports_16","capacity":10000,"empty":1262,"full":252,"on_shipper":82,"on_consignee":387,"shortage":0,"acc_shortage":470,"booking":62,"acc_booking":45936,"fulfillment":62,"acc_fulfillment":45466,"transfer_cost":130.0,"port_name":"Shanghai","position":{"lat":31.224361,"lng":121.46917},"status":"surplus"},{"frame_index":583,"name":"ports_17","capacity":10000,"empty":273,"full":210,"on_shipper":32,"on_consignee":315,"shortage":0,"acc_shortage":40,"booking":26,"acc_booking":18568,"fulfillment":26,"acc_fulfillment":18528,"transfer_cost":0.0,"port_name":"Singapore","position":{"lat":1.29027,"lng":103.851959},"status":"surplus"},{"frame_index":583,"name":"ports_18","capacity":10000,"empty":567,"full":239,"on_shipper":13,"on_consignee":0,"shortage":0,"acc_shortage":957,"booking":10,"acc_booking":7098,"fulfillment":10,"acc_fulfillment":6141,"transfer_cost":0.0,"port_name":"Sydney","position":{"lat":-33.865143,"lng":151.2099},"status":"surplus"},{"frame_index":583,"name":"ports_19","capacity":10000,"empty":745,"full":428,"on_shipper":14,"on_consignee":0,"shortage":0,"acc_shortage":0,"booking":12,"acc_booking":9478,"fulfillment":12,"acc_fulfillment":9478,"transfer_cost":0.0,"port_name":"Vancouver","position":{"lat":49.246292,"lng":-123.116226},"status":"surplus"},{"frame_index":583,"name":"ports_20","capacity":10000,"empty":627,"full":1911,"on_shipper":55,"on_consignee":82,"shortage":0,"acc_shortage":395,"booking":39,"acc_booking":32021,"fulfillment":39,"acc_fulfillment":31626,"transfer_cost":0.0,"port_name":"Yantian","position":{"lat":26.8533,"lng":119.8575},"status":"surplus"},{"frame_index":583,"name":"ports_21","capacity":10000,"empty":701,"full":272,"on_shipper":48,"on_consignee":0,"shortage":0,"acc_shortage":3258,"booking":42,"acc_booking":30396,"fulfillment":42,"acc_fulfillment":27138,"transfer_cost":0.0,"port_name":"Yokohama","position":{"lat":35.443707,"lng":139.638031},"status":"surplus"}]