[{"frame_index":709,"name":"ports_0","capacity":10000,"empty":4750,"full":2000,"on_shipper":138,"on_consignee":0,"shortage":0,"acc_shortage":522,"booking":121,"acc_booking":89407,"fulfillment":121,"acc_fulfillment":88885,"transfer_cost":0.0,"port_name":"Bremerhaven","position":{"lat":53.549999,"lng":8.583333},"status":"surplus"},{"frame_index":709,"name":"ports_1","capacity":10000,"empty":371,"full":3,"on_shipper":9,"on_consignee":58,"shortage":0,"acc_shortage":0,"booking":8,"acc_booking":5945,"fulfillment":8,"acc_fulfillment":5945,"transfer_cost":0.0,"port_name":"Durban","position":{"lat":-29.8579,"lng":31.0292},"status":"surplus"},{"frame_index":709,"name":"ports_2","capacity":10000,"empty":203,"full":324,"on_shipper":8,"on_consignee":0,"shortage":0,"acc_shortage":298,"booking":8,"acc_booking":5925,"fulfillment":8,"acc_fulfillment":5627,"transfer_cost":0.0,"port_name":"Itagual","position":{"lat":-22.85222,"lng":-43.77528},"status":"surplus"},{"frame_index":709,"name":"ports_3","capacity":10000,"empty":2394,"full":539,"on_shipper":47,"on_consignee":893,"shortage":0,"acc_shortage":0,"booking":42,"acc_booking":33821,"fulfillment":42,"acc_fulfillment":33821,"transfer_cost":174.0,"port_name":"LeHavre","position":{"lat":49.490002,"lng":0.1},"status":"surplus"},{"frame_index":709,"name":"ports_4","capacity":10000,"empty":1040,"full":599,"on_shipper":39,"on_consignee":0,"shortage":0,"acc_shortage":150,"booking":35,"acc_booking":28309,"fulfillment":35,"acc_fulfillment":28159,"transfer_cost":0.0,"port_name":"Los Angeles","position":{"lat":34.052235,"lng":-118.243683},"status":"surplus"},{"frame_index":709,"name":"ports_5","capacity":10000,"empty":2521,"full":612,"on_shipper":39,"on_consignee":0,"shortage":0,"acc_shortage":123,"booking":34,"acc_booking":28376,"fulfillment":34,"acc_fulfillment":28253,"transfer_cost":0.0,"port_name":"Manzanillo","position":{"lat":19.11695,"lng":-104.34214},"status":"surplus"},{"frame_index":709,"name":"ports_6","capacity":10000,"empty":472,"full":165,"on_shipper":12,"on_consignee":0,"shortage":0,"acc_shortage":1336,"booking":11,"acc_booking":8717,"fulfillment":11,"acc_fulfillment":7381,"transfer_cost":0.0,"port_name":"Melbourne","position":{"lat":-37.840935,"lng":144.946457},"status":"surplus"},{"frame_index":709,"name":"ports_7","capacity":10000,"empty":1067,"full":5,"on_shipper":14,"on_consignee":121,"shortage":0,"acc_shortage":0,"booking":11,"acc_booking":8723,"fulfillment":11,"acc_fulfillment":8723,"transfer_cost":0.0,"port_name":"Montreal","position":{"lat":45.516136,"lng":-73.65683},"status":"surplus"},{"frame_index":709,"name":"ports_8","capacity":10000,"empty":4256,"full":717,"on_shipper":23,"on_consignee":0,"shortage":0,"acc_shortage":0,"booking":21,"acc_booking":17037,"fulfillment":21,"acc_fulfillment":17037,"transfer_cost":0.0,"port_name":"New York","position":{"lat":40.73061,"lng":-73.935242},"status":"surplus"},{"frame_index":709,"name":"ports_9","capacity":10000,"empty":1407,"full":365,"on_shipper":21,"on_consignee":0,"shortage":0,"acc_shortage":45,"booking":21,"acc_booking":17101,"fulfillment":21,"acc_fulfillment":17056,"transfer_cost":0.0,"port_name":"Oakland","position":{"lat":37.804363,"lng":-122.271111},"status":"surplus"},{"frame_index":709,"name":"ports_10","capacity":10000,"empty":1679,"full":154,"on_shipper":12,"on_consignee":0,"shortage":0,"acc_shortage":314,"booking":10,"acc_booking":8732,"fulfillment":10,"acc_fulfillment":8418,"transfer_cost":0.0,"port_name":"Prince Rupert","position":{"lat":54.312519,"lng":-130.305405},"status":"surplus"},{"frame_index":709,"name":"ports_11","capacity":10000,"empty":3033,"full":1800,"on_shipper":50,"on_consignee":13,"shortage":0,"acc_shortage":204,"booking":42,"acc_booking":33790,"fulfillment":42,"acc_fulfillment":33586,"transfer_cost":0.0,"port_name":"Pusan","position":{"lat":35.166668,"lng":129.066666},"status":"surplus"},{"frame_index":709,"name":"ports_12","capacity":10000,"empty":2049,"full":1922,"on_shipper":66,"on_consignee":559,"shortage":0,"acc_shortage":0,"booking":57,"acc_booking":45090,"fulfillment":57,"acc_fulfillment":45090,"transfer_cost":1555.0,"port_name":"Qingdao","position":{"lat":36.066898,"lng":120.382698},"status":"surplus"},{"frame_index":709,"name":"ports_13","capacity":10000,"empty":597,"full":12,"on_shipper":8,"on_consignee":0,"shortage":0,"acc_shortage":325,"booking":7,"acc_booking":5927,"fulfillment":7,"acc_fulfillment":5602,"transfer_cost":0.0,"port_name":"San Antonio","position":{"lat":29.424349,"lng":-98.491142},"status":"surplus"},{"frame_index":709,"name":"ports_14","capacity":10000,"empty":841,"full":59,"on_shipper":8,"on_consignee":0,"shortage":0,"acc_shortage":762,"booking":6,"acc_booking":5964,"fulfillment":6,"acc_fulfillment":5202,"transfer_cost":0.0,"port_name":"Santos","position":{"lat":-23.96083,"lng":-46.33361},"status":"surplus"},{"frame_index":709,"name":"ports_15","capacity":10000,"empty":3081,"full":1147,"on_shipper":55,"on_consignee":0,"shortage":0,"acc_shortage":0,"booking":47,"acc_booking":39403,"fulfillment":47,"acc_fulfillment":39403,"transfer_cost":0.0,"port_name":"Seattle","position":{"lat":47.608013,"lng":-122.335167},"status":"surplus"},{"frame_index":709,"name":"ports_16","capacity":10000,"empty":2042,"full":1794,"on_shipper":67,"on_consignee":32,"shortage":0,"acc_shortage":712,"booking":59,"acc_booking":56114,"fulfillment":59,"acc_fulfillment":55402,"transfer_cost":0.0,"port_name":"Shanghai","position":{"lat":31.224361,"lng":121.46917},"status":"surplus"},{"frame_index":709,"name":"ports_17","capacity":10000,"empty":3323,"full":120,"on_shipper":31,"on_consignee":97,"shortage":0,"acc_shortage":283,"booking":27,"acc_booking":22726,"fulfillment":27,"acc_fulfillment":22443,"transfer_cost":1115.0,"port_name":"Singapore","position":{"lat":1.29027,"lng":103.851959},"status":"surplus"},{"frame_index":709,"name":"ports_18","capacity":10000,"empty":130,"full":349,"on_shipper":12,"on_consignee":0,"shortage":0,"acc_shortage":1082,"booking":10,"acc_booking":8695,"fulfillment":10,"acc_fulfillment":7613,"transfer_cost":0.0,"port_name":"Sydney","position":{"lat":-33.865143,"lng":151.2099},"status":"surplus"},{"frame_index":709,"name":"ports_19","capacity":10000,"empty":1230,"full":252,"on_shipper":16,"on_consignee":0,"shortage":0,"acc_shortage":0,"booking":13,"acc_booking":11575,"fulfillment":13,"acc_fulfillment":11575,"transfer_cost":0.0,"port_name":"Vancouver","position":{"lat":49.246292,"lng":-123.116226},"status":"surplus"},{"frame_index":709,"name":"ports_20","capacity":10000,"empty":554,"full":1257,"on_shipper":55,"on_consignee":13,"shortage":0,"acc_shortage":395,"booking":46,"acc_booking":39162,"fulfillment":46,"acc_fulfillment":38767,"transfer_cost":0.0,"port_name":"Yantian","position":{"lat":26.8533,"lng":119.8575},"status":"surplus"},{"frame_index":709,"name":"ports_21","capacity":10000,"empty":1301,"full":168,"on_shipper":47,"on_consignee":0,"shortage":0,"acc_shortage":4175,"booking":45,"acc_booking":37224,"fulfillment":45,"acc_fulfillment":33049,"transfer_cost":0.0,"port_name":"Yokohama","position":{"lat":35.443707,"lng":139.638031},"status":"surplus"}]