[{"frame_index":587,"name":"ports_0","capacity":10000,"empty":7540,"full":1670,"on_shipper":230,"on_consignee":0,"shortage":0,"acc_shortage":522,"booking":178,"acc_booking":73479,"fulfillment":178,"acc_fulfillment":72957,"transfer_cost":0.0,"port_name":"Bremerhaven","position":{"lat":53.549999,"lng":8.583333},"status":"surplus"},{"frame_index":587,"name":"ports_1","capacity":10000,"empty":509,"full":11,"on_shipper":13,"on_consignee":110,"shortage":0,"acc_shortage":0,"booking":10,"acc_booking":4903,"fulfillment":10,"acc_fulfillment":4903,"transfer_cost":0.0,"port_name":"Durban","position":{"lat":-29.8579,"lng":31.0292},"status":"surplus"},{"frame_index":587,"name":"ports_2","capacity":10000,"empty":511,"full":66,"on_shipper":12,"on_consignee":0,"shortage":0,"acc_shortage":233,"booking":10,"acc_booking":4875,"fulfillment":10,"acc_fulfillment":4642,"transfer_cost":0.0,"port_name":"Itagual","position":{"lat":-22.85222,"lng":-43.77528},"status":"surplus"},{"frame_index":587,"name":"ports_3","capacity":10000,"empty":365,"full":1796,"on_shipper":92,"on_consignee":0,"shortage":0,"acc_shortage":0,"booking":58,"acc_booking":27841,"fulfillment":58,"acc_fulfillment":27841,"transfer_cost":0.0,"port_name":"LeHavre","position":{"lat":49.490002,"lng":0.1},"status":"surplus"},{"frame_index":587,"name":"ports_4","capacity":10000,"empty":1462,"full":388,"on_shipper":78,"on_consignee":0,"shortage":0,"acc_shortage":0,"booking":49,"acc_booking":23290,"fulfillment":49,"acc_fulfillment":23290,"transfer_cost":0.0,"port_name":"Los Angeles","position":{"lat":34.052235,"lng":-118.243683},"status":"surplus"},{"frame_index":587,"name":"ports_5","capacity":10000,"empty":1477,"full":903,"on_shipper":53,"on_consignee":0,"shortage":0,"acc_shortage":123,"booking":42,"acc_booking":23326,"fulfillment":42,"acc_fulfillment":23203,"transfer_cost":0.0,"port_name":"Manzanillo","position":{"lat":19.11695,"lng":-104.34214},"status":"surplus"},{"frame_index":587,"name":"ports_6","capacity":10000,"empty":562,"full":42,"on_shipper":20,"on_consignee":13,"shortage":0,"acc_shortage":1259,"booking":15,"acc_booking":7175,"fulfillment":15,"acc_fulfillment":5916,"transfer_cost":0.0,"port_name":"Melbourne","position":{"lat":-37.840935,"lng":144.946457},"status":"surplus"},{"frame_index":587,"name":"ports_7","capacity":10000,"empty":1349,"full":311,"on_shipper":22,"on_consignee":0,"shortage":0,"acc_shortage":0,"booking":15,"acc_booking":7178,"fulfillment":15,"acc_fulfillment":7178,"transfer_cost":0.0,"port_name":"Montreal","position":{"lat":45.516136,"lng":-73.65683},"status":"surplus"},{"frame_index":587,"name":"ports_8","capacity":10000,"empty":1648,"full":460,"on_shipper":40,"on_consignee":0,"shortage":0,"acc_shortage":0,"booking":28,"acc_booking":14019,"fulfillment":28,"acc_fulfillment":14019,"transfer_cost":0.0,"port_name":"New York","position":{"lat":40.73061,"lng":-73.935242},"status":"surplus"},{"frame_index":587,"name":"ports_9","capacity":10000,"empty":345,"full":387,"on_shipper":33,"on_consignee":0,"shortage":0,"acc_shortage":45,"booking":26,"acc_booking":14042,"fulfillment":26,"acc_fulfillment":13997,"transfer_cost":0.0,"port_name":"Oakland","position":{"lat":37.804363,"lng":-122.271111},"status":"surplus"},{"frame_index":587,"name":"ports_10","capacity":10000,"empty":728,"full":306,"on_shipper":31,"on_consignee":0,"shortage":0,"acc_shortage":314,"booking":17,"acc_booking":7196,"fulfillment":17,"acc_fulfillment":6882,"transfer_cost":0.0,"port_name":"Prince Rupert","position":{"lat":54.312519,"lng":-130.305405},"status":"surplus"},{"frame_index":587,"name":"ports_11","capacity":10000,"empty":1123,"full":336,"on_shipper":85,"on_consignee":919,"shortage":0,"acc_shortage":204,"booking":57,"acc_booking":27791,"fulfillment":57,"acc_fulfillment":27587,"transfer_cost":0.0,"port_name":"Pusan","position":{"lat":35.166668,"lng":129.066666},"status":"surplus"},{"frame_index":587,"name":"ports_12","capacity":10000,"empty":4650,"full":766,"on_shipper":133,"on_consignee":0,"shortage":0,"acc_shortage":0,"booking":85,"acc_booking":37164,"fulfillment":85,"acc_fulfillment":37164,"transfer_cost":0.0,"port_name":"Qingdao","position":{"lat":36.066898,"lng":120.382698},"status":"surplus"},{"frame_index":587,"name":"ports_13","capacity":10000,"empty":397,"full":81,"on_shipper":12,"on_consignee":0,"shortage":0,"acc_shortage":286,"booking":10,"acc_booking":4868,"fulfillment":10,"acc_fulfillment":4582,"transfer_cost":0.0,"port_name":"San Antonio","position":{"lat":29.424349,"lng":-98.491142},"status":"surplus"},{"frame_index":587,"name":"ports_14","capacity":10000,"empty":329,"full":156,"on_shipper":17,"on_consignee":0,"shortage":0,"acc_shortage":762,"booking":11,"acc_booking":4918,"fulfillment":11,"acc_fulfillment":4156,"transfer_cost":0.0,"port_name":"Santos","position":{"lat":-23.96083,"lng":-46.33361},"status":"surplus"},{"frame_index":587,"name":"ports_15","capacity":10000,"empty":4229,"full":255,"on_shipper":101,"on_consignee":0,"shortage":0,"acc_shortage":0,"booking":69,"acc_booking":32430,"fulfillment":69,"acc_fulfillment":32430,"transfer_cost":0.0,"port_name":"Seattle","position":{"lat":47.608013,"lng":-122.335167},"status":"surplus"},{"frame_index":587,"name":"ports_16","capacity":10000,"empty":1453,"full":350,"on_shipper":127,"on_consignee":131,"shortage":0,"acc_shortage":470,"booking":99,"acc_booking":46229,"fulfillment":99,"acc_fulfillment":45759,"transfer_cost":0.0,"port_name":"Shanghai","position":{"lat":31.224361,"lng":121.46917},"status":"surplus"},{"frame_index":587,"name":"ports_17","capacity":10000,"empty":505,"full":281,"on_shipper":54,"on_consignee":88,"shortage":0,"acc_shortage":40,"booking":40,"acc_booking":18690,"fulfillment":40,"acc_fulfillment":18650,"transfer_cost":0.0,"port_name":"Singapore","position":{"lat":1.29027,"lng":103.851959},"status":"surplus"},{"frame_index":587,"name":"ports_18","capacity":10000,"empty":522,"full":277,"on_shipper":20,"on_consignee":0,"shortage":0,"acc_shortage":957,"booking":16,"acc_booking":7143,"fulfillment":16,"acc_fulfillment":6186,"transfer_cost":0.0,"port_name":"Sydney","position":{"lat":-33.865143,"lng":151.2099},"status":"surplus"},{"frame_index":587,"name":"ports_19","capacity":10000,"empty":680,"full":479,"on_shipper":28,"on_consignee":0,"shortage":0,"acc_shortage":0,"booking":21,"acc_booking":9543,"fulfillment":21,"acc_fulfillment":9543,"transfer_cost":0.0,"port_name":"Vancouver","position":{"lat":49.246292,"lng":-123.116226},"status":"surplus"},{"frame_index":587,"name":"ports_20","capacity":10000,"empty":1067,"full":1099,"on_shipper":116,"on_consignee":176,"shortage":0,"acc_shortage":395,"booking":72,"acc_booking":32242,"fulfillment":72,"acc_fulfillment":31847,"transfer_cost":463.0,"port_name":"Yantian","position":{"lat":26.8533,"lng":119.8575},"status":"surplus"},{"frame_index":587,"name":"ports_21","capacity":10000,"empty":1388,"full":342,"on_shipper":89,"on_consignee":0,"shortage":0,"acc_shortage":3258,"booking":69,"acc_booking":30596,"fulfillment":69,"acc_fulfillment":27338,"transfer_cost":0.0,"port_name":"Yokohama","position":{"lat":35.443707,"lng":139.638031},"status":"surplus"}]