[{"frame_index":448,"name":"ports_0","capacity":10000,"empty":2856,"full":2568,"on_shipper":82,"on_consignee":0,"shortage":0,"acc_shortage":522,"booking":51,"acc_booking":56983,"fulfillment":51,"acc_fulfillment":56461,"transfer_cost":0.0,"port_name":"Bremerhaven","position":{"lat":53.549999,"lng":8.583333},"status":"surplus"},{"frame_index":448,"name":"ports_1","capacity":10000,"empty":328,"full":86,"on_shipper":5,"on_consignee":0,"shortage":0,"acc_shortage":0,"booking":4,"acc_booking":3823,"fulfillment":4,"acc_fulfillment":3823,"transfer_cost":0.0,"port_name":"Durban","position":{"lat":-29.8579,"lng":31.0292},"status":"surplus"},{"frame_index":448,"name":"ports_2","capacity":10000,"empty":345,"full":626,"on_shipper":5,"on_consignee":0,"shortage":0,"acc_shortage":233,"booking":4,"acc_booking":3795,"fulfillment":4,"acc_fulfillment":3562,"transfer_cost":0.0,"port_name":"Itagual","position":{"lat":-22.85222,"lng":-43.77528},"status":"surplus"},{"frame_index":448,"name":"ports_3","capacity":10000,"empty":1186,"full":393,"on_shipper":24,"on_consignee":0,"shortage":0,"acc_shortage":0,"booking":22,"acc_booking":21679,"fulfillment":22,"acc_fulfillment":21679,"transfer_cost":0.0,"port_name":"LeHavre","position":{"lat":49.490002,"lng":0.1},"status":"surplus"},{"frame_index":448,"name":"ports_4","capacity":10000,"empty":1660,"full":1813,"on_shipper":21,"on_consignee":0,"shortage":0,"acc_shortage":0,"booking":18,"acc_booking":18116,"fulfillment":18,"acc_fulfillment":18116,"transfer_cost":0.0,"port_name":"Los Angeles","position":{"lat":34.052235,"lng":-118.243683},"status":"surplus"},{"frame_index":448,"name":"ports_5","capacity":10000,"empty":867,"full":1090,"on_shipper":23,"on_consignee":0,"shortage":0,"acc_shortage":123,"booking":17,"acc_booking":18201,"fulfillment":17,"acc_fulfillment":18078,"transfer_cost":0.0,"port_name":"Manzanillo","position":{"lat":19.11695,"lng":-104.34214},"status":"surplus"},{"frame_index":448,"name":"ports_6","capacity":10000,"empty":252,"full":262,"on_shipper":9,"on_consignee":0,"shortage":0,"acc_shortage":819,"booking":6,"acc_booking":5579,"fulfillment":6,"acc_fulfillment":4760,"transfer_cost":0.0,"port_name":"Melbourne","position":{"lat":-37.840935,"lng":144.946457},"status":"surplus"},{"frame_index":448,"name":"ports_7","capacity":10000,"empty":1639,"full":209,"on_shipper":6,"on_consignee":0,"shortage":0,"acc_shortage":0,"booking":6,"acc_booking":5584,"fulfillment":6,"acc_fulfillment":5584,"transfer_cost":0.0,"port_name":"Montreal","position":{"lat":45.516136,"lng":-73.65683},"status":"surplus"},{"frame_index":448,"name":"ports_8","capacity":10000,"empty":1435,"full":600,"on_shipper":11,"on_consignee":0,"shortage":0,"acc_shortage":0,"booking":11,"acc_booking":10896,"fulfillment":11,"acc_fulfillment":10896,"transfer_cost":0.0,"port_name":"New York","position":{"lat":40.73061,"lng":-73.935242},"status":"surplus"},{"frame_index":448,"name":"ports_9","capacity":10000,"empty":125,"full":1557,"on_shipper":15,"on_consignee":0,"shortage":0,"acc_shortage":0,"booking":13,"acc_booking":10901,"fulfillment":13,"acc_fulfillment":10901,"transfer_cost":0.0,"port_name":"Oakland","position":{"lat":37.804363,"lng":-122.271111},"status":"surplus"},{"frame_index":448,"name":"ports_10","capacity":10000,"empty":461,"full":25,"on_shipper":6,"on_consignee":0,"shortage":0,"acc_shortage":0,"booking":5,"acc_booking":5576,"fulfillment":5,"acc_fulfillment":5576,"transfer_cost":0.0,"port_name":"Prince Rupert","position":{"lat":54.312519,"lng":-130.305405},"status":"surplus"},{"frame_index":448,"name":"ports_11","capacity":10000,"empty":1671,"full":155,"on_shipper":26,"on_consignee":439,"shortage":0,"acc_shortage":204,"booking":22,"acc_booking":21614,"fulfillment":22,"acc_fulfillment":21410,"transfer_cost":0.0,"port_name":"Pusan","position":{"lat":35.166668,"lng":129.066666},"status":"surplus"},{"frame_index":448,"name":"ports_12","capacity":10000,"empty":3157,"full":877,"on_shipper":39,"on_consignee":0,"shortage":0,"acc_shortage":0,"booking":31,"acc_booking":28896,"fulfillment":31,"acc_fulfillment":28896,"transfer_cost":0.0,"port_name":"Qingdao","position":{"lat":36.066898,"lng":120.382698},"status":"surplus"},{"frame_index":448,"name":"ports_13","capacity":10000,"empty":600,"full":16,"on_shipper":5,"on_consignee":0,"shortage":0,"acc_shortage":286,"booking":4,"acc_booking":3790,"fulfillment":4,"acc_fulfillment":3504,"transfer_cost":0.0,"port_name":"San Antonio","position":{"lat":29.424349,"lng":-98.491142},"status":"surplus"},{"frame_index":448,"name":"ports_14","capacity":10000,"empty":231,"full":94,"on_shipper":6,"on_consignee":0,"shortage":0,"acc_shortage":697,"booking":4,"acc_booking":3826,"fulfillment":4,"acc_fulfillment":3129,"transfer_cost":0.0,"port_name":"Santos","position":{"lat":-23.96083,"lng":-46.33361},"status":"surplus"},{"frame_index":448,"name":"ports_15","capacity":10000,"empty":3170,"full":1020,"on_shipper":30,"on_consignee":0,"shortage":0,"acc_shortage":0,"booking":26,"acc_booking":25238,"fulfillment":26,"acc_fulfillment":25238,"transfer_cost":0.0,"port_name":"Seattle","position":{"lat":47.608013,"lng":-122.335167},"status":"surplus"},{"frame_index":448,"name":"ports_16","capacity":10000,"empty":1776,"full":308,"on_shipper":43,"on_consignee":0,"shortage":0,"acc_shortage":0,"booking":33,"acc_booking":36047,"fulfillment":33,"acc_fulfillment":36047,"transfer_cost":0.0,"port_name":"Shanghai","position":{"lat":31.224361,"lng":121.46917},"status":"surplus"},{"frame_index":448,"name":"ports_17","capacity":10000,"empty":2426,"full":318,"on_shipper":18,"on_consignee":30,"shortage":0,"acc_shortage":40,"booking":15,"acc_booking":14537,"fulfillment":15,"acc_fulfillment":14497,"transfer_cost":0.0,"port_name":"Singapore","position":{"lat":1.29027,"lng":103.851959},"status":"surplus"},{"frame_index":448,"name":"ports_18","capacity":10000,"empty":0,"full":382,"on_shipper":0,"on_consignee":0,"shortage":6,"acc_shortage":746,"booking":6,"acc_booking":5549,"fulfillment":0,"acc_fulfillment":4803,"transfer_cost":0.0,"port_name":"Sydney","position":{"lat":-33.865143,"lng":151.2099},"status":"balance"},{"frame_index":448,"name":"ports_19","capacity":10000,"empty":803,"full":55,"on_shipper":10,"on_consignee":241,"shortage":0,"acc_shortage":0,"booking":8,"acc_booking":7419,"fulfillment":8,"acc_fulfillment":7419,"transfer_cost":0.0,"port_name":"Vancouver","position":{"lat":49.246292,"lng":-123.116226},"status":"surplus"},{"frame_index":448,"name":"ports_20","capacity":10000,"empty":1955,"full":240,"on_shipper":30,"on_consignee":0,"shortage":0,"acc_shortage":350,"booking":26,"acc_booking":24983,"fulfillment":26,"acc_fulfillment":24633,"transfer_cost":0.0,"port_name":"Yantian","position":{"lat":26.8533,"lng":119.8575},"status":"surplus"},{"frame_index":448,"name":"ports_21","capacity":10000,"empty":746,"full":937,"on_shipper":22,"on_consignee":0,"shortage":0,"acc_shortage":2740,"booking":17,"acc_booking":23880,"fulfillment":17,"acc_fulfillment":21140,"transfer_cost":0.0,"port_name":"Yokohama","position":{"lat":35.443707,"lng":139.638031},"status":"surplus"}]