[{"frame_index":387,"name":"ports_0","capacity":10000,"empty":4270,"full":1607,"on_shipper":123,"on_consignee":0,"shortage":0,"acc_shortage":522,"booking":103,"acc_booking":48528,"fulfillment":103,"acc_fulfillment":48006,"transfer_cost":0.0,"port_name":"Bremerhaven","position":{"lat":53.549999,"lng":8.583333},"status":"surplus"},{"frame_index":387,"name":"ports_1","capacity":10000,"empty":421,"full":0,"on_shipper":7,"on_consignee":12,"shortage":0,"acc_shortage":0,"booking":6,"acc_booking":3244,"fulfillment":6,"acc_fulfillment":3244,"transfer_cost":8.0,"port_name":"Durban","position":{"lat":-29.8579,"lng":31.0292},"status":"surplus"},{"frame_index":387,"name":"ports_2","capacity":10000,"empty":913,"full":54,"on_shipper":9,"on_consignee":0,"shortage":0,"acc_shortage":233,"booking":6,"acc_booking":3227,"fulfillment":6,"acc_fulfillment":2994,"transfer_cost":0.0,"port_name":"Itagual","position":{"lat":-22.85222,"lng":-43.77528},"status":"surplus"},{"frame_index":387,"name":"ports_3","capacity":10000,"empty":1804,"full":876,"on_shipper":59,"on_consignee":669,"shortage":0,"acc_shortage":0,"booking":33,"acc_booking":18440,"fulfillment":33,"acc_fulfillment":18440,"transfer_cost":1086.0,"port_name":"LeHavre","position":{"lat":49.490002,"lng":0.1},"status":"surplus"},{"frame_index":387,"name":"ports_4","capacity":10000,"empty":2713,"full":731,"on_shipper":39,"on_consignee":0,"shortage":0,"acc_shortage":0,"booking":28,"acc_booking":15407,"fulfillment":28,"acc_fulfillment":15407,"transfer_cost":0.0,"port_name":"Los Angeles","position":{"lat":34.052235,"lng":-118.243683},"status":"surplus"},{"frame_index":387,"name":"ports_5","capacity":10000,"empty":1543,"full":74,"on_shipper":45,"on_consignee":0,"shortage":0,"acc_shortage":123,"booking":30,"acc_booking":15466,"fulfillment":30,"acc_fulfillment":15343,"transfer_cost":0.0,"port_name":"Manzanillo","position":{"lat":19.11695,"lng":-104.34214},"status":"surplus"},{"frame_index":387,"name":"ports_6","capacity":10000,"empty":0,"full":447,"on_shipper":0,"on_consignee":0,"shortage":9,"acc_shortage":415,"booking":9,"acc_booking":4743,"fulfillment":0,"acc_fulfillment":4328,"transfer_cost":0.0,"port_name":"Melbourne","position":{"lat":-37.840935,"lng":144.946457},"status":"balance"},{"frame_index":387,"name":"ports_7","capacity":10000,"empty":2335,"full":391,"on_shipper":12,"on_consignee":0,"shortage":0,"acc_shortage":0,"booking":9,"acc_booking":4750,"fulfillment":9,"acc_fulfillment":4750,"transfer_cost":0.0,"port_name":"Montreal","position":{"lat":45.516136,"lng":-73.65683},"status":"surplus"},{"frame_index":387,"name":"ports_8","capacity":10000,"empty":1193,"full":859,"on_shipper":24,"on_consignee":0,"shortage":0,"acc_shortage":0,"booking":18,"acc_booking":9267,"fulfillment":18,"acc_fulfillment":9267,"transfer_cost":0.0,"port_name":"New York","position":{"lat":40.73061,"lng":-73.935242},"status":"surplus"},{"frame_index":387,"name":"ports_9","capacity":10000,"empty":1520,"full":402,"on_shipper":18,"on_consignee":0,"shortage":0,"acc_shortage":0,"booking":18,"acc_booking":9253,"fulfillment":18,"acc_fulfillment":9253,"transfer_cost":0.0,"port_name":"Oakland","position":{"lat":37.804363,"lng":-122.271111},"status":"surplus"},{"frame_index":387,"name":"ports_10","capacity":10000,"empty":968,"full":535,"on_shipper":12,"on_consignee":0,"shortage":0,"acc_shortage":0,"booking":9,"acc_booking":4735,"fulfillment":9,"acc_fulfillment":4735,"transfer_cost":0.0,"port_name":"Prince Rupert","position":{"lat":54.312519,"lng":-130.305405},"status":"surplus"},{"frame_index":387,"name":"ports_11","capacity":10000,"empty":953,"full":508,"on_shipper":50,"on_consignee":415,"shortage":0,"acc_shortage":0,"booking":34,"acc_booking":18377,"fulfillment":34,"acc_fulfillment":18377,"transfer_cost":125.0,"port_name":"Pusan","position":{"lat":35.166668,"lng":129.066666},"status":"surplus"},{"frame_index":387,"name":"ports_12","capacity":10000,"empty":256,"full":1305,"on_shipper":62,"on_consignee":685,"shortage":0,"acc_shortage":0,"booking":43,"acc_booking":24582,"fulfillment":43,"acc_fulfillment":24582,"transfer_cost":76.0,"port_name":"Qingdao","position":{"lat":36.066898,"lng":120.382698},"status":"balance"},{"frame_index":387,"name":"ports_13","capacity":10000,"empty":387,"full":166,"on_shipper":7,"on_consignee":0,"shortage":0,"acc_shortage":123,"booking":6,"acc_booking":3219,"fulfillment":6,"acc_fulfillment":3096,"transfer_cost":0.0,"port_name":"San Antonio","position":{"lat":29.424349,"lng":-98.491142},"status":"surplus"},{"frame_index":387,"name":"ports_14","capacity":10000,"empty":492,"full":403,"on_shipper":8,"on_consignee":0,"shortage":0,"acc_shortage":697,"booking":6,"acc_booking":3272,"fulfillment":6,"acc_fulfillment":2575,"transfer_cost":0.0,"port_name":"Santos","position":{"lat":-23.96083,"lng":-46.33361},"status":"surplus"},{"frame_index":387,"name":"ports_15","capacity":10000,"empty":4192,"full":1708,"on_shipper":59,"on_consignee":0,"shortage":0,"acc_shortage":0,"booking":40,"acc_booking":21458,"fulfillment":40,"acc_fulfillment":21458,"transfer_cost":0.0,"port_name":"Seattle","position":{"lat":47.608013,"lng":-122.335167},"status":"surplus"},{"frame_index":387,"name":"ports_16","capacity":10000,"empty":2070,"full":2264,"on_shipper":62,"on_consignee":0,"shortage":0,"acc_shortage":0,"booking":47,"acc_booking":30697,"fulfillment":47,"acc_fulfillment":30697,"transfer_cost":0.0,"port_name":"Shanghai","position":{"lat":31.224361,"lng":121.46917},"status":"surplus"},{"frame_index":387,"name":"ports_17","capacity":10000,"empty":4680,"full":370,"on_shipper":36,"on_consignee":40,"shortage":0,"acc_shortage":40,"booking":23,"acc_booking":12362,"fulfillment":23,"acc_fulfillment":12322,"transfer_cost":1152.0,"port_name":"Singapore","position":{"lat":1.29027,"lng":103.851959},"status":"surplus"},{"frame_index":387,"name":"ports_18","capacity":10000,"empty":87,"full":110,"on_shipper":15,"on_consignee":0,"shortage":0,"acc_shortage":419,"booking":8,"acc_booking":4719,"fulfillment":8,"acc_fulfillment":4300,"transfer_cost":0.0,"port_name":"Sydney","position":{"lat":-33.865143,"lng":151.2099},"status":"balance"},{"frame_index":387,"name":"ports_19","capacity":10000,"empty":647,"full":424,"on_shipper":13,"on_consignee":0,"shortage":0,"acc_shortage":0,"booking":12,"acc_booking":6309,"fulfillment":12,"acc_fulfillment":6309,"transfer_cost":0.0,"port_name":"Vancouver","position":{"lat":49.246292,"lng":-123.116226},"status":"surplus"},{"frame_index":387,"name":"ports_20","capacity":10000,"empty":1412,"full":519,"on_shipper":60,"on_consignee":85,"shortage":0,"acc_shortage":0,"booking":41,"acc_booking":21247,"fulfillment":41,"acc_fulfillment":21247,"transfer_cost":0.0,"port_name":"Yantian","position":{"lat":26.8533,"lng":119.8575},"status":"surplus"},{"frame_index":387,"name":"ports_21","capacity":10000,"empty":940,"full":170,"on_shipper":45,"on_consignee":105,"shortage":0,"acc_shortage":1887,"booking":35,"acc_booking":20234,"fulfillment":35,"acc_fulfillment":18347,"transfer_cost":0.0,"port_name":"Yokohama","position":{"lat":35.443707,"lng":139.638031},"status":"surplus"}]