[{"frame_index":422,"name":"ports_0","capacity":10000,"empty":2451,"full":2350,"on_shipper":389,"on_consignee":0,"shortage":0,"acc_shortage":522,"booking":201,"acc_booking":54946,"fulfillment":201,"acc_fulfillment":54424,"transfer_cost":0.0,"port_name":"Bremerhaven","position":{"lat":53.549999,"lng":8.583333},"status":"surplus"},{"frame_index":422,"name":"ports_1","capacity":10000,"empty":96,"full":382,"on_shipper":16,"on_consignee":0,"shortage":0,"acc_shortage":0,"booking":11,"acc_booking":3680,"fulfillment":11,"acc_fulfillment":3680,"transfer_cost":0.0,"port_name":"Durban","position":{"lat":-29.8579,"lng":31.0292},"status":"balance"},{"frame_index":422,"name":"ports_2","capacity":10000,"empty":490,"full":465,"on_shipper":21,"on_consignee":0,"shortage":0,"acc_shortage":233,"booking":11,"acc_booking":3650,"fulfillment":11,"acc_fulfillment":3417,"transfer_cost":0.0,"port_name":"Itagual","position":{"lat":-22.85222,"lng":-43.77528},"status":"surplus"},{"frame_index":422,"name":"ports_3","capacity":10000,"empty":1044,"full":553,"on_shipper":100,"on_consignee":0,"shortage":0,"acc_shortage":0,"booking":64,"acc_booking":20895,"fulfillment":64,"acc_fulfillment":20895,"transfer_cost":0.0,"port_name":"LeHavre","position":{"lat":49.490002,"lng":0.1},"status":"surplus"},{"frame_index":422,"name":"ports_4","capacity":10000,"empty":657,"full":2755,"on_shipper":71,"on_consignee":0,"shortage":0,"acc_shortage":0,"booking":54,"acc_booking":17463,"fulfillment":54,"acc_fulfillment":17463,"transfer_cost":0.0,"port_name":"Los Angeles","position":{"lat":34.052235,"lng":-118.243683},"status":"surplus"},{"frame_index":422,"name":"ports_5","capacity":10000,"empty":1528,"full":348,"on_shipper":104,"on_consignee":0,"shortage":0,"acc_shortage":123,"booking":60,"acc_booking":17540,"fulfillment":60,"acc_fulfillment":17417,"transfer_cost":0.0,"port_name":"Manzanillo","position":{"lat":19.11695,"lng":-104.34214},"status":"surplus"},{"frame_index":422,"name":"ports_6","capacity":10000,"empty":421,"full":31,"on_shipper":35,"on_consignee":36,"shortage":0,"acc_shortage":819,"booking":16,"acc_booking":5374,"fulfillment":16,"acc_fulfillment":4555,"transfer_cost":0.0,"port_name":"Melbourne","position":{"lat":-37.840935,"lng":144.946457},"status":"surplus"},{"frame_index":422,"name":"ports_7","capacity":10000,"empty":2370,"full":43,"on_shipper":17,"on_consignee":0,"shortage":0,"acc_shortage":0,"booking":17,"acc_booking":5377,"fulfillment":17,"acc_fulfillment":5377,"transfer_cost":0.0,"port_name":"Montreal","position":{"lat":45.516136,"lng":-73.65683},"status":"surplus"},{"frame_index":422,"name":"ports_8","capacity":10000,"empty":1835,"full":136,"on_shipper":75,"on_consignee":0,"shortage":0,"acc_shortage":0,"booking":35,"acc_booking":10496,"fulfillment":35,"acc_fulfillment":10496,"transfer_cost":0.0,"port_name":"New York","position":{"lat":40.73061,"lng":-73.935242},"status":"surplus"},{"frame_index":422,"name":"ports_9","capacity":10000,"empty":536,"full":1112,"on_shipper":49,"on_consignee":0,"shortage":0,"acc_shortage":0,"booking":30,"acc_booking":10490,"fulfillment":30,"acc_fulfillment":10490,"transfer_cost":0.0,"port_name":"Oakland","position":{"lat":37.804363,"lng":-122.271111},"status":"surplus"},{"frame_index":422,"name":"ports_10","capacity":10000,"empty":332,"full":1151,"on_shipper":32,"on_consignee":0,"shortage":0,"acc_shortage":0,"booking":17,"acc_booking":5371,"fulfillment":17,"acc_fulfillment":5371,"transfer_cost":0.0,"port_name":"Prince Rupert","position":{"lat":54.312519,"lng":-130.305405},"status":"surplus"},{"frame_index":422,"name":"ports_11","capacity":10000,"empty":163,"full":482,"on_shipper":131,"on_consignee":1082,"shortage":0,"acc_shortage":204,"booking":63,"acc_booking":20833,"fulfillment":63,"acc_fulfillment":20629,"transfer_cost":66.0,"port_name":"Pusan","position":{"lat":35.166668,"lng":129.066666},"status":"demand"},{"frame_index":422,"name":"ports_12","capacity":10000,"empty":2288,"full":1114,"on_shipper":155,"on_consignee":0,"shortage":0,"acc_shortage":0,"booking":83,"acc_booking":27851,"fulfillment":83,"acc_fulfillment":27851,"transfer_cost":0.0,"port_name":"Qingdao","position":{"lat":36.066898,"lng":120.382698},"status":"surplus"},{"frame_index":422,"name":"ports_13","capacity":10000,"empty":0,"full":560,"on_shipper":0,"on_consignee":0,"shortage":12,"acc_shortage":165,"booking":12,"acc_booking":3648,"fulfillment":0,"acc_fulfillment":3483,"transfer_cost":0.0,"port_name":"San Antonio","position":{"lat":29.424349,"lng":-98.491142},"status":"demand"},{"frame_index":422,"name":"ports_14","capacity":10000,"empty":641,"full":178,"on_shipper":23,"on_consignee":0,"shortage":0,"acc_shortage":697,"booking":12,"acc_booking":3691,"fulfillment":12,"acc_fulfillment":2994,"transfer_cost":0.0,"port_name":"Santos","position":{"lat":-23.96083,"lng":-46.33361},"status":"surplus"},{"frame_index":422,"name":"ports_15","capacity":10000,"empty":2601,"full":1833,"on_shipper":108,"on_consignee":0,"shortage":0,"acc_shortage":0,"booking":78,"acc_booking":24330,"fulfillment":78,"acc_fulfillment":24330,"transfer_cost":0.0,"port_name":"Seattle","position":{"lat":47.608013,"lng":-122.335167},"status":"surplus"},{"frame_index":422,"name":"ports_16","capacity":10000,"empty":546,"full":1428,"on_shipper":131,"on_consignee":0,"shortage":0,"acc_shortage":0,"booking":117,"acc_booking":34724,"fulfillment":117,"acc_fulfillment":34724,"transfer_cost":0.0,"port_name":"Shanghai","position":{"lat":31.224361,"lng":121.46917},"status":"balance"},{"frame_index":422,"name":"ports_17","capacity":10000,"empty":2413,"full":410,"on_shipper":61,"on_consignee":180,"shortage":0,"acc_shortage":40,"booking":42,"acc_booking":14012,"fulfillment":42,"acc_fulfillment":13972,"transfer_cost":0.0,"port_name":"Singapore","position":{"lat":1.29027,"lng":103.851959},"status":"surplus"},{"frame_index":422,"name":"ports_18","capacity":10000,"empty":0,"full":382,"on_shipper":0,"on_consignee":0,"shortage":18,"acc_shortage":545,"booking":18,"acc_booking":5348,"fulfillment":0,"acc_fulfillment":4803,"transfer_cost":0.0,"port_name":"Sydney","position":{"lat":-33.865143,"lng":151.2099},"status":"demand"},{"frame_index":422,"name":"ports_19","capacity":10000,"empty":172,"full":880,"on_shipper":35,"on_consignee":0,"shortage":0,"acc_shortage":0,"booking":23,"acc_booking":7145,"fulfillment":23,"acc_fulfillment":7145,"transfer_cost":0.0,"port_name":"Vancouver","position":{"lat":49.246292,"lng":-123.116226},"status":"surplus"},{"frame_index":422,"name":"ports_20","capacity":10000,"empty":682,"full":582,"on_shipper":116,"on_consignee":147,"shortage":0,"acc_shortage":350,"booking":72,"acc_booking":24062,"fulfillment":72,"acc_fulfillment":23712,"transfer_cost":250.0,"port_name":"Yantian","position":{"lat":26.8533,"lng":119.8575},"status":"surplus"},{"frame_index":422,"name":"ports_21","capacity":10000,"empty":0,"full":861,"on_shipper":0,"on_consignee":0,"shortage":73,"acc_shortage":2601,"booking":73,"acc_booking":23127,"fulfillment":0,"acc_fulfillment":20526,"transfer_cost":0.0,"port_name":"Yokohama","position":{"lat":35.443707,"lng":139.638031},"status":"demand"}]