[{"frame_index":542,"name":"ports_0","capacity":10000,"empty":3285,"full":2350,"on_shipper":78,"on_consignee":308,"shortage":0,"acc_shortage":522,"booking":47,"acc_booking":70193,"fulfillment":47,"acc_fulfillment":69671,"transfer_cost":584.0,"port_name":"Bremerhaven","position":{"lat":53.549999,"lng":8.583333},"status":"surplus"},{"frame_index":542,"name":"ports_1","capacity":10000,"empty":480,"full":112,"on_shipper":6,"on_consignee":0,"shortage":0,"acc_shortage":0,"booking":3,"acc_booking":4680,"fulfillment":3,"acc_fulfillment":4680,"transfer_cost":0.0,"port_name":"Durban","position":{"lat":-29.8579,"lng":31.0292},"status":"surplus"},{"frame_index":542,"name":"ports_2","capacity":10000,"empty":399,"full":0,"on_shipper":4,"on_consignee":496,"shortage":0,"acc_shortage":233,"booking":4,"acc_booking":4651,"fulfillment":4,"acc_fulfillment":4418,"transfer_cost":125.0,"port_name":"Itagual","position":{"lat":-22.85222,"lng":-43.77528},"status":"surplus"},{"frame_index":542,"name":"ports_3","capacity":10000,"empty":1075,"full":1243,"on_shipper":28,"on_consignee":0,"shortage":0,"acc_shortage":0,"booking":19,"acc_booking":26623,"fulfillment":19,"acc_fulfillment":26623,"transfer_cost":0.0,"port_name":"LeHavre","position":{"lat":49.490002,"lng":0.1},"status":"surplus"},{"frame_index":542,"name":"ports_4","capacity":10000,"empty":2098,"full":418,"on_shipper":18,"on_consignee":0,"shortage":0,"acc_shortage":0,"booking":16,"acc_booking":22261,"fulfillment":16,"acc_fulfillment":22261,"transfer_cost":0.0,"port_name":"Los Angeles","position":{"lat":34.052235,"lng":-118.243683},"status":"surplus"},{"frame_index":542,"name":"ports_5","capacity":10000,"empty":413,"full":288,"on_shipper":24,"on_consignee":0,"shortage":0,"acc_shortage":123,"booking":15,"acc_booking":22313,"fulfillment":15,"acc_fulfillment":22190,"transfer_cost":0.0,"port_name":"Manzanillo","position":{"lat":19.11695,"lng":-104.34214},"status":"surplus"},{"frame_index":542,"name":"ports_6","capacity":10000,"empty":0,"full":420,"on_shipper":0,"on_consignee":0,"shortage":5,"acc_shortage":1177,"booking":5,"acc_booking":6851,"fulfillment":0,"acc_fulfillment":5674,"transfer_cost":0.0,"port_name":"Melbourne","position":{"lat":-37.840935,"lng":144.946457},"status":"balance"},{"frame_index":542,"name":"ports_7","capacity":10000,"empty":1119,"full":0,"on_shipper":9,"on_consignee":554,"shortage":0,"acc_shortage":0,"booking":5,"acc_booking":6854,"fulfillment":5,"acc_fulfillment":6854,"transfer_cost":574.0,"port_name":"Montreal","position":{"lat":45.516136,"lng":-73.65683},"status":"surplus"},{"frame_index":542,"name":"ports_8","capacity":10000,"empty":3042,"full":55,"on_shipper":15,"on_consignee":0,"shortage":0,"acc_shortage":0,"booking":10,"acc_booking":13403,"fulfillment":10,"acc_fulfillment":13403,"transfer_cost":0.0,"port_name":"New York","position":{"lat":40.73061,"lng":-73.935242},"status":"surplus"},{"frame_index":542,"name":"ports_9","capacity":10000,"empty":127,"full":1699,"on_shipper":13,"on_consignee":0,"shortage":0,"acc_shortage":45,"booking":10,"acc_booking":13429,"fulfillment":10,"acc_fulfillment":13384,"transfer_cost":0.0,"port_name":"Oakland","position":{"lat":37.804363,"lng":-122.271111},"status":"surplus"},{"frame_index":542,"name":"ports_10","capacity":10000,"empty":789,"full":0,"on_shipper":10,"on_consignee":266,"shortage":0,"acc_shortage":314,"booking":6,"acc_booking":6869,"fulfillment":6,"acc_fulfillment":6555,"transfer_cost":87.0,"port_name":"Prince Rupert","position":{"lat":54.312519,"lng":-130.305405},"status":"surplus"},{"frame_index":542,"name":"ports_11","capacity":10000,"empty":652,"full":1856,"on_shipper":29,"on_consignee":299,"shortage":0,"acc_shortage":204,"booking":19,"acc_booking":26567,"fulfillment":19,"acc_fulfillment":26363,"transfer_cost":0.0,"port_name":"Pusan","position":{"lat":35.166668,"lng":129.066666},"status":"surplus"},{"frame_index":542,"name":"ports_12","capacity":10000,"empty":3146,"full":1118,"on_shipper":31,"on_consignee":0,"shortage":0,"acc_shortage":0,"booking":23,"acc_booking":35537,"fulfillment":23,"acc_fulfillment":35537,"transfer_cost":0.0,"port_name":"Qingdao","position":{"lat":36.066898,"lng":120.382698},"status":"surplus"},{"frame_index":542,"name":"ports_13","capacity":10000,"empty":225,"full":162,"on_shipper":4,"on_consignee":0,"shortage":0,"acc_shortage":286,"booking":3,"acc_booking":4647,"fulfillment":3,"acc_fulfillment":4361,"transfer_cost":0.0,"port_name":"San Antonio","position":{"lat":29.424349,"lng":-98.491142},"status":"surplus"},{"frame_index":542,"name":"ports_14","capacity":10000,"empty":238,"full":369,"on_shipper":6,"on_consignee":0,"shortage":0,"acc_shortage":762,"booking":4,"acc_booking":4696,"fulfillment":4,"acc_fulfillment":3934,"transfer_cost":0.0,"port_name":"Santos","position":{"lat":-23.96083,"lng":-46.33361},"status":"surplus"},{"frame_index":542,"name":"ports_15","capacity":10000,"empty":2423,"full":2080,"on_shipper":36,"on_consignee":0,"shortage":0,"acc_shortage":0,"booking":23,"acc_booking":31005,"fulfillment":23,"acc_fulfillment":31005,"transfer_cost":0.0,"port_name":"Seattle","position":{"lat":47.608013,"lng":-122.335167},"status":"surplus"},{"frame_index":542,"name":"ports_16","capacity":10000,"empty":190,"full":2233,"on_shipper":62,"on_consignee":0,"shortage":0,"acc_shortage":470,"booking":36,"acc_booking":44232,"fulfillment":36,"acc_fulfillment":43762,"transfer_cost":0.0,"port_name":"Shanghai","position":{"lat":31.224361,"lng":121.46917},"status":"balance"},{"frame_index":542,"name":"ports_17","capacity":10000,"empty":1127,"full":568,"on_shipper":18,"on_consignee":0,"shortage":0,"acc_shortage":40,"booking":13,"acc_booking":17864,"fulfillment":13,"acc_fulfillment":17824,"transfer_cost":0.0,"port_name":"Singapore","position":{"lat":1.29027,"lng":103.851959},"status":"surplus"},{"frame_index":542,"name":"ports_18","capacity":10000,"empty":462,"full":56,"on_shipper":9,"on_consignee":73,"shortage":0,"acc_shortage":957,"booking":5,"acc_booking":6824,"fulfillment":5,"acc_fulfillment":5867,"transfer_cost":0.0,"port_name":"Sydney","position":{"lat":-33.865143,"lng":151.2099},"status":"surplus"},{"frame_index":542,"name":"ports_19","capacity":10000,"empty":797,"full":179,"on_shipper":9,"on_consignee":0,"shortage":0,"acc_shortage":0,"booking":6,"acc_booking":9111,"fulfillment":6,"acc_fulfillment":9111,"transfer_cost":0.0,"port_name":"Vancouver","position":{"lat":49.246292,"lng":-123.116226},"status":"surplus"},{"frame_index":542,"name":"ports_20","capacity":10000,"empty":107,"full":2068,"on_shipper":24,"on_consignee":0,"shortage":0,"acc_shortage":350,"booking":20,"acc_booking":30814,"fulfillment":20,"acc_fulfillment":30464,"transfer_cost":0.0,"port_name":"Yantian","position":{"lat":26.8533,"lng":119.8575},"status":"balance"},{"frame_index":542,"name":"ports_21","capacity":10000,"empty":0,"full":985,"on_shipper":16,"on_consignee":0,"shortage":6,"acc_shortage":3196,"booking":16,"acc_booking":29443,"fulfillment":10,"acc_fulfillment":26247,"transfer_cost":0.0,"port_name":"Yokohama","position":{"lat":35.443707,"lng":139.638031},"status":"demand"}]