[{"frame_index":823,"name":"ports_0","capacity":10000,"empty":4051,"full":4618,"on_shipper":206,"on_consignee":0,"shortage":0,"acc_shortage":522,"booking":182,"acc_booking":104178,"fulfillment":182,"acc_fulfillment":103656,"transfer_cost":0.0,"port_name":"Bremerhaven","position":{"lat":53.549999,"lng":8.583333},"status":"surplus"},{"frame_index":823,"name":"ports_1","capacity":10000,"empty":383,"full":15,"on_shipper":15,"on_consignee":0,"shortage":0,"acc_shortage":10,"booking":10,"acc_booking":6934,"fulfillment":10,"acc_fulfillment":6924,"transfer_cost":0.0,"port_name":"Durban","position":{"lat":-29.8579,"lng":31.0292},"status":"surplus"},{"frame_index":823,"name":"ports_2","capacity":10000,"empty":276,"full":297,"on_shipper":15,"on_consignee":0,"shortage":0,"acc_shortage":298,"booking":11,"acc_booking":6907,"fulfillment":11,"acc_fulfillment":6609,"transfer_cost":0.0,"port_name":"Itagual","position":{"lat":-22.85222,"lng":-43.77528},"status":"surplus"},{"frame_index":823,"name":"ports_3","capacity":10000,"empty":4696,"full":166,"on_shipper":81,"on_consignee":331,"shortage":0,"acc_shortage":0,"booking":70,"acc_booking":39457,"fulfillment":70,"acc_fulfillment":39457,"transfer_cost":0.0,"port_name":"LeHavre","position":{"lat":49.490002,"lng":0.1},"status":"surplus"},{"frame_index":823,"name":"ports_4","capacity":10000,"empty":388,"full":1380,"on_shipper":67,"on_consignee":0,"shortage":0,"acc_shortage":290,"booking":58,"acc_booking":33033,"fulfillment":58,"acc_fulfillment":32743,"transfer_cost":0.0,"port_name":"Los Angeles","position":{"lat":34.052235,"lng":-118.243683},"status":"surplus"},{"frame_index":823,"name":"ports_5","capacity":10000,"empty":2665,"full":511,"on_shipper":73,"on_consignee":0,"shortage":0,"acc_shortage":123,"booking":63,"acc_booking":33171,"fulfillment":63,"acc_fulfillment":33048,"transfer_cost":0.0,"port_name":"Manzanillo","position":{"lat":19.11695,"lng":-104.34214},"status":"surplus"},{"frame_index":823,"name":"ports_6","capacity":10000,"empty":0,"full":451,"on_shipper":0,"on_consignee":0,"shortage":17,"acc_shortage":1633,"booking":17,"acc_booking":10172,"fulfillment":0,"acc_fulfillment":8539,"transfer_cost":0.0,"port_name":"Melbourne","position":{"lat":-37.840935,"lng":144.946457},"status":"demand"},{"frame_index":823,"name":"ports_7","capacity":10000,"empty":655,"full":378,"on_shipper":25,"on_consignee":0,"shortage":0,"acc_shortage":0,"booking":18,"acc_booking":10186,"fulfillment":18,"acc_fulfillment":10186,"transfer_cost":0.0,"port_name":"Montreal","position":{"lat":45.516136,"lng":-73.65683},"status":"surplus"},{"frame_index":823,"name":"ports_8","capacity":10000,"empty":1880,"full":0,"on_shipper":52,"on_consignee":1866,"shortage":0,"acc_shortage":136,"booking":33,"acc_booking":19885,"fulfillment":33,"acc_fulfillment":19749,"transfer_cost":14.0,"port_name":"New York","position":{"lat":40.73061,"lng":-73.935242},"status":"surplus"},{"frame_index":823,"name":"ports_9","capacity":10000,"empty":1097,"full":534,"on_shipper":43,"on_consignee":0,"shortage":0,"acc_shortage":45,"booking":37,"acc_booking":19924,"fulfillment":37,"acc_fulfillment":19879,"transfer_cost":0.0,"port_name":"Oakland","position":{"lat":37.804363,"lng":-122.271111},"status":"surplus"},{"frame_index":823,"name":"ports_10","capacity":10000,"empty":1170,"full":308,"on_shipper":22,"on_consignee":0,"shortage":0,"acc_shortage":314,"booking":15,"acc_booking":10205,"fulfillment":15,"acc_fulfillment":9891,"transfer_cost":0.0,"port_name":"Prince Rupert","position":{"lat":54.312519,"lng":-130.305405},"status":"surplus"},{"frame_index":823,"name":"ports_11","capacity":10000,"empty":2813,"full":1111,"on_shipper":92,"on_consignee":0,"shortage":0,"acc_shortage":204,"booking":66,"acc_booking":39422,"fulfillment":66,"acc_fulfillment":39218,"transfer_cost":0.0,"port_name":"Pusan","position":{"lat":35.166668,"lng":129.066666},"status":"surplus"},{"frame_index":823,"name":"ports_12","capacity":10000,"empty":4607,"full":1209,"on_shipper":135,"on_consignee":0,"shortage":0,"acc_shortage":0,"booking":99,"acc_booking":52643,"fulfillment":99,"acc_fulfillment":52643,"transfer_cost":0.0,"port_name":"Qingdao","position":{"lat":36.066898,"lng":120.382698},"status":"surplus"},{"frame_index":823,"name":"ports_13","capacity":10000,"empty":710,"full":10,"on_shipper":20,"on_consignee":0,"shortage":0,"acc_shortage":449,"booking":12,"acc_booking":6911,"fulfillment":12,"acc_fulfillment":6462,"transfer_cost":0.0,"port_name":"San Antonio","position":{"lat":29.424349,"lng":-98.491142},"status":"surplus"},{"frame_index":823,"name":"ports_14","capacity":10000,"empty":26,"full":254,"on_shipper":15,"on_consignee":0,"shortage":0,"acc_shortage":762,"booking":12,"acc_booking":6950,"fulfillment":12,"acc_fulfillment":6188,"transfer_cost":0.0,"port_name":"Santos","position":{"lat":-23.96083,"lng":-46.33361},"status":"balance"},{"frame_index":823,"name":"ports_15","capacity":10000,"empty":2050,"full":996,"on_shipper":124,"on_consignee":0,"shortage":0,"acc_shortage":0,"booking":82,"acc_booking":46030,"fulfillment":82,"acc_fulfillment":46030,"transfer_cost":0.0,"port_name":"Seattle","position":{"lat":47.608013,"lng":-122.335167},"status":"surplus"},{"frame_index":823,"name":"ports_16","capacity":10000,"empty":2595,"full":1048,"on_shipper":160,"on_consignee":666,"shortage":0,"acc_shortage":760,"booking":107,"acc_booking":65482,"fulfillment":107,"acc_fulfillment":64722,"transfer_cost":0.0,"port_name":"Shanghai","position":{"lat":31.224361,"lng":121.46917},"status":"surplus"},{"frame_index":823,"name":"ports_17","capacity":10000,"empty":749,"full":454,"on_shipper":55,"on_consignee":35,"shortage":0,"acc_shortage":283,"booking":45,"acc_booking":26508,"fulfillment":45,"acc_fulfillment":26225,"transfer_cost":0.0,"port_name":"Singapore","position":{"lat":1.29027,"lng":103.851959},"status":"surplus"},{"frame_index":823,"name":"ports_18","capacity":10000,"empty":1090,"full":129,"on_shipper":31,"on_consignee":0,"shortage":0,"acc_shortage":1374,"booking":16,"acc_booking":10192,"fulfillment":16,"acc_fulfillment":8818,"transfer_cost":0.0,"port_name":"Sydney","position":{"lat":-33.865143,"lng":151.2099},"status":"surplus"},{"frame_index":823,"name":"ports_19","capacity":10000,"empty":1356,"full":513,"on_shipper":32,"on_consignee":0,"shortage":0,"acc_shortage":0,"booking":24,"acc_booking":13497,"fulfillment":24,"acc_fulfillment":13497,"transfer_cost":0.0,"port_name":"Vancouver","position":{"lat":49.246292,"lng":-123.116226},"status":"surplus"},{"frame_index":823,"name":"ports_20","capacity":10000,"empty":1656,"full":524,"on_shipper":104,"on_consignee":26,"shortage":0,"acc_shortage":942,"booking":70,"acc_booking":45731,"fulfillment":70,"acc_fulfillment":44789,"transfer_cost":0.0,"port_name":"Yantian","position":{"lat":26.8533,"lng":119.8575},"status":"surplus"},{"frame_index":823,"name":"ports_21","capacity":10000,"empty":711,"full":563,"on_shipper":140,"on_consignee":0,"shortage":0,"acc_shortage":6236,"booking":83,"acc_booking":43492,"fulfillment":83,"acc_fulfillment":37256,"transfer_cost":0.0,"port_name":"Yokohama","position":{"lat":35.443707,"lng":139.638031},"status":"surplus"}]