[{"frame_index":588,"name":"ports_0","capacity":10000,"empty":7330,"full":1773,"on_shipper":337,"on_consignee":0,"shortage":0,"acc_shortage":522,"booking":210,"acc_booking":73689,"fulfillment":210,"acc_fulfillment":73167,"transfer_cost":0.0,"port_name":"Bremerhaven","position":{"lat":53.549999,"lng":8.583333},"status":"surplus"},{"frame_index":588,"name":"ports_1","capacity":10000,"empty":606,"full":18,"on_shipper":19,"on_consignee":0,"shortage":0,"acc_shortage":0,"booking":13,"acc_booking":4916,"fulfillment":13,"acc_fulfillment":4916,"transfer_cost":0.0,"port_name":"Durban","position":{"lat":-29.8579,"lng":31.0292},"status":"surplus"},{"frame_index":588,"name":"ports_2","capacity":10000,"empty":499,"full":74,"on_shipper":16,"on_consignee":0,"shortage":0,"acc_shortage":233,"booking":12,"acc_booking":4887,"fulfillment":12,"acc_fulfillment":4654,"transfer_cost":0.0,"port_name":"Itagual","position":{"lat":-22.85222,"lng":-43.77528},"status":"surplus"},{"frame_index":588,"name":"ports_3","capacity":10000,"empty":299,"full":1858,"on_shipper":96,"on_consignee":0,"shortage":0,"acc_shortage":0,"booking":66,"acc_booking":27907,"fulfillment":66,"acc_fulfillment":27907,"transfer_cost":0.0,"port_name":"LeHavre","position":{"lat":49.490002,"lng":0.1},"status":"balance"},{"frame_index":588,"name":"ports_4","capacity":10000,"empty":1404,"full":438,"on_shipper":86,"on_consignee":0,"shortage":0,"acc_shortage":0,"booking":58,"acc_booking":23348,"fulfillment":58,"acc_fulfillment":23348,"transfer_cost":0.0,"port_name":"Los Angeles","position":{"lat":34.052235,"lng":-118.243683},"status":"surplus"},{"frame_index":588,"name":"ports_5","capacity":10000,"empty":1417,"full":938,"on_shipper":78,"on_consignee":0,"shortage":0,"acc_shortage":123,"booking":60,"acc_booking":23386,"fulfillment":60,"acc_fulfillment":23263,"transfer_cost":0.0,"port_name":"Manzanillo","position":{"lat":19.11695,"lng":-104.34214},"status":"surplus"},{"frame_index":588,"name":"ports_6","capacity":10000,"empty":558,"full":52,"on_shipper":27,"on_consignee":0,"shortage":0,"acc_shortage":1259,"booking":17,"acc_booking":7192,"fulfillment":17,"acc_fulfillment":5933,"transfer_cost":0.0,"port_name":"Melbourne","position":{"lat":-37.840935,"lng":144.946457},"status":"surplus"},{"frame_index":588,"name":"ports_7","capacity":10000,"empty":1331,"full":0,"on_shipper":33,"on_consignee":678,"shortage":0,"acc_shortage":0,"booking":18,"acc_booking":7196,"fulfillment":18,"acc_fulfillment":7196,"transfer_cost":0.0,"port_name":"Montreal","position":{"lat":45.516136,"lng":-73.65683},"status":"surplus"},{"frame_index":588,"name":"ports_8","capacity":10000,"empty":1612,"full":472,"on_shipper":64,"on_consignee":0,"shortage":0,"acc_shortage":0,"booking":36,"acc_booking":14055,"fulfillment":36,"acc_fulfillment":14055,"transfer_cost":0.0,"port_name":"New York","position":{"lat":40.73061,"lng":-73.935242},"status":"surplus"},{"frame_index":588,"name":"ports_9","capacity":10000,"empty":309,"full":394,"on_shipper":62,"on_consignee":0,"shortage":0,"acc_shortage":45,"booking":36,"acc_booking":14078,"fulfillment":36,"acc_fulfillment":14033,"transfer_cost":0.0,"port_name":"Oakland","position":{"lat":37.804363,"lng":-122.271111},"status":"surplus"},{"frame_index":588,"name":"ports_10","capacity":10000,"empty":714,"full":329,"on_shipper":22,"on_consignee":0,"shortage":0,"acc_shortage":314,"booking":14,"acc_booking":7210,"fulfillment":14,"acc_fulfillment":6896,"transfer_cost":0.0,"port_name":"Prince Rupert","position":{"lat":54.312519,"lng":-130.305405},"status":"surplus"},{"frame_index":588,"name":"ports_11","capacity":10000,"empty":1077,"full":377,"on_shipper":112,"on_consignee":897,"shortage":0,"acc_shortage":204,"booking":68,"acc_booking":27859,"fulfillment":68,"acc_fulfillment":27655,"transfer_cost":0.0,"port_name":"Pusan","position":{"lat":35.166668,"lng":129.066666},"status":"surplus"},{"frame_index":588,"name":"ports_12","capacity":10000,"empty":4549,"full":861,"on_shipper":139,"on_consignee":0,"shortage":0,"acc_shortage":0,"booking":101,"acc_booking":37265,"fulfillment":101,"acc_fulfillment":37265,"transfer_cost":0.0,"port_name":"Qingdao","position":{"lat":36.066898,"lng":120.382698},"status":"surplus"},{"frame_index":588,"name":"ports_13","capacity":10000,"empty":386,"full":89,"on_shipper":15,"on_consignee":0,"shortage":0,"acc_shortage":286,"booking":11,"acc_booking":4879,"fulfillment":11,"acc_fulfillment":4593,"transfer_cost":0.0,"port_name":"San Antonio","position":{"lat":29.424349,"lng":-98.491142},"status":"surplus"},{"frame_index":588,"name":"ports_14","capacity":10000,"empty":319,"full":168,"on_shipper":15,"on_consignee":0,"shortage":0,"acc_shortage":762,"booking":10,"acc_booking":4928,"fulfillment":10,"acc_fulfillment":4166,"transfer_cost":0.0,"port_name":"Santos","position":{"lat":-23.96083,"lng":-46.33361},"status":"surplus"},{"frame_index":588,"name":"ports_15","capacity":10000,"empty":4152,"full":313,"on_shipper":120,"on_consignee":0,"shortage":0,"acc_shortage":0,"booking":77,"acc_booking":32507,"fulfillment":77,"acc_fulfillment":32507,"transfer_cost":0.0,"port_name":"Seattle","position":{"lat":47.608013,"lng":-122.335167},"status":"surplus"},{"frame_index":588,"name":"ports_16","capacity":10000,"empty":1489,"full":425,"on_shipper":147,"on_consignee":0,"shortage":0,"acc_shortage":470,"booking":95,"acc_booking":46324,"fulfillment":95,"acc_fulfillment":45854,"transfer_cost":0.0,"port_name":"Shanghai","position":{"lat":31.224361,"lng":121.46917},"status":"surplus"},{"frame_index":588,"name":"ports_17","capacity":10000,"empty":547,"full":308,"on_shipper":73,"on_consignee":0,"shortage":0,"acc_shortage":40,"booking":46,"acc_booking":18736,"fulfillment":46,"acc_fulfillment":18696,"transfer_cost":0.0,"port_name":"Singapore","position":{"lat":1.29027,"lng":103.851959},"status":"surplus"},{"frame_index":588,"name":"ports_18","capacity":10000,"empty":503,"full":287,"on_shipper":29,"on_consignee":0,"shortage":0,"acc_shortage":957,"booking":19,"acc_booking":7162,"fulfillment":19,"acc_fulfillment":6205,"transfer_cost":0.0,"port_name":"Sydney","position":{"lat":-33.865143,"lng":151.2099},"status":"surplus"},{"frame_index":588,"name":"ports_19","capacity":10000,"empty":658,"full":491,"on_shipper":38,"on_consignee":0,"shortage":0,"acc_shortage":0,"booking":22,"acc_booking":9565,"fulfillment":22,"acc_fulfillment":9565,"transfer_cost":0.0,"port_name":"Vancouver","position":{"lat":49.246292,"lng":-123.116226},"status":"surplus"},{"frame_index":588,"name":"ports_20","capacity":10000,"empty":1007,"full":1181,"on_shipper":121,"on_consignee":149,"shortage":0,"acc_shortage":395,"booking":87,"acc_booking":32329,"fulfillment":87,"acc_fulfillment":31934,"transfer_cost":0.0,"port_name":"Yantian","position":{"lat":26.8533,"lng":119.8575},"status":"surplus"},{"frame_index":588,"name":"ports_21","capacity":10000,"empty":1309,"full":421,"on_shipper":89,"on_consignee":0,"shortage":0,"acc_shortage":3258,"booking":79,"acc_booking":30675,"fulfillment":79,"acc_fulfillment":27417,"transfer_cost":0.0,"port_name":"Yokohama","position":{"lat":35.443707,"lng":139.638031},"status":"surplus"}]