[{"frame_index":904,"name":"ports_0","capacity":10000,"empty":4114,"full":542,"on_shipper":34,"on_consignee":0,"shortage":0,"acc_shortage":522,"booking":23,"acc_booking":115513,"fulfillment":23,"acc_fulfillment":114991,"transfer_cost":0.0,"port_name":"Bremerhaven","position":{"lat":53.549999,"lng":8.583333},"status":"surplus"},{"frame_index":904,"name":"ports_1","capacity":10000,"empty":488,"full":9,"on_shipper":5,"on_consignee":0,"shortage":0,"acc_shortage":113,"booking":2,"acc_booking":7682,"fulfillment":2,"acc_fulfillment":7569,"transfer_cost":0.0,"port_name":"Durban","position":{"lat":-29.8579,"lng":31.0292},"status":"surplus"},{"frame_index":904,"name":"ports_2","capacity":10000,"empty":751,"full":16,"on_shipper":3,"on_consignee":0,"shortage":0,"acc_shortage":298,"booking":2,"acc_booking":7645,"fulfillment":2,"acc_fulfillment":7347,"transfer_cost":0.0,"port_name":"Itagual","position":{"lat":-22.85222,"lng":-43.77528},"status":"surplus"},{"frame_index":904,"name":"ports_3","capacity":10000,"empty":2525,"full":1418,"on_shipper":23,"on_consignee":27,"shortage":0,"acc_shortage":0,"booking":9,"acc_booking":43720,"fulfillment":9,"acc_fulfillment":43720,"transfer_cost":0.0,"port_name":"LeHavre","position":{"lat":49.490002,"lng":0.1},"status":"surplus"},{"frame_index":904,"name":"ports_4","capacity":10000,"empty":270,"full":565,"on_shipper":18,"on_consignee":0,"shortage":0,"acc_shortage":290,"booking":7,"acc_booking":36617,"fulfillment":7,"acc_fulfillment":36327,"transfer_cost":0.0,"port_name":"Los Angeles","position":{"lat":34.052235,"lng":-118.243683},"status":"surplus"},{"frame_index":904,"name":"ports_5","capacity":10000,"empty":835,"full":50,"on_shipper":21,"on_consignee":0,"shortage":0,"acc_shortage":163,"booking":7,"acc_booking":36731,"fulfillment":7,"acc_fulfillment":36568,"transfer_cost":0.0,"port_name":"Manzanillo","position":{"lat":19.11695,"lng":-104.34214},"status":"surplus"},{"frame_index":904,"name":"ports_6","capacity":10000,"empty":517,"full":196,"on_shipper":2,"on_consignee":0,"shortage":0,"acc_shortage":1855,"booking":2,"acc_booking":11270,"fulfillment":2,"acc_fulfillment":9415,"transfer_cost":0.0,"port_name":"Melbourne","position":{"lat":-37.840935,"lng":144.946457},"status":"surplus"},{"frame_index":904,"name":"ports_7","capacity":10000,"empty":1393,"full":0,"on_shipper":6,"on_consignee":201,"shortage":0,"acc_shortage":0,"booking":3,"acc_booking":11282,"fulfillment":3,"acc_fulfillment":11282,"transfer_cost":402.0,"port_name":"Montreal","position":{"lat":45.516136,"lng":-73.65683},"status":"surplus"},{"frame_index":904,"name":"ports_8","capacity":10000,"empty":4379,"full":227,"on_shipper":4,"on_consignee":0,"shortage":0,"acc_shortage":136,"booking":4,"acc_booking":22037,"fulfillment":4,"acc_fulfillment":21901,"transfer_cost":0.0,"port_name":"New York","position":{"lat":40.73061,"lng":-73.935242},"status":"surplus"},{"frame_index":904,"name":"ports_9","capacity":10000,"empty":847,"full":53,"on_shipper":9,"on_consignee":0,"shortage":0,"acc_shortage":45,"booking":5,"acc_booking":22063,"fulfillment":5,"acc_fulfillment":22018,"transfer_cost":0.0,"port_name":"Oakland","position":{"lat":37.804363,"lng":-122.271111},"status":"surplus"},{"frame_index":904,"name":"ports_10","capacity":10000,"empty":1090,"full":98,"on_shipper":5,"on_consignee":0,"shortage":0,"acc_shortage":314,"booking":2,"acc_booking":11311,"fulfillment":2,"acc_fulfillment":10997,"transfer_cost":0.0,"port_name":"Prince Rupert","position":{"lat":54.312519,"lng":-130.305405},"status":"surplus"},{"frame_index":904,"name":"ports_11","capacity":10000,"empty":596,"full":2345,"on_shipper":24,"on_consignee":0,"shortage":0,"acc_shortage":204,"booking":9,"acc_booking":43673,"fulfillment":9,"acc_fulfillment":43469,"transfer_cost":0.0,"port_name":"Pusan","position":{"lat":35.166668,"lng":129.066666},"status":"surplus"},{"frame_index":904,"name":"ports_12","capacity":10000,"empty":2085,"full":325,"on_shipper":22,"on_consignee":0,"shortage":0,"acc_shortage":0,"booking":12,"acc_booking":58393,"fulfillment":12,"acc_fulfillment":58393,"transfer_cost":0.0,"port_name":"Qingdao","position":{"lat":36.066898,"lng":120.382698},"status":"surplus"},{"frame_index":904,"name":"ports_13","capacity":10000,"empty":240,"full":124,"on_shipper":4,"on_consignee":0,"shortage":0,"acc_shortage":449,"booking":2,"acc_booking":7652,"fulfillment":2,"acc_fulfillment":7203,"transfer_cost":0.0,"port_name":"San Antonio","position":{"lat":29.424349,"lng":-98.491142},"status":"surplus"},{"frame_index":904,"name":"ports_14","capacity":10000,"empty":307,"full":24,"on_shipper":5,"on_consignee":0,"shortage":0,"acc_shortage":819,"booking":2,"acc_booking":7704,"fulfillment":2,"acc_fulfillment":6885,"transfer_cost":0.0,"port_name":"Santos","position":{"lat":-23.96083,"lng":-46.33361},"status":"surplus"},{"frame_index":904,"name":"ports_15","capacity":10000,"empty":1878,"full":626,"on_shipper":19,"on_consignee":0,"shortage":0,"acc_shortage":0,"booking":10,"acc_booking":51007,"fulfillment":10,"acc_fulfillment":51007,"transfer_cost":0.0,"port_name":"Seattle","position":{"lat":47.608013,"lng":-122.335167},"status":"surplus"},{"frame_index":904,"name":"ports_16","capacity":10000,"empty":1277,"full":3094,"on_shipper":22,"on_consignee":0,"shortage":0,"acc_shortage":817,"booking":15,"acc_booking":72630,"fulfillment":15,"acc_fulfillment":71813,"transfer_cost":0.0,"port_name":"Shanghai","position":{"lat":31.224361,"lng":121.46917},"status":"surplus"},{"frame_index":904,"name":"ports_17","capacity":10000,"empty":2038,"full":254,"on_shipper":16,"on_consignee":0,"shortage":0,"acc_shortage":283,"booking":6,"acc_booking":29364,"fulfillment":6,"acc_fulfillment":29081,"transfer_cost":0.0,"port_name":"Singapore","position":{"lat":1.29027,"lng":103.851959},"status":"surplus"},{"frame_index":904,"name":"ports_18","capacity":10000,"empty":1084,"full":115,"on_shipper":7,"on_consignee":0,"shortage":0,"acc_shortage":1374,"booking":3,"acc_booking":11286,"fulfillment":3,"acc_fulfillment":9912,"transfer_cost":0.0,"port_name":"Sydney","position":{"lat":-33.865143,"lng":151.2099},"status":"surplus"},{"frame_index":904,"name":"ports_19","capacity":10000,"empty":1150,"full":248,"on_shipper":7,"on_consignee":0,"shortage":0,"acc_shortage":0,"booking":3,"acc_booking":14938,"fulfillment":3,"acc_fulfillment":14938,"transfer_cost":0.0,"port_name":"Vancouver","position":{"lat":49.246292,"lng":-123.116226},"status":"surplus"},{"frame_index":904,"name":"ports_20","capacity":10000,"empty":614,"full":1949,"on_shipper":26,"on_consignee":11,"shortage":0,"acc_shortage":1292,"booking":10,"acc_booking":50720,"fulfillment":10,"acc_fulfillment":49428,"transfer_cost":0.0,"port_name":"Yantian","position":{"lat":26.8533,"lng":119.8575},"status":"surplus"},{"frame_index":904,"name":"ports_21","capacity":10000,"empty":1282,"full":182,"on_shipper":1,"on_consignee":0,"shortage":0,"acc_shortage":7235,"booking":0,"acc_booking":48292,"fulfillment":0,"acc_fulfillment":41057,"transfer_cost":0.0,"port_name":"Yokohama","position":{"lat":35.443707,"lng":139.638031},"status":"surplus"}]