[{"frame_index":0,"name":"ports_0","capacity":10000,"empty":6751,"full":2236,"on_shipper":36,"on_consignee":0,"shortage":0,"acc_shortage":3223,"booking":0,"acc_booking":143788,"fulfillment":0,"acc_fulfillment":140565,"transfer_cost":0.0,"port_name":"Bremerhaven","position":{"lat":53.549999,"lng":8.583333},"status":"surplus"},{"frame_index":0,"name":"ports_1","capacity":10000,"empty":232,"full":316,"on_shipper":4,"on_consignee":0,"shortage":0,"acc_shortage":113,"booking":0,"acc_booking":9561,"fulfillment":0,"acc_fulfillment":9448,"transfer_cost":0.0,"port_name":"Durban","position":{"lat":-29.8579,"lng":31.0292},"status":"surplus"},{"frame_index":0,"name":"ports_2","capacity":10000,"empty":633,"full":483,"on_shipper":4,"on_consignee":0,"shortage":0,"acc_shortage":298,"booking":0,"acc_booking":9524,"fulfillment":0,"acc_fulfillment":9226,"transfer_cost":0.0,"port_name":"Itagual","position":{"lat":-22.85222,"lng":-43.77528},"status":"surplus"},{"frame_index":0,"name":"ports_3","capacity":10000,"empty":5060,"full":1721,"on_shipper":13,"on_consignee":0,"shortage":0,"acc_shortage":0,"booking":0,"acc_booking":54388,"fulfillment":0,"acc_fulfillment":54388,"transfer_cost":0.0,"port_name":"LeHavre","position":{"lat":49.490002,"lng":0.1},"status":"surplus"},{"frame_index":0,"name":"ports_4","capacity":10000,"empty":1184,"full":195,"on_shipper":11,"on_consignee":0,"shortage":0,"acc_shortage":290,"booking":0,"acc_booking":45549,"fulfillment":0,"acc_fulfillment":45259,"transfer_cost":0.0,"port_name":"Los Angeles","position":{"lat":34.052235,"lng":-118.243683},"status":"surplus"},{"frame_index":0,"name":"ports_5","capacity":10000,"empty":24,"full":1124,"on_shipper":10,"on_consignee":0,"shortage":0,"acc_shortage":194,"booking":0,"acc_booking":45632,"fulfillment":0,"acc_fulfillment":45438,"transfer_cost":0.0,"port_name":"Manzanillo","position":{"lat":19.11695,"lng":-104.34214},"status":"balance"},{"frame_index":0,"name":"ports_6","capacity":10000,"empty":456,"full":55,"on_shipper":3,"on_consignee":0,"shortage":0,"acc_shortage":2377,"booking":0,"acc_booking":14028,"fulfillment":0,"acc_fulfillment":11651,"transfer_cost":0.0,"port_name":"Melbourne","position":{"lat":-37.840935,"lng":144.946457},"status":"surplus"},{"frame_index":0,"name":"ports_7","capacity":10000,"empty":1524,"full":111,"on_shipper":4,"on_consignee":0,"shortage":0,"acc_shortage":0,"booking":0,"acc_booking":14028,"fulfillment":0,"acc_fulfillment":14028,"transfer_cost":0.0,"port_name":"Montreal","position":{"lat":45.516136,"lng":-73.65683},"status":"surplus"},{"frame_index":0,"name":"ports_8","capacity":10000,"empty":3154,"full":236,"on_shipper":5,"on_consignee":0,"shortage":0,"acc_shortage":136,"booking":0,"acc_booking":27434,"fulfillment":0,"acc_fulfillment":27298,"transfer_cost":0.0,"port_name":"New York","position":{"lat":40.73061,"lng":-73.935242},"status":"surplus"},{"frame_index":0,"name":"ports_9","capacity":10000,"empty":893,"full":99,"on_shipper":5,"on_consignee":0,"shortage":0,"acc_shortage":45,"booking":0,"acc_booking":27491,"fulfillment":0,"acc_fulfillment":27446,"transfer_cost":0.0,"port_name":"Oakland","position":{"lat":37.804363,"lng":-122.271111},"status":"surplus"},{"frame_index":0,"name":"ports_10","capacity":10000,"empty":1546,"full":177,"on_shipper":3,"on_consignee":0,"shortage":0,"acc_shortage":314,"booking":0,"acc_booking":14017,"fulfillment":0,"acc_fulfillment":13703,"transfer_cost":0.0,"port_name":"Prince Rupert","position":{"lat":54.312519,"lng":-130.305405},"status":"surplus"},{"frame_index":0,"name":"ports_11","capacity":10000,"empty":2188,"full":685,"on_shipper":9,"on_consignee":61,"shortage":0,"acc_shortage":204,"booking":0,"acc_booking":54350,"fulfillment":0,"acc_fulfillment":54146,"transfer_cost":0.0,"port_name":"Pusan","position":{"lat":35.166668,"lng":129.066666},"status":"surplus"},{"frame_index":0,"name":"ports_12","capacity":10000,"empty":4024,"full":2055,"on_shipper":17,"on_consignee":0,"shortage":0,"acc_shortage":0,"booking":0,"acc_booking":72550,"fulfillment":0,"acc_fulfillment":72550,"transfer_cost":0.0,"port_name":"Qingdao","position":{"lat":36.066898,"lng":120.382698},"status":"surplus"},{"frame_index":0,"name":"ports_13","capacity":10000,"empty":550,"full":334,"on_shipper":3,"on_consignee":0,"shortage":0,"acc_shortage":459,"booking":0,"acc_booking":9522,"fulfillment":0,"acc_fulfillment":9063,"transfer_cost":0.0,"port_name":"San Antonio","position":{"lat":29.424349,"lng":-98.491142},"status":"surplus"},{"frame_index":0,"name":"ports_14","capacity":10000,"empty":489,"full":239,"on_shipper":3,"on_consignee":0,"shortage":0,"acc_shortage":1294,"booking":0,"acc_booking":9579,"fulfillment":0,"acc_fulfillment":8285,"transfer_cost":0.0,"port_name":"Santos","position":{"lat":-23.96083,"lng":-46.33361},"status":"surplus"},{"frame_index":0,"name":"ports_15","capacity":10000,"empty":718,"full":1997,"on_shipper":14,"on_consignee":0,"shortage":0,"acc_shortage":1985,"booking":0,"acc_booking":63424,"fulfillment":0,"acc_fulfillment":61439,"transfer_cost":0.0,"port_name":"Seattle","position":{"lat":47.608013,"lng":-122.335167},"status":"surplus"},{"frame_index":0,"name":"ports_16","capacity":10000,"empty":2220,"full":1028,"on_shipper":17,"on_consignee":400,"shortage":0,"acc_shortage":817,"booking":0,"acc_booking":90421,"fulfillment":0,"acc_fulfillment":89604,"transfer_cost":0.0,"port_name":"Shanghai","position":{"lat":31.224361,"lng":121.46917},"status":"surplus"},{"frame_index":0,"name":"ports_17","capacity":10000,"empty":1251,"full":1034,"on_shipper":6,"on_consignee":32,"shortage":0,"acc_shortage":619,"booking":0,"acc_booking":36518,"fulfillment":0,"acc_fulfillment":35899,"transfer_cost":0.0,"port_name":"Singapore","position":{"lat":1.29027,"lng":103.851959},"status":"surplus"},{"frame_index":0,"name":"ports_18","capacity":10000,"empty":339,"full":229,"on_shipper":4,"on_consignee":0,"shortage":0,"acc_shortage":1374,"booking":0,"acc_booking":14019,"fulfillment":0,"acc_fulfillment":12645,"transfer_cost":0.0,"port_name":"Sydney","position":{"lat":-33.865143,"lng":151.2099},"status":"surplus"},{"frame_index":0,"name":"ports_19","capacity":10000,"empty":696,"full":830,"on_shipper":4,"on_consignee":0,"shortage":0,"acc_shortage":0,"booking":0,"acc_booking":18567,"fulfillment":0,"acc_fulfillment":18567,"transfer_cost":0.0,"port_name":"Vancouver","position":{"lat":49.246292,"lng":-123.116226},"status":"surplus"},{"frame_index":0,"name":"ports_20","capacity":10000,"empty":1929,"full":531,"on_shipper":11,"on_consignee":13,"shortage":0,"acc_shortage":2447,"booking":0,"acc_booking":63226,"fulfillment":0,"acc_fulfillment":60779,"transfer_cost":0.0,"port_name":"Yantian","position":{"lat":26.8533,"lng":119.8575},"status":"surplus"},{"frame_index":0,"name":"ports_21","capacity":10000,"empty":1133,"full":1390,"on_shipper":0,"on_consignee":0,"shortage":0,"acc_shortage":10285,"booking":0,"acc_booking":60100,"fulfillment":0,"acc_fulfillment":49815,"transfer_cost":0.0,"port_name":"Yokohama","position":{"lat":35.443707,"lng":139.638031},"status":"surplus"}]