[{"frame_index":505,"name":"ports_0","capacity":10000,"empty":2385,"full":2246,"on_shipper":473,"on_consignee":0,"shortage":0,"acc_shortage":522,"booking":235,"acc_booking":64296,"fulfillment":235,"acc_fulfillment":63774,"transfer_cost":0.0,"port_name":"Bremerhaven","position":{"lat":53.549999,"lng":8.583333},"status":"surplus"},{"frame_index":505,"name":"ports_1","capacity":10000,"empty":388,"full":140,"on_shipper":24,"on_consignee":0,"shortage":0,"acc_shortage":0,"booking":17,"acc_booking":4297,"fulfillment":17,"acc_fulfillment":4297,"transfer_cost":0.0,"port_name":"Durban","position":{"lat":-29.8579,"lng":31.0292},"status":"surplus"},{"frame_index":505,"name":"ports_2","capacity":10000,"empty":909,"full":93,"on_shipper":25,"on_consignee":0,"shortage":0,"acc_shortage":233,"booking":17,"acc_booking":4266,"fulfillment":17,"acc_fulfillment":4033,"transfer_cost":0.0,"port_name":"Itagual","position":{"lat":-22.85222,"lng":-43.77528},"status":"surplus"},{"frame_index":505,"name":"ports_3","capacity":10000,"empty":1689,"full":403,"on_shipper":141,"on_consignee":496,"shortage":0,"acc_shortage":0,"booking":105,"acc_booking":24405,"fulfillment":105,"acc_fulfillment":24405,"transfer_cost":0.0,"port_name":"LeHavre","position":{"lat":49.490002,"lng":0.1},"status":"surplus"},{"frame_index":505,"name":"ports_4","capacity":10000,"empty":1844,"full":1660,"on_shipper":149,"on_consignee":0,"shortage":0,"acc_shortage":0,"booking":90,"acc_booking":20398,"fulfillment":90,"acc_fulfillment":20398,"transfer_cost":0.0,"port_name":"Los Angeles","position":{"lat":34.052235,"lng":-118.243683},"status":"surplus"},{"frame_index":505,"name":"ports_5","capacity":10000,"empty":1771,"full":368,"on_shipper":104,"on_consignee":0,"shortage":0,"acc_shortage":123,"booking":92,"acc_booking":20498,"fulfillment":92,"acc_fulfillment":20375,"transfer_cost":0.0,"port_name":"Manzanillo","position":{"lat":19.11695,"lng":-104.34214},"status":"surplus"},{"frame_index":505,"name":"ports_6","capacity":10000,"empty":227,"full":166,"on_shipper":27,"on_consignee":0,"shortage":0,"acc_shortage":837,"booking":27,"acc_booking":6284,"fulfillment":27,"acc_fulfillment":5447,"transfer_cost":0.0,"port_name":"Melbourne","position":{"lat":-37.840935,"lng":144.946457},"status":"surplus"},{"frame_index":505,"name":"ports_7","capacity":10000,"empty":1853,"full":345,"on_shipper":52,"on_consignee":0,"shortage":0,"acc_shortage":0,"booking":27,"acc_booking":6285,"fulfillment":27,"acc_fulfillment":6285,"transfer_cost":0.0,"port_name":"Montreal","position":{"lat":45.516136,"lng":-73.65683},"status":"surplus"},{"frame_index":505,"name":"ports_8","capacity":10000,"empty":1117,"full":123,"on_shipper":106,"on_consignee":0,"shortage":0,"acc_shortage":0,"booking":57,"acc_booking":12273,"fulfillment":57,"acc_fulfillment":12273,"transfer_cost":0.0,"port_name":"New York","position":{"lat":40.73061,"lng":-73.935242},"status":"surplus"},{"frame_index":505,"name":"ports_9","capacity":10000,"empty":1278,"full":479,"on_shipper":82,"on_consignee":0,"shortage":0,"acc_shortage":45,"booking":61,"acc_booking":12278,"fulfillment":61,"acc_fulfillment":12233,"transfer_cost":0.0,"port_name":"Oakland","position":{"lat":37.804363,"lng":-122.271111},"status":"surplus"},{"frame_index":505,"name":"ports_10","capacity":10000,"empty":0,"full":492,"on_shipper":0,"on_consignee":0,"shortage":26,"acc_shortage":256,"booking":26,"acc_booking":6293,"fulfillment":0,"acc_fulfillment":6037,"transfer_cost":0.0,"port_name":"Prince Rupert","position":{"lat":54.312519,"lng":-130.305405},"status":"demand"},{"frame_index":505,"name":"ports_11","capacity":10000,"empty":2209,"full":1628,"on_shipper":133,"on_consignee":0,"shortage":0,"acc_shortage":204,"booking":111,"acc_booking":24340,"fulfillment":111,"acc_fulfillment":24136,"transfer_cost":0.0,"port_name":"Pusan","position":{"lat":35.166668,"lng":129.066666},"status":"surplus"},{"frame_index":505,"name":"ports_12","capacity":10000,"empty":3143,"full":2057,"on_shipper":191,"on_consignee":0,"shortage":0,"acc_shortage":0,"booking":152,"acc_booking":32562,"fulfillment":152,"acc_fulfillment":32562,"transfer_cost":0.0,"port_name":"Qingdao","position":{"lat":36.066898,"lng":120.382698},"status":"surplus"},{"frame_index":505,"name":"ports_13","capacity":10000,"empty":379,"full":267,"on_shipper":25,"on_consignee":0,"shortage":0,"acc_shortage":286,"booking":19,"acc_booking":4267,"fulfillment":19,"acc_fulfillment":3981,"transfer_cost":0.0,"port_name":"San Antonio","position":{"lat":29.424349,"lng":-98.491142},"status":"surplus"},{"frame_index":505,"name":"ports_14","capacity":10000,"empty":0,"full":430,"on_shipper":0,"on_consignee":0,"shortage":17,"acc_shortage":740,"booking":17,"acc_booking":4299,"fulfillment":0,"acc_fulfillment":3559,"transfer_cost":0.0,"port_name":"Santos","position":{"lat":-23.96083,"lng":-46.33361},"status":"demand"},{"frame_index":505,"name":"ports_15","capacity":10000,"empty":4288,"full":375,"on_shipper":150,"on_consignee":0,"shortage":0,"acc_shortage":0,"booking":126,"acc_booking":28406,"fulfillment":126,"acc_fulfillment":28406,"transfer_cost":0.0,"port_name":"Seattle","position":{"lat":47.608013,"lng":-122.335167},"status":"surplus"},{"frame_index":505,"name":"ports_16","capacity":10000,"empty":359,"full":1477,"on_shipper":270,"on_consignee":249,"shortage":0,"acc_shortage":70,"booking":180,"acc_booking":40514,"fulfillment":180,"acc_fulfillment":40444,"transfer_cost":0.0,"port_name":"Shanghai","position":{"lat":31.224361,"lng":121.46917},"status":"demand"},{"frame_index":505,"name":"ports_17","capacity":10000,"empty":1481,"full":697,"on_shipper":101,"on_consignee":151,"shortage":0,"acc_shortage":40,"booking":71,"acc_booking":16368,"fulfillment":71,"acc_fulfillment":16328,"transfer_cost":0.0,"port_name":"Singapore","position":{"lat":1.29027,"lng":103.851959},"status":"surplus"},{"frame_index":505,"name":"ports_18","capacity":10000,"empty":210,"full":594,"on_shipper":25,"on_consignee":0,"shortage":0,"acc_shortage":774,"booking":25,"acc_booking":6254,"fulfillment":25,"acc_fulfillment":5480,"transfer_cost":0.0,"port_name":"Sydney","position":{"lat":-33.865143,"lng":151.2099},"status":"surplus"},{"frame_index":505,"name":"ports_19","capacity":10000,"empty":434,"full":525,"on_shipper":52,"on_consignee":0,"shortage":0,"acc_shortage":0,"booking":37,"acc_booking":8357,"fulfillment":37,"acc_fulfillment":8357,"transfer_cost":0.0,"port_name":"Vancouver","position":{"lat":49.246292,"lng":-123.116226},"status":"surplus"},{"frame_index":505,"name":"ports_20","capacity":10000,"empty":822,"full":1345,"on_shipper":241,"on_consignee":0,"shortage":0,"acc_shortage":350,"booking":137,"acc_booking":28201,"fulfillment":137,"acc_fulfillment":27851,"transfer_cost":0.0,"port_name":"Yantian","position":{"lat":26.8533,"lng":119.8575},"status":"surplus"},{"frame_index":505,"name":"ports_21","capacity":10000,"empty":970,"full":1874,"on_shipper":170,"on_consignee":0,"shortage":0,"acc_shortage":2740,"booking":132,"acc_booking":26889,"fulfillment":132,"acc_fulfillment":24149,"transfer_cost":0.0,"port_name":"Yokohama","position":{"lat":35.443707,"lng":139.638031},"status":"surplus"}]