[{"frame_index":470,"name":"ports_0","capacity":10000,"empty":1884,"full":236,"on_shipper":75,"on_consignee":1894,"shortage":0,"acc_shortage":522,"booking":58,"acc_booking":58343,"fulfillment":58,"acc_fulfillment":57821,"transfer_cost":765.0,"port_name":"Bremerhaven","position":{"lat":53.549999,"lng":8.583333},"status":"surplus"},{"frame_index":470,"name":"ports_1","capacity":10000,"empty":233,"full":179,"on_shipper":7,"on_consignee":0,"shortage":0,"acc_shortage":0,"booking":5,"acc_booking":3918,"fulfillment":5,"acc_fulfillment":3918,"transfer_cost":0.0,"port_name":"Durban","position":{"lat":-29.8579,"lng":31.0292},"status":"surplus"},{"frame_index":470,"name":"ports_2","capacity":10000,"empty":949,"full":39,"on_shipper":5,"on_consignee":0,"shortage":0,"acc_shortage":233,"booking":4,"acc_booking":3892,"fulfillment":4,"acc_fulfillment":3659,"transfer_cost":0.0,"port_name":"Itagual","position":{"lat":-22.85222,"lng":-43.77528},"status":"surplus"},{"frame_index":470,"name":"ports_3","capacity":10000,"empty":842,"full":262,"on_shipper":37,"on_consignee":973,"shortage":0,"acc_shortage":0,"booking":25,"acc_booking":22205,"fulfillment":25,"acc_fulfillment":22205,"transfer_cost":0.0,"port_name":"LeHavre","position":{"lat":49.490002,"lng":0.1},"status":"surplus"},{"frame_index":470,"name":"ports_4","capacity":10000,"empty":1436,"full":414,"on_shipper":26,"on_consignee":0,"shortage":0,"acc_shortage":0,"booking":21,"acc_booking":18558,"fulfillment":21,"acc_fulfillment":18558,"transfer_cost":0.0,"port_name":"Los Angeles","position":{"lat":34.052235,"lng":-118.243683},"status":"surplus"},{"frame_index":470,"name":"ports_5","capacity":10000,"empty":1789,"full":292,"on_shipper":36,"on_consignee":0,"shortage":0,"acc_shortage":123,"booking":21,"acc_booking":18638,"fulfillment":21,"acc_fulfillment":18515,"transfer_cost":0.0,"port_name":"Manzanillo","position":{"lat":19.11695,"lng":-104.34214},"status":"surplus"},{"frame_index":470,"name":"ports_6","capacity":10000,"empty":112,"full":398,"on_shipper":13,"on_consignee":0,"shortage":0,"acc_shortage":819,"booking":6,"acc_booking":5719,"fulfillment":6,"acc_fulfillment":4900,"transfer_cost":0.0,"port_name":"Melbourne","position":{"lat":-37.840935,"lng":144.946457},"status":"surplus"},{"frame_index":470,"name":"ports_7","capacity":10000,"empty":1501,"full":341,"on_shipper":12,"on_consignee":0,"shortage":0,"acc_shortage":0,"booking":6,"acc_booking":5722,"fulfillment":6,"acc_fulfillment":5722,"transfer_cost":0.0,"port_name":"Montreal","position":{"lat":45.516136,"lng":-73.65683},"status":"surplus"},{"frame_index":470,"name":"ports_8","capacity":10000,"empty":3467,"full":254,"on_shipper":12,"on_consignee":0,"shortage":0,"acc_shortage":0,"booking":12,"acc_booking":11162,"fulfillment":12,"acc_fulfillment":11162,"transfer_cost":0.0,"port_name":"New York","position":{"lat":40.73061,"lng":-73.935242},"status":"surplus"},{"frame_index":470,"name":"ports_9","capacity":10000,"empty":2732,"full":78,"on_shipper":24,"on_consignee":0,"shortage":0,"acc_shortage":45,"booking":13,"acc_booking":11179,"fulfillment":13,"acc_fulfillment":11134,"transfer_cost":0.0,"port_name":"Oakland","position":{"lat":37.804363,"lng":-122.271111},"status":"surplus"},{"frame_index":470,"name":"ports_10","capacity":10000,"empty":319,"full":163,"on_shipper":10,"on_consignee":0,"shortage":0,"acc_shortage":0,"booking":6,"acc_booking":5718,"fulfillment":6,"acc_fulfillment":5718,"transfer_cost":0.0,"port_name":"Prince Rupert","position":{"lat":54.312519,"lng":-130.305405},"status":"surplus"},{"frame_index":470,"name":"ports_11","capacity":10000,"empty":2637,"full":164,"on_shipper":41,"on_consignee":297,"shortage":0,"acc_shortage":204,"booking":25,"acc_booking":22139,"fulfillment":25,"acc_fulfillment":21935,"transfer_cost":0.0,"port_name":"Pusan","position":{"lat":35.166668,"lng":129.066666},"status":"surplus"},{"frame_index":470,"name":"ports_12","capacity":10000,"empty":2917,"full":1210,"on_shipper":46,"on_consignee":37,"shortage":0,"acc_shortage":0,"booking":32,"acc_booking":29594,"fulfillment":32,"acc_fulfillment":29594,"transfer_cost":0.0,"port_name":"Qingdao","position":{"lat":36.066898,"lng":120.382698},"status":"surplus"},{"frame_index":470,"name":"ports_13","capacity":10000,"empty":505,"full":110,"on_shipper":6,"on_consignee":0,"shortage":0,"acc_shortage":286,"booking":5,"acc_booking":3885,"fulfillment":5,"acc_fulfillment":3599,"transfer_cost":0.0,"port_name":"San Antonio","position":{"lat":29.424349,"lng":-98.491142},"status":"surplus"},{"frame_index":470,"name":"ports_14","capacity":10000,"empty":329,"full":95,"on_shipper":6,"on_consignee":0,"shortage":0,"acc_shortage":697,"booking":4,"acc_booking":3927,"fulfillment":4,"acc_fulfillment":3230,"transfer_cost":0.0,"port_name":"Santos","position":{"lat":-23.96083,"lng":-46.33361},"status":"surplus"},{"frame_index":470,"name":"ports_15","capacity":10000,"empty":3975,"full":580,"on_shipper":40,"on_consignee":0,"shortage":0,"acc_shortage":0,"booking":28,"acc_booking":25851,"fulfillment":28,"acc_fulfillment":25851,"transfer_cost":0.0,"port_name":"Seattle","position":{"lat":47.608013,"lng":-122.335167},"status":"surplus"},{"frame_index":470,"name":"ports_16","capacity":10000,"empty":1566,"full":681,"on_shipper":66,"on_consignee":58,"shortage":0,"acc_shortage":0,"booking":36,"acc_booking":36902,"fulfillment":36,"acc_fulfillment":36902,"transfer_cost":139.0,"port_name":"Shanghai","position":{"lat":31.224361,"lng":121.46917},"status":"surplus"},{"frame_index":470,"name":"ports_17","capacity":10000,"empty":1583,"full":293,"on_shipper":22,"on_consignee":0,"shortage":0,"acc_shortage":40,"booking":16,"acc_booking":14889,"fulfillment":16,"acc_fulfillment":14849,"transfer_cost":0.0,"port_name":"Singapore","position":{"lat":1.29027,"lng":103.851959},"status":"surplus"},{"frame_index":470,"name":"ports_18","capacity":10000,"empty":780,"full":41,"on_shipper":8,"on_consignee":0,"shortage":0,"acc_shortage":774,"booking":6,"acc_booking":5684,"fulfillment":6,"acc_fulfillment":4910,"transfer_cost":0.0,"port_name":"Sydney","position":{"lat":-33.865143,"lng":151.2099},"status":"surplus"},{"frame_index":470,"name":"ports_19","capacity":10000,"empty":864,"full":233,"on_shipper":12,"on_consignee":0,"shortage":0,"acc_shortage":0,"booking":8,"acc_booking":7599,"fulfillment":8,"acc_fulfillment":7599,"transfer_cost":0.0,"port_name":"Vancouver","position":{"lat":49.246292,"lng":-123.116226},"status":"surplus"},{"frame_index":470,"name":"ports_20","capacity":10000,"empty":1930,"full":373,"on_shipper":38,"on_consignee":6,"shortage":0,"acc_shortage":350,"booking":28,"acc_booking":25589,"fulfillment":28,"acc_fulfillment":25239,"transfer_cost":233.0,"port_name":"Yantian","position":{"lat":26.8533,"lng":119.8575},"status":"surplus"},{"frame_index":470,"name":"ports_21","capacity":10000,"empty":291,"full":1380,"on_shipper":34,"on_consignee":0,"shortage":0,"acc_shortage":2740,"booking":22,"acc_booking":24335,"fulfillment":22,"acc_fulfillment":21595,"transfer_cost":0.0,"port_name":"Yokohama","position":{"lat":35.443707,"lng":139.638031},"status":"surplus"}]