[{"frame_index":1056,"name":"ports_0","capacity":10000,"empty":4353,"full":2304,"on_shipper":301,"on_consignee":0,"shortage":0,"acc_shortage":861,"booking":131,"acc_booking":135412,"fulfillment":131,"acc_fulfillment":134551,"transfer_cost":0.0,"port_name":"Bremerhaven","position":{"lat":53.549999,"lng":8.583333},"status":"surplus"},{"frame_index":1056,"name":"ports_1","capacity":10000,"empty":502,"full":71,"on_shipper":16,"on_consignee":35,"shortage":0,"acc_shortage":113,"booking":8,"acc_booking":8994,"fulfillment":8,"acc_fulfillment":8881,"transfer_cost":0.0,"port_name":"Durban","position":{"lat":-29.8579,"lng":31.0292},"status":"surplus"},{"frame_index":1056,"name":"ports_2","capacity":10000,"empty":595,"full":155,"on_shipper":12,"on_consignee":0,"shortage":0,"acc_shortage":298,"booking":9,"acc_booking":8960,"fulfillment":9,"acc_fulfillment":8662,"transfer_cost":0.0,"port_name":"Itagual","position":{"lat":-22.85222,"lng":-43.77528},"status":"surplus"},{"frame_index":1056,"name":"ports_3","capacity":10000,"empty":5840,"full":1298,"on_shipper":103,"on_consignee":0,"shortage":0,"acc_shortage":0,"booking":48,"acc_booking":51181,"fulfillment":48,"acc_fulfillment":51181,"transfer_cost":0.0,"port_name":"LeHavre","position":{"lat":49.490002,"lng":0.1},"status":"surplus"},{"frame_index":1056,"name":"ports_4","capacity":10000,"empty":2147,"full":999,"on_shipper":66,"on_consignee":0,"shortage":0,"acc_shortage":290,"booking":41,"acc_booking":42866,"fulfillment":41,"acc_fulfillment":42576,"transfer_cost":0.0,"port_name":"Los Angeles","position":{"lat":34.052235,"lng":-118.243683},"status":"surplus"},{"frame_index":1056,"name":"ports_5","capacity":10000,"empty":1352,"full":1038,"on_shipper":69,"on_consignee":0,"shortage":0,"acc_shortage":194,"booking":36,"acc_booking":42898,"fulfillment":36,"acc_fulfillment":42704,"transfer_cost":0.0,"port_name":"Manzanillo","position":{"lat":19.11695,"lng":-104.34214},"status":"surplus"},{"frame_index":1056,"name":"ports_6","capacity":10000,"empty":434,"full":161,"on_shipper":13,"on_consignee":0,"shortage":0,"acc_shortage":2108,"booking":13,"acc_booking":13202,"fulfillment":13,"acc_fulfillment":11094,"transfer_cost":0.0,"port_name":"Melbourne","position":{"lat":-37.840935,"lng":144.946457},"status":"surplus"},{"frame_index":1056,"name":"ports_7","capacity":10000,"empty":1569,"full":132,"on_shipper":19,"on_consignee":0,"shortage":0,"acc_shortage":0,"booking":12,"acc_booking":13205,"fulfillment":12,"acc_fulfillment":13205,"transfer_cost":0.0,"port_name":"Montreal","position":{"lat":45.516136,"lng":-73.65683},"status":"surplus"},{"frame_index":1056,"name":"ports_8","capacity":10000,"empty":5809,"full":104,"on_shipper":39,"on_consignee":0,"shortage":0,"acc_shortage":136,"booking":26,"acc_booking":25805,"fulfillment":26,"acc_fulfillment":25669,"transfer_cost":0.0,"port_name":"New York","position":{"lat":40.73061,"lng":-73.935242},"status":"surplus"},{"frame_index":1056,"name":"ports_9","capacity":10000,"empty":878,"full":914,"on_shipper":54,"on_consignee":0,"shortage":0,"acc_shortage":45,"booking":26,"acc_booking":25844,"fulfillment":26,"acc_fulfillment":25799,"transfer_cost":0.0,"port_name":"Oakland","position":{"lat":37.804363,"lng":-122.271111},"status":"surplus"},{"frame_index":1056,"name":"ports_10","capacity":10000,"empty":1442,"full":21,"on_shipper":18,"on_consignee":299,"shortage":0,"acc_shortage":314,"booking":13,"acc_booking":13200,"fulfillment":13,"acc_fulfillment":12886,"transfer_cost":0.0,"port_name":"Prince Rupert","position":{"lat":54.312519,"lng":-130.305405},"status":"surplus"},{"frame_index":1056,"name":"ports_11","capacity":10000,"empty":1465,"full":2539,"on_shipper":82,"on_consignee":0,"shortage":0,"acc_shortage":204,"booking":48,"acc_booking":51127,"fulfillment":48,"acc_fulfillment":50923,"transfer_cost":0.0,"port_name":"Pusan","position":{"lat":35.166668,"lng":129.066666},"status":"surplus"},{"frame_index":1056,"name":"ports_12","capacity":10000,"empty":4159,"full":1377,"on_shipper":112,"on_consignee":0,"shortage":0,"acc_shortage":0,"booking":70,"acc_booking":68339,"fulfillment":70,"acc_fulfillment":68339,"transfer_cost":0.0,"port_name":"Qingdao","position":{"lat":36.066898,"lng":120.382698},"status":"surplus"},{"frame_index":1056,"name":"ports_13","capacity":10000,"empty":441,"full":105,"on_shipper":18,"on_consignee":0,"shortage":0,"acc_shortage":459,"booking":9,"acc_booking":8961,"fulfillment":9,"acc_fulfillment":8502,"transfer_cost":0.0,"port_name":"San Antonio","position":{"lat":29.424349,"lng":-98.491142},"status":"surplus"},{"frame_index":1056,"name":"ports_14","capacity":10000,"empty":22,"full":346,"on_shipper":10,"on_consignee":0,"shortage":0,"acc_shortage":877,"booking":7,"acc_booking":9017,"fulfillment":7,"acc_fulfillment":8140,"transfer_cost":0.0,"port_name":"Santos","position":{"lat":-23.96083,"lng":-46.33361},"status":"balance"},{"frame_index":1056,"name":"ports_15","capacity":10000,"empty":2299,"full":557,"on_shipper":103,"on_consignee":364,"shortage":0,"acc_shortage":1489,"booking":58,"acc_booking":59692,"fulfillment":58,"acc_fulfillment":58203,"transfer_cost":0.0,"port_name":"Seattle","position":{"lat":47.608013,"lng":-122.335167},"status":"surplus"},{"frame_index":1056,"name":"ports_16","capacity":10000,"empty":2931,"full":2078,"on_shipper":145,"on_consignee":17,"shortage":0,"acc_shortage":817,"booking":74,"acc_booking":85122,"fulfillment":74,"acc_fulfillment":84305,"transfer_cost":0.0,"port_name":"Shanghai","position":{"lat":31.224361,"lng":121.46917},"status":"surplus"},{"frame_index":1056,"name":"ports_17","capacity":10000,"empty":2662,"full":1104,"on_shipper":53,"on_consignee":34,"shortage":0,"acc_shortage":619,"booking":33,"acc_booking":34372,"fulfillment":33,"acc_fulfillment":33753,"transfer_cost":0.0,"port_name":"Singapore","position":{"lat":1.29027,"lng":103.851959},"status":"surplus"},{"frame_index":1056,"name":"ports_18","capacity":10000,"empty":516,"full":449,"on_shipper":19,"on_consignee":0,"shortage":0,"acc_shortage":1374,"booking":13,"acc_booking":13193,"fulfillment":13,"acc_fulfillment":11819,"transfer_cost":0.0,"port_name":"Sydney","position":{"lat":-33.865143,"lng":151.2099},"status":"surplus"},{"frame_index":1056,"name":"ports_19","capacity":10000,"empty":1232,"full":454,"on_shipper":25,"on_consignee":0,"shortage":0,"acc_shortage":0,"booking":17,"acc_booking":17470,"fulfillment":17,"acc_fulfillment":17470,"transfer_cost":0.0,"port_name":"Vancouver","position":{"lat":49.246292,"lng":-123.116226},"status":"surplus"},{"frame_index":1056,"name":"ports_20","capacity":10000,"empty":811,"full":1455,"on_shipper":88,"on_consignee":0,"shortage":0,"acc_shortage":1425,"booking":58,"acc_booking":59417,"fulfillment":58,"acc_fulfillment":57992,"transfer_cost":0.0,"port_name":"Yantian","position":{"lat":26.8533,"lng":119.8575},"status":"surplus"},{"frame_index":1056,"name":"ports_21","capacity":10000,"empty":711,"full":389,"on_shipper":78,"on_consignee":0,"shortage":0,"acc_shortage":8488,"booking":52,"acc_booking":56524,"fulfillment":52,"acc_fulfillment":48036,"transfer_cost":0.0,"port_name":"Yokohama","position":{"lat":35.443707,"lng":139.638031},"status":"surplus"}]