[{"frame_index":417,"name":"ports_0","capacity":10000,"empty":3364,"full":1587,"on_shipper":239,"on_consignee":0,"shortage":0,"acc_shortage":522,"booking":145,"acc_booking":54033,"fulfillment":145,"acc_fulfillment":53511,"transfer_cost":0.0,"port_name":"Bremerhaven","position":{"lat":53.549999,"lng":8.583333},"status":"surplus"},{"frame_index":417,"name":"ports_1","capacity":10000,"empty":153,"full":326,"on_shipper":15,"on_consignee":0,"shortage":0,"acc_shortage":0,"booking":10,"acc_booking":3623,"fulfillment":10,"acc_fulfillment":3623,"transfer_cost":0.0,"port_name":"Durban","position":{"lat":-29.8579,"lng":31.0292},"status":"surplus"},{"frame_index":417,"name":"ports_2","capacity":10000,"empty":547,"full":416,"on_shipper":13,"on_consignee":0,"shortage":0,"acc_shortage":233,"booking":9,"acc_booking":3593,"fulfillment":9,"acc_fulfillment":3360,"transfer_cost":0.0,"port_name":"Itagual","position":{"lat":-22.85222,"lng":-43.77528},"status":"surplus"},{"frame_index":417,"name":"ports_3","capacity":10000,"empty":1094,"full":252,"on_shipper":70,"on_consignee":281,"shortage":0,"acc_shortage":0,"booking":55,"acc_booking":20564,"fulfillment":55,"acc_fulfillment":20564,"transfer_cost":46.0,"port_name":"LeHavre","position":{"lat":49.490002,"lng":0.1},"status":"surplus"},{"frame_index":417,"name":"ports_4","capacity":10000,"empty":931,"full":2482,"on_shipper":70,"on_consignee":0,"shortage":0,"acc_shortage":0,"booking":45,"acc_booking":17189,"fulfillment":45,"acc_fulfillment":17189,"transfer_cost":0.0,"port_name":"Los Angeles","position":{"lat":34.052235,"lng":-118.243683},"status":"surplus"},{"frame_index":417,"name":"ports_5","capacity":10000,"empty":1810,"full":111,"on_shipper":59,"on_consignee":0,"shortage":0,"acc_shortage":123,"booking":47,"acc_booking":17258,"fulfillment":47,"acc_fulfillment":17135,"transfer_cost":0.0,"port_name":"Manzanillo","position":{"lat":19.11695,"lng":-104.34214},"status":"surplus"},{"frame_index":417,"name":"ports_6","capacity":10000,"empty":228,"full":44,"on_shipper":23,"on_consignee":173,"shortage":0,"acc_shortage":819,"booking":14,"acc_booking":5291,"fulfillment":14,"acc_fulfillment":4472,"transfer_cost":0.0,"port_name":"Melbourne","position":{"lat":-37.840935,"lng":144.946457},"status":"surplus"},{"frame_index":417,"name":"ports_7","capacity":10000,"empty":1794,"full":926,"on_shipper":18,"on_consignee":0,"shortage":0,"acc_shortage":0,"booking":14,"acc_booking":5291,"fulfillment":14,"acc_fulfillment":5291,"transfer_cost":0.0,"port_name":"Montreal","position":{"lat":45.516136,"lng":-73.65683},"status":"surplus"},{"frame_index":417,"name":"ports_8","capacity":10000,"empty":2000,"full":8,"on_shipper":38,"on_consignee":0,"shortage":0,"acc_shortage":0,"booking":28,"acc_booking":10331,"fulfillment":28,"acc_fulfillment":10331,"transfer_cost":0.0,"port_name":"New York","position":{"lat":40.73061,"lng":-73.935242},"status":"surplus"},{"frame_index":417,"name":"ports_9","capacity":10000,"empty":690,"full":967,"on_shipper":40,"on_consignee":0,"shortage":0,"acc_shortage":0,"booking":29,"acc_booking":10336,"fulfillment":29,"acc_fulfillment":10336,"transfer_cost":0.0,"port_name":"Oakland","position":{"lat":37.804363,"lng":-122.271111},"status":"surplus"},{"frame_index":417,"name":"ports_10","capacity":10000,"empty":420,"full":1077,"on_shipper":18,"on_consignee":0,"shortage":0,"acc_shortage":0,"booking":16,"acc_booking":5283,"fulfillment":16,"acc_fulfillment":5283,"transfer_cost":0.0,"port_name":"Prince Rupert","position":{"lat":54.312519,"lng":-130.305405},"status":"surplus"},{"frame_index":417,"name":"ports_11","capacity":10000,"empty":356,"full":1187,"on_shipper":70,"on_consignee":0,"shortage":0,"acc_shortage":204,"booking":56,"acc_booking":20505,"fulfillment":56,"acc_fulfillment":20301,"transfer_cost":0.0,"port_name":"Pusan","position":{"lat":35.166668,"lng":129.066666},"status":"surplus"},{"frame_index":417,"name":"ports_12","capacity":10000,"empty":2723,"full":755,"on_shipper":79,"on_consignee":0,"shortage":0,"acc_shortage":0,"booking":66,"acc_booking":27416,"fulfillment":66,"acc_fulfillment":27416,"transfer_cost":0.0,"port_name":"Qingdao","position":{"lat":36.066898,"lng":120.382698},"status":"surplus"},{"frame_index":417,"name":"ports_13","capacity":10000,"empty":16,"full":532,"on_shipper":12,"on_consignee":0,"shortage":0,"acc_shortage":123,"booking":9,"acc_booking":3590,"fulfillment":9,"acc_fulfillment":3467,"transfer_cost":0.0,"port_name":"San Antonio","position":{"lat":29.424349,"lng":-98.491142},"status":"balance"},{"frame_index":417,"name":"ports_14","capacity":10000,"empty":698,"full":132,"on_shipper":12,"on_consignee":0,"shortage":0,"acc_shortage":697,"booking":9,"acc_booking":3634,"fulfillment":9,"acc_fulfillment":2937,"transfer_cost":0.0,"port_name":"Santos","position":{"lat":-23.96083,"lng":-46.33361},"status":"surplus"},{"frame_index":417,"name":"ports_15","capacity":10000,"empty":2988,"full":1474,"on_shipper":80,"on_consignee":0,"shortage":0,"acc_shortage":0,"booking":65,"acc_booking":23943,"fulfillment":65,"acc_fulfillment":23943,"transfer_cost":0.0,"port_name":"Seattle","position":{"lat":47.608013,"lng":-122.335167},"status":"surplus"},{"frame_index":417,"name":"ports_16","capacity":10000,"empty":641,"full":899,"on_shipper":131,"on_consignee":434,"shortage":0,"acc_shortage":0,"booking":80,"acc_booking":34195,"fulfillment":80,"acc_fulfillment":34195,"transfer_cost":365.0,"port_name":"Shanghai","position":{"lat":31.224361,"lng":121.46917},"status":"surplus"},{"frame_index":417,"name":"ports_17","capacity":10000,"empty":2072,"full":1000,"on_shipper":43,"on_consignee":167,"shortage":0,"acc_shortage":40,"booking":36,"acc_booking":13793,"fulfillment":36,"acc_fulfillment":13753,"transfer_cost":0.0,"port_name":"Singapore","position":{"lat":1.29027,"lng":103.851959},"status":"surplus"},{"frame_index":417,"name":"ports_18","capacity":10000,"empty":0,"full":382,"on_shipper":0,"on_consignee":0,"shortage":12,"acc_shortage":458,"booking":12,"acc_booking":5261,"fulfillment":0,"acc_fulfillment":4803,"transfer_cost":0.0,"port_name":"Sydney","position":{"lat":-33.865143,"lng":151.2099},"status":"demand"},{"frame_index":417,"name":"ports_19","capacity":10000,"empty":284,"full":775,"on_shipper":28,"on_consignee":0,"shortage":0,"acc_shortage":0,"booking":19,"acc_booking":7033,"fulfillment":19,"acc_fulfillment":7033,"transfer_cost":0.0,"port_name":"Vancouver","position":{"lat":49.246292,"lng":-123.116226},"status":"surplus"},{"frame_index":417,"name":"ports_20","capacity":10000,"empty":708,"full":936,"on_shipper":89,"on_consignee":284,"shortage":0,"acc_shortage":350,"booking":67,"acc_booking":23706,"fulfillment":67,"acc_fulfillment":23356,"transfer_cost":4.0,"port_name":"Yantian","position":{"lat":26.8533,"lng":119.8575},"status":"surplus"},{"frame_index":417,"name":"ports_21","capacity":10000,"empty":222,"full":568,"on_shipper":71,"on_consignee":0,"shortage":0,"acc_shortage":2444,"booking":58,"acc_booking":22748,"fulfillment":58,"acc_fulfillment":20304,"transfer_cost":0.0,"port_name":"Yokohama","position":{"lat":35.443707,"lng":139.638031},"status":"demand"}]