[{"frame_index":955,"name":"ports_0","capacity":10000,"empty":514,"full":5683,"on_shipper":311,"on_consignee":0,"shortage":0,"acc_shortage":522,"booking":249,"acc_booking":123254,"fulfillment":249,"acc_fulfillment":122732,"transfer_cost":0.0,"port_name":"Bremerhaven","position":{"lat":53.549999,"lng":8.583333},"status":"demand"},{"frame_index":955,"name":"ports_1","capacity":10000,"empty":308,"full":24,"on_shipper":24,"on_consignee":168,"shortage":0,"acc_shortage":113,"booking":19,"acc_booking":8191,"fulfillment":19,"acc_fulfillment":8078,"transfer_cost":0.0,"port_name":"Durban","position":{"lat":-29.8579,"lng":31.0292},"status":"surplus"},{"frame_index":955,"name":"ports_2","capacity":10000,"empty":477,"full":329,"on_shipper":31,"on_consignee":0,"shortage":0,"acc_shortage":298,"booking":20,"acc_booking":8151,"fulfillment":20,"acc_fulfillment":7853,"transfer_cost":0.0,"port_name":"Itagual","position":{"lat":-22.85222,"lng":-43.77528},"status":"surplus"},{"frame_index":955,"name":"ports_3","capacity":10000,"empty":3094,"full":771,"on_shipper":149,"on_consignee":0,"shortage":0,"acc_shortage":0,"booking":113,"acc_booking":46627,"fulfillment":113,"acc_fulfillment":46627,"transfer_cost":0.0,"port_name":"LeHavre","position":{"lat":49.490002,"lng":0.1},"status":"surplus"},{"frame_index":955,"name":"ports_4","capacity":10000,"empty":1655,"full":1823,"on_shipper":133,"on_consignee":0,"shortage":0,"acc_shortage":290,"booking":92,"acc_booking":39048,"fulfillment":92,"acc_fulfillment":38758,"transfer_cost":0.0,"port_name":"Los Angeles","position":{"lat":34.052235,"lng":-118.243683},"status":"surplus"},{"frame_index":955,"name":"ports_5","capacity":10000,"empty":974,"full":448,"on_shipper":127,"on_consignee":0,"shortage":0,"acc_shortage":163,"booking":79,"acc_booking":39112,"fulfillment":79,"acc_fulfillment":38949,"transfer_cost":0.0,"port_name":"Manzanillo","position":{"lat":19.11695,"lng":-104.34214},"status":"surplus"},{"frame_index":955,"name":"ports_6","capacity":10000,"empty":41,"full":562,"on_shipper":37,"on_consignee":0,"shortage":0,"acc_shortage":1855,"booking":28,"acc_booking":12017,"fulfillment":28,"acc_fulfillment":10162,"transfer_cost":0.0,"port_name":"Melbourne","position":{"lat":-37.840935,"lng":144.946457},"status":"demand"},{"frame_index":955,"name":"ports_7","capacity":10000,"empty":1342,"full":171,"on_shipper":43,"on_consignee":0,"shortage":0,"acc_shortage":0,"booking":28,"acc_booking":12028,"fulfillment":28,"acc_fulfillment":12028,"transfer_cost":0.0,"port_name":"Montreal","position":{"lat":45.516136,"lng":-73.65683},"status":"surplus"},{"frame_index":955,"name":"ports_8","capacity":10000,"empty":1009,"full":683,"on_shipper":77,"on_consignee":0,"shortage":0,"acc_shortage":136,"booking":54,"acc_booking":23502,"fulfillment":54,"acc_fulfillment":23366,"transfer_cost":0.0,"port_name":"New York","position":{"lat":40.73061,"lng":-73.935242},"status":"surplus"},{"frame_index":955,"name":"ports_9","capacity":10000,"empty":943,"full":860,"on_shipper":72,"on_consignee":0,"shortage":0,"acc_shortage":45,"booking":58,"acc_booking":23536,"fulfillment":58,"acc_fulfillment":23491,"transfer_cost":0.0,"port_name":"Oakland","position":{"lat":37.804363,"lng":-122.271111},"status":"surplus"},{"frame_index":955,"name":"ports_10","capacity":10000,"empty":1449,"full":16,"on_shipper":60,"on_consignee":95,"shortage":0,"acc_shortage":314,"booking":31,"acc_booking":12049,"fulfillment":31,"acc_fulfillment":11735,"transfer_cost":0.0,"port_name":"Prince Rupert","position":{"lat":54.312519,"lng":-130.305405},"status":"surplus"},{"frame_index":955,"name":"ports_11","capacity":10000,"empty":2876,"full":836,"on_shipper":143,"on_consignee":0,"shortage":0,"acc_shortage":204,"booking":111,"acc_booking":46572,"fulfillment":111,"acc_fulfillment":46368,"transfer_cost":0.0,"port_name":"Pusan","position":{"lat":35.166668,"lng":129.066666},"status":"surplus"},{"frame_index":955,"name":"ports_12","capacity":10000,"empty":3693,"full":1743,"on_shipper":229,"on_consignee":0,"shortage":0,"acc_shortage":0,"booking":162,"acc_booking":62272,"fulfillment":162,"acc_fulfillment":62272,"transfer_cost":0.0,"port_name":"Qingdao","position":{"lat":36.066898,"lng":120.382698},"status":"surplus"},{"frame_index":955,"name":"ports_13","capacity":10000,"empty":114,"full":272,"on_shipper":27,"on_consignee":0,"shortage":0,"acc_shortage":449,"booking":21,"acc_booking":8158,"fulfillment":21,"acc_fulfillment":7709,"transfer_cost":0.0,"port_name":"San Antonio","position":{"lat":29.424349,"lng":-98.491142},"status":"balance"},{"frame_index":955,"name":"ports_14","capacity":10000,"empty":641,"full":48,"on_shipper":22,"on_consignee":0,"shortage":0,"acc_shortage":876,"booking":18,"acc_booking":8214,"fulfillment":18,"acc_fulfillment":7338,"transfer_cost":0.0,"port_name":"Santos","position":{"lat":-23.96083,"lng":-46.33361},"status":"surplus"},{"frame_index":955,"name":"ports_15","capacity":10000,"empty":0,"full":1103,"on_shipper":67,"on_consignee":43,"shortage":64,"acc_shortage":640,"booking":131,"acc_booking":54395,"fulfillment":67,"acc_fulfillment":53755,"transfer_cost":0.0,"port_name":"Seattle","position":{"lat":47.608013,"lng":-122.335167},"status":"demand"},{"frame_index":955,"name":"ports_16","capacity":10000,"empty":2061,"full":1007,"on_shipper":299,"on_consignee":57,"shortage":0,"acc_shortage":817,"booking":170,"acc_booking":77549,"fulfillment":170,"acc_fulfillment":76732,"transfer_cost":0.0,"port_name":"Shanghai","position":{"lat":31.224361,"lng":121.46917},"status":"surplus"},{"frame_index":955,"name":"ports_17","capacity":10000,"empty":267,"full":602,"on_shipper":108,"on_consignee":0,"shortage":0,"acc_shortage":283,"booking":75,"acc_booking":31309,"fulfillment":75,"acc_fulfillment":31026,"transfer_cost":0.0,"port_name":"Singapore","position":{"lat":1.29027,"lng":103.851959},"status":"demand"},{"frame_index":955,"name":"ports_18","capacity":10000,"empty":706,"full":87,"on_shipper":52,"on_consignee":0,"shortage":0,"acc_shortage":1374,"booking":24,"acc_booking":12034,"fulfillment":24,"acc_fulfillment":10660,"transfer_cost":0.0,"port_name":"Sydney","position":{"lat":-33.865143,"lng":151.2099},"status":"surplus"},{"frame_index":955,"name":"ports_19","capacity":10000,"empty":502,"full":1130,"on_shipper":51,"on_consignee":0,"shortage":0,"acc_shortage":0,"booking":40,"acc_booking":15925,"fulfillment":40,"acc_fulfillment":15925,"transfer_cost":0.0,"port_name":"Vancouver","position":{"lat":49.246292,"lng":-123.116226},"status":"surplus"},{"frame_index":955,"name":"ports_20","capacity":10000,"empty":1010,"full":705,"on_shipper":172,"on_consignee":348,"shortage":0,"acc_shortage":1425,"booking":113,"acc_booking":54007,"fulfillment":113,"acc_fulfillment":52582,"transfer_cost":9.0,"port_name":"Yantian","position":{"lat":26.8533,"lng":119.8575},"status":"surplus"},{"frame_index":955,"name":"ports_21","capacity":10000,"empty":1811,"full":599,"on_shipper":233,"on_consignee":0,"shortage":0,"acc_shortage":7238,"booking":138,"acc_booking":51589,"fulfillment":138,"acc_fulfillment":44351,"transfer_cost":0.0,"port_name":"Yokohama","position":{"lat":35.443707,"lng":139.638031},"status":"surplus"}]