[{"frame_index":12,"name":"ports_0","capacity":10000,"empty":15423,"full":504,"on_shipper":73,"on_consignee":0,"shortage":0,"acc_shortage":0,"booking":51,"acc_booking":577,"fulfillment":51,"acc_fulfillment":577,"transfer_cost":0.0,"port_name":"Bremerhaven","position":{"lat":53.549999,"lng":8.583333},"status":"surplus"},{"frame_index":12,"name":"ports_1","capacity":10000,"empty":959,"full":0,"on_shipper":3,"on_consignee":0,"shortage":0,"acc_shortage":0,"booking":3,"acc_booking":41,"fulfillment":3,"acc_fulfillment":41,"transfer_cost":0.0,"port_name":"Durban","position":{"lat":-29.8579,"lng":31.0292},"status":"surplus"},{"frame_index":12,"name":"ports_2","capacity":10000,"empty":960,"full":33,"on_shipper":7,"on_consignee":0,"shortage":0,"acc_shortage":0,"booking":3,"acc_booking":40,"fulfillment":3,"acc_fulfillment":40,"transfer_cost":0.0,"port_name":"Itagual","position":{"lat":-22.85222,"lng":-43.77528},"status":"surplus"},{"frame_index":12,"name":"ports_3","capacity":10000,"empty":5773,"full":89,"on_shipper":28,"on_consignee":0,"shortage":0,"acc_shortage":0,"booking":18,"acc_booking":227,"fulfillment":18,"acc_fulfillment":227,"transfer_cost":0.0,"port_name":"LeHavre","position":{"lat":49.490002,"lng":0.1},"status":"surplus"},{"frame_index":12,"name":"ports_4","capacity":10000,"empty":4809,"full":97,"on_shipper":32,"on_consignee":0,"shortage":0,"acc_shortage":0,"booking":15,"acc_booking":191,"fulfillment":15,"acc_fulfillment":191,"transfer_cost":0.0,"port_name":"Los Angeles","position":{"lat":34.052235,"lng":-118.243683},"status":"surplus"},{"frame_index":12,"name":"ports_5","capacity":10000,"empty":4814,"full":72,"on_shipper":23,"on_consignee":0,"shortage":0,"acc_shortage":0,"booking":15,"acc_booking":186,"fulfillment":15,"acc_fulfillment":186,"transfer_cost":0.0,"port_name":"Manzanillo","position":{"lat":19.11695,"lng":-104.34214},"status":"surplus"},{"frame_index":12,"name":"ports_6","capacity":10000,"empty":1438,"full":50,"on_shipper":12,"on_consignee":0,"shortage":0,"acc_shortage":0,"booking":5,"acc_booking":62,"fulfillment":5,"acc_fulfillment":62,"transfer_cost":0.0,"port_name":"Melbourne","position":{"lat":-37.840935,"lng":144.946457},"status":"surplus"},{"frame_index":12,"name":"ports_7","capacity":10000,"empty":1439,"full":56,"on_shipper":5,"on_consignee":0,"shortage":0,"acc_shortage":0,"booking":5,"acc_booking":61,"fulfillment":5,"acc_fulfillment":61,"transfer_cost":0.0,"port_name":"Montreal","position":{"lat":45.516136,"lng":-73.65683},"status":"surplus"},{"frame_index":12,"name":"ports_8","capacity":10000,"empty":2883,"full":101,"on_shipper":16,"on_consignee":0,"shortage":0,"acc_shortage":0,"booking":10,"acc_booking":117,"fulfillment":10,"acc_fulfillment":117,"transfer_cost":0.0,"port_name":"New York","position":{"lat":40.73061,"lng":-73.935242},"status":"surplus"},{"frame_index":12,"name":"ports_9","capacity":10000,"empty":2884,"full":103,"on_shipper":13,"on_consignee":0,"shortage":0,"acc_shortage":0,"booking":9,"acc_booking":116,"fulfillment":9,"acc_fulfillment":116,"transfer_cost":0.0,"port_name":"Oakland","position":{"lat":37.804363,"lng":-122.271111},"status":"surplus"},{"frame_index":12,"name":"ports_10","capacity":10000,"empty":1440,"full":54,"on_shipper":6,"on_consignee":0,"shortage":0,"acc_shortage":0,"booking":4,"acc_booking":60,"fulfillment":4,"acc_fulfillment":60,"transfer_cost":0.0,"port_name":"Prince Rupert","position":{"lat":54.312519,"lng":-130.305405},"status":"surplus"},{"frame_index":12,"name":"ports_11","capacity":10000,"empty":5769,"full":201,"on_shipper":30,"on_consignee":0,"shortage":0,"acc_shortage":0,"booking":18,"acc_booking":231,"fulfillment":18,"acc_fulfillment":231,"transfer_cost":0.0,"port_name":"Pusan","position":{"lat":35.166668,"lng":129.066666},"status":"surplus"},{"frame_index":12,"name":"ports_12","capacity":10000,"empty":7695,"full":246,"on_shipper":46,"on_consignee":0,"shortage":0,"acc_shortage":0,"booking":22,"acc_booking":305,"fulfillment":22,"acc_fulfillment":305,"transfer_cost":0.0,"port_name":"Qingdao","position":{"lat":36.066898,"lng":120.382698},"status":"surplus"},{"frame_index":12,"name":"ports_13","capacity":10000,"empty":958,"full":35,"on_shipper":7,"on_consignee":0,"shortage":0,"acc_shortage":0,"booking":4,"acc_booking":42,"fulfillment":4,"acc_fulfillment":42,"transfer_cost":0.0,"port_name":"San Antonio","position":{"lat":29.424349,"lng":-98.491142},"status":"surplus"},{"frame_index":12,"name":"ports_14","capacity":10000,"empty":957,"full":38,"on_shipper":5,"on_consignee":0,"shortage":0,"acc_shortage":0,"booking":3,"acc_booking":43,"fulfillment":3,"acc_fulfillment":43,"transfer_cost":0.0,"port_name":"Santos","position":{"lat":-23.96083,"lng":-46.33361},"status":"surplus"},{"frame_index":12,"name":"ports_15","capacity":10000,"empty":6737,"full":119,"on_shipper":25,"on_consignee":0,"shortage":0,"acc_shortage":0,"booking":21,"acc_booking":263,"fulfillment":21,"acc_fulfillment":263,"transfer_cost":0.0,"port_name":"Seattle","position":{"lat":47.608013,"lng":-122.335167},"status":"surplus"},{"frame_index":12,"name":"ports_16","capacity":10000,"empty":9626,"full":277,"on_shipper":59,"on_consignee":0,"shortage":0,"acc_shortage":0,"booking":33,"acc_booking":374,"fulfillment":33,"acc_fulfillment":374,"transfer_cost":0.0,"port_name":"Shanghai","position":{"lat":31.224361,"lng":121.46917},"status":"surplus"},{"frame_index":12,"name":"ports_17","capacity":10000,"empty":3844,"full":21,"on_shipper":24,"on_consignee":0,"shortage":0,"acc_shortage":0,"booking":12,"acc_booking":156,"fulfillment":12,"acc_fulfillment":156,"transfer_cost":0.0,"port_name":"Singapore","position":{"lat":1.29027,"lng":103.851959},"status":"surplus"},{"frame_index":12,"name":"ports_18","capacity":10000,"empty":1440,"full":51,"on_shipper":9,"on_consignee":0,"shortage":0,"acc_shortage":0,"booking":5,"acc_booking":60,"fulfillment":5,"acc_fulfillment":60,"transfer_cost":0.0,"port_name":"Sydney","position":{"lat":-33.865143,"lng":151.2099},"status":"surplus"},{"frame_index":12,"name":"ports_19","capacity":10000,"empty":1922,"full":38,"on_shipper":13,"on_consignee":0,"shortage":0,"acc_shortage":0,"booking":6,"acc_booking":78,"fulfillment":6,"acc_fulfillment":78,"transfer_cost":0.0,"port_name":"Vancouver","position":{"lat":49.246292,"lng":-123.116226},"status":"surplus"},{"frame_index":12,"name":"ports_20","capacity":10000,"empty":6728,"full":201,"on_shipper":35,"on_consignee":0,"shortage":0,"acc_shortage":0,"booking":22,"acc_booking":272,"fulfillment":22,"acc_fulfillment":272,"transfer_cost":0.0,"port_name":"Yantian","position":{"lat":26.8533,"lng":119.8575},"status":"surplus"},{"frame_index":12,"name":"ports_21","capacity":10000,"empty":7830,"full":146,"on_shipper":24,"on_consignee":0,"shortage":0,"acc_shortage":0,"booking":13,"acc_booking":170,"fulfillment":13,"acc_fulfillment":170,"transfer_cost":0.0,"port_name":"Yokohama","position":{"lat":35.443707,"lng":139.638031},"status":"surplus"}]