[{"frame_index":48,"name":"ports_0","capacity":10000,"empty":10435,"full":4382,"on_shipper":226,"on_consignee":0,"shortage":0,"acc_shortage":0,"booking":154,"acc_booking":5565,"fulfillment":154,"acc_fulfillment":5565,"transfer_cost":0.0,"port_name":"Bremerhaven","position":{"lat":53.549999,"lng":8.583333},"status":"surplus"},{"frame_index":48,"name":"ports_1","capacity":10000,"empty":699,"full":135,"on_shipper":16,"on_consignee":0,"shortage":0,"acc_shortage":0,"booking":10,"acc_booking":373,"fulfillment":10,"acc_fulfillment":373,"transfer_cost":0.0,"port_name":"Durban","position":{"lat":-29.8579,"lng":31.0292},"status":"surplus"},{"frame_index":48,"name":"ports_2","capacity":10000,"empty":660,"full":0,"on_shipper":12,"on_consignee":48,"shortage":0,"acc_shortage":0,"booking":8,"acc_booking":372,"fulfillment":8,"acc_fulfillment":372,"transfer_cost":0.0,"port_name":"Itagual","position":{"lat":-22.85222,"lng":-43.77528},"status":"surplus"},{"frame_index":48,"name":"ports_3","capacity":10000,"empty":3596,"full":268,"on_shipper":114,"on_consignee":0,"shortage":0,"acc_shortage":0,"booking":49,"acc_booking":2116,"fulfillment":49,"acc_fulfillment":2116,"transfer_cost":0.0,"port_name":"LeHavre","position":{"lat":49.490002,"lng":0.1},"status":"surplus"},{"frame_index":48,"name":"ports_4","capacity":10000,"empty":3233,"full":1223,"on_shipper":79,"on_consignee":0,"shortage":0,"acc_shortage":0,"booking":41,"acc_booking":1767,"fulfillment":41,"acc_fulfillment":1767,"transfer_cost":0.0,"port_name":"Los Angeles","position":{"lat":34.052235,"lng":-118.243683},"status":"surplus"},{"frame_index":48,"name":"ports_5","capacity":10000,"empty":3436,"full":581,"on_shipper":71,"on_consignee":0,"shortage":0,"acc_shortage":0,"booking":37,"acc_booking":1768,"fulfillment":37,"acc_fulfillment":1768,"transfer_cost":0.0,"port_name":"Manzanillo","position":{"lat":19.11695,"lng":-104.34214},"status":"surplus"},{"frame_index":48,"name":"ports_6","capacity":10000,"empty":956,"full":410,"on_shipper":20,"on_consignee":0,"shortage":0,"acc_shortage":0,"booking":13,"acc_booking":544,"fulfillment":13,"acc_fulfillment":544,"transfer_cost":0.0,"port_name":"Melbourne","position":{"lat":-37.840935,"lng":144.946457},"status":"surplus"},{"frame_index":48,"name":"ports_7","capacity":10000,"empty":1483,"full":325,"on_shipper":22,"on_consignee":0,"shortage":0,"acc_shortage":0,"booking":13,"acc_booking":543,"fulfillment":13,"acc_fulfillment":543,"transfer_cost":0.0,"port_name":"Montreal","position":{"lat":45.516136,"lng":-73.65683},"status":"surplus"},{"frame_index":48,"name":"ports_8","capacity":10000,"empty":2138,"full":365,"on_shipper":65,"on_consignee":0,"shortage":0,"acc_shortage":0,"booking":26,"acc_booking":1066,"fulfillment":26,"acc_fulfillment":1066,"transfer_cost":0.0,"port_name":"New York","position":{"lat":40.73061,"lng":-73.935242},"status":"surplus"},{"frame_index":48,"name":"ports_9","capacity":10000,"empty":2116,"full":332,"on_shipper":41,"on_consignee":0,"shortage":0,"acc_shortage":0,"booking":24,"acc_booking":1060,"fulfillment":24,"acc_fulfillment":1060,"transfer_cost":0.0,"port_name":"Oakland","position":{"lat":37.804363,"lng":-122.271111},"status":"surplus"},{"frame_index":48,"name":"ports_10","capacity":10000,"empty":944,"full":0,"on_shipper":23,"on_consignee":13,"shortage":0,"acc_shortage":0,"booking":14,"acc_booking":556,"fulfillment":14,"acc_fulfillment":556,"transfer_cost":0.0,"port_name":"Prince Rupert","position":{"lat":54.312519,"lng":-130.305405},"status":"surplus"},{"frame_index":48,"name":"ports_11","capacity":10000,"empty":4076,"full":992,"on_shipper":79,"on_consignee":0,"shortage":0,"acc_shortage":0,"booking":48,"acc_booking":2106,"fulfillment":48,"acc_fulfillment":2106,"transfer_cost":0.0,"port_name":"Pusan","position":{"lat":35.166668,"lng":129.066666},"status":"surplus"},{"frame_index":48,"name":"ports_12","capacity":10000,"empty":5276,"full":2144,"on_shipper":116,"on_consignee":0,"shortage":0,"acc_shortage":0,"booking":74,"acc_booking":2818,"fulfillment":74,"acc_fulfillment":2818,"transfer_cost":0.0,"port_name":"Qingdao","position":{"lat":36.066898,"lng":120.382698},"status":"surplus"},{"frame_index":48,"name":"ports_13","capacity":10000,"empty":640,"full":153,"on_shipper":17,"on_consignee":0,"shortage":0,"acc_shortage":0,"booking":10,"acc_booking":374,"fulfillment":10,"acc_fulfillment":374,"transfer_cost":0.0,"port_name":"San Antonio","position":{"lat":29.424349,"lng":-98.491142},"status":"surplus"},{"frame_index":48,"name":"ports_14","capacity":10000,"empty":628,"full":360,"on_shipper":12,"on_consignee":0,"shortage":0,"acc_shortage":0,"booking":7,"acc_booking":372,"fulfillment":7,"acc_fulfillment":372,"transfer_cost":0.0,"port_name":"Santos","position":{"lat":-23.96083,"lng":-46.33361},"status":"surplus"},{"frame_index":48,"name":"ports_15","capacity":10000,"empty":4772,"full":627,"on_shipper":130,"on_consignee":0,"shortage":0,"acc_shortage":0,"booking":60,"acc_booking":2460,"fulfillment":60,"acc_fulfillment":2460,"transfer_cost":0.0,"port_name":"Seattle","position":{"lat":47.608013,"lng":-122.335167},"status":"surplus"},{"frame_index":48,"name":"ports_16","capacity":10000,"empty":6462,"full":1798,"on_shipper":106,"on_consignee":0,"shortage":0,"acc_shortage":0,"booking":87,"acc_booking":3577,"fulfillment":87,"acc_fulfillment":3577,"transfer_cost":0.0,"port_name":"Shanghai","position":{"lat":31.224361,"lng":121.46917},"status":"surplus"},{"frame_index":48,"name":"ports_17","capacity":10000,"empty":2598,"full":825,"on_shipper":56,"on_consignee":0,"shortage":0,"acc_shortage":0,"booking":33,"acc_booking":1418,"fulfillment":33,"acc_fulfillment":1418,"transfer_cost":0.0,"port_name":"Singapore","position":{"lat":1.29027,"lng":103.851959},"status":"surplus"},{"frame_index":48,"name":"ports_18","capacity":10000,"empty":968,"full":106,"on_shipper":23,"on_consignee":0,"shortage":0,"acc_shortage":0,"booking":11,"acc_booking":535,"fulfillment":11,"acc_fulfillment":535,"transfer_cost":0.0,"port_name":"Sydney","position":{"lat":-33.865143,"lng":151.2099},"status":"surplus"},{"frame_index":48,"name":"ports_19","capacity":10000,"empty":1296,"full":370,"on_shipper":32,"on_consignee":0,"shortage":0,"acc_shortage":0,"booking":18,"acc_booking":723,"fulfillment":18,"acc_fulfillment":723,"transfer_cost":0.0,"port_name":"Vancouver","position":{"lat":49.246292,"lng":-123.116226},"status":"surplus"},{"frame_index":48,"name":"ports_20","capacity":10000,"empty":4634,"full":1012,"on_shipper":124,"on_consignee":0,"shortage":0,"acc_shortage":0,"booking":54,"acc_booking":2438,"fulfillment":54,"acc_fulfillment":2438,"transfer_cost":0.0,"port_name":"Yantian","position":{"lat":26.8533,"lng":119.8575},"status":"surplus"},{"frame_index":48,"name":"ports_21","capacity":10000,"empty":5743,"full":127,"on_shipper":76,"on_consignee":39,"shortage":0,"acc_shortage":0,"booking":55,"acc_booking":2291,"fulfillment":55,"acc_fulfillment":2291,"transfer_cost":0.0,"port_name":"Yokohama","position":{"lat":35.443707,"lng":139.638031},"status":"surplus"}]