[{"frame_index":253,"name":"ports_0","capacity":10000,"empty":5695,"full":503,"on_shipper":267,"on_consignee":0,"shortage":0,"acc_shortage":0,"booking":174,"acc_booking":30744,"fulfillment":174,"acc_fulfillment":30744,"transfer_cost":0.0,"port_name":"Bremerhaven","position":{"lat":53.549999,"lng":8.583333},"status":"surplus"},{"frame_index":253,"name":"ports_1","capacity":10000,"empty":803,"full":115,"on_shipper":19,"on_consignee":0,"shortage":0,"acc_shortage":0,"booking":12,"acc_booking":2065,"fulfillment":12,"acc_fulfillment":2065,"transfer_cost":0.0,"port_name":"Durban","position":{"lat":-29.8579,"lng":31.0292},"status":"surplus"},{"frame_index":253,"name":"ports_2","capacity":10000,"empty":650,"full":213,"on_shipper":14,"on_consignee":0,"shortage":0,"acc_shortage":233,"booking":10,"acc_booking":2051,"fulfillment":10,"acc_fulfillment":1818,"transfer_cost":0.0,"port_name":"Itagual","position":{"lat":-22.85222,"lng":-43.77528},"status":"surplus"},{"frame_index":253,"name":"ports_3","capacity":10000,"empty":2118,"full":545,"on_shipper":92,"on_consignee":0,"shortage":0,"acc_shortage":0,"booking":63,"acc_booking":11672,"fulfillment":63,"acc_fulfillment":11672,"transfer_cost":0.0,"port_name":"LeHavre","position":{"lat":49.490002,"lng":0.1},"status":"surplus"},{"frame_index":253,"name":"ports_4","capacity":10000,"empty":751,"full":1202,"on_shipper":72,"on_consignee":0,"shortage":0,"acc_shortage":0,"booking":55,"acc_booking":9756,"fulfillment":55,"acc_fulfillment":9756,"transfer_cost":0.0,"port_name":"Los Angeles","position":{"lat":34.052235,"lng":-118.243683},"status":"surplus"},{"frame_index":253,"name":"ports_5","capacity":10000,"empty":1121,"full":631,"on_shipper":83,"on_consignee":0,"shortage":0,"acc_shortage":0,"booking":58,"acc_booking":9777,"fulfillment":58,"acc_fulfillment":9777,"transfer_cost":0.0,"port_name":"Manzanillo","position":{"lat":19.11695,"lng":-104.34214},"status":"surplus"},{"frame_index":253,"name":"ports_6","capacity":10000,"empty":191,"full":182,"on_shipper":20,"on_consignee":0,"shortage":0,"acc_shortage":0,"booking":16,"acc_booking":3005,"fulfillment":16,"acc_fulfillment":3005,"transfer_cost":0.0,"port_name":"Melbourne","position":{"lat":-37.840935,"lng":144.946457},"status":"surplus"},{"frame_index":253,"name":"ports_7","capacity":10000,"empty":2305,"full":124,"on_shipper":23,"on_consignee":0,"shortage":0,"acc_shortage":0,"booking":17,"acc_booking":3008,"fulfillment":17,"acc_fulfillment":3008,"transfer_cost":0.0,"port_name":"Montreal","position":{"lat":45.516136,"lng":-73.65683},"status":"surplus"},{"frame_index":253,"name":"ports_8","capacity":10000,"empty":4592,"full":325,"on_shipper":43,"on_consignee":0,"shortage":0,"acc_shortage":0,"booking":31,"acc_booking":5869,"fulfillment":31,"acc_fulfillment":5869,"transfer_cost":0.0,"port_name":"New York","position":{"lat":40.73061,"lng":-73.935242},"status":"surplus"},{"frame_index":253,"name":"ports_9","capacity":10000,"empty":1344,"full":559,"on_shipper":48,"on_consignee":0,"shortage":0,"acc_shortage":0,"booking":33,"acc_booking":5857,"fulfillment":33,"acc_fulfillment":5857,"transfer_cost":0.0,"port_name":"Oakland","position":{"lat":37.804363,"lng":-122.271111},"status":"surplus"},{"frame_index":253,"name":"ports_10","capacity":10000,"empty":1433,"full":7,"on_shipper":25,"on_consignee":164,"shortage":0,"acc_shortage":0,"booking":15,"acc_booking":2992,"fulfillment":15,"acc_fulfillment":2992,"transfer_cost":0.0,"port_name":"Prince Rupert","position":{"lat":54.312519,"lng":-130.305405},"status":"surplus"},{"frame_index":253,"name":"ports_11","capacity":10000,"empty":2060,"full":407,"on_shipper":80,"on_consignee":0,"shortage":0,"acc_shortage":0,"booking":65,"acc_booking":11637,"fulfillment":65,"acc_fulfillment":11637,"transfer_cost":0.0,"port_name":"Pusan","position":{"lat":35.166668,"lng":129.066666},"status":"surplus"},{"frame_index":253,"name":"ports_12","capacity":10000,"empty":1454,"full":904,"on_shipper":136,"on_consignee":0,"shortage":0,"acc_shortage":0,"booking":84,"acc_booking":15535,"fulfillment":84,"acc_fulfillment":15535,"transfer_cost":0.0,"port_name":"Qingdao","position":{"lat":36.066898,"lng":120.382698},"status":"surplus"},{"frame_index":253,"name":"ports_13","capacity":10000,"empty":566,"full":86,"on_shipper":14,"on_consignee":0,"shortage":0,"acc_shortage":55,"booking":10,"acc_booking":2047,"fulfillment":10,"acc_fulfillment":1992,"transfer_cost":0.0,"port_name":"San Antonio","position":{"lat":29.424349,"lng":-98.491142},"status":"surplus"},{"frame_index":253,"name":"ports_14","capacity":10000,"empty":1078,"full":61,"on_shipper":15,"on_consignee":0,"shortage":0,"acc_shortage":697,"booking":10,"acc_booking":2071,"fulfillment":10,"acc_fulfillment":1374,"transfer_cost":0.0,"port_name":"Santos","position":{"lat":-23.96083,"lng":-46.33361},"status":"surplus"},{"frame_index":253,"name":"ports_15","capacity":10000,"empty":5007,"full":214,"on_shipper":124,"on_consignee":0,"shortage":0,"acc_shortage":0,"booking":72,"acc_booking":13585,"fulfillment":72,"acc_fulfillment":13585,"transfer_cost":0.0,"port_name":"Seattle","position":{"lat":47.608013,"lng":-122.335167},"status":"surplus"},{"frame_index":253,"name":"ports_16","capacity":10000,"empty":2973,"full":1207,"on_shipper":162,"on_consignee":406,"shortage":0,"acc_shortage":0,"booking":109,"acc_booking":19336,"fulfillment":109,"acc_fulfillment":19336,"transfer_cost":0.0,"port_name":"Shanghai","position":{"lat":31.224361,"lng":121.46917},"status":"surplus"},{"frame_index":253,"name":"ports_17","capacity":10000,"empty":1042,"full":241,"on_shipper":63,"on_consignee":0,"shortage":0,"acc_shortage":40,"booking":42,"acc_booking":7830,"fulfillment":42,"acc_fulfillment":7790,"transfer_cost":0.0,"port_name":"Singapore","position":{"lat":1.29027,"lng":103.851959},"status":"surplus"},{"frame_index":253,"name":"ports_18","capacity":10000,"empty":310,"full":170,"on_shipper":31,"on_consignee":0,"shortage":0,"acc_shortage":5,"booking":19,"acc_booking":2982,"fulfillment":19,"acc_fulfillment":2977,"transfer_cost":0.0,"port_name":"Sydney","position":{"lat":-33.865143,"lng":151.2099},"status":"surplus"},{"frame_index":253,"name":"ports_19","capacity":10000,"empty":1069,"full":264,"on_shipper":30,"on_consignee":0,"shortage":0,"acc_shortage":0,"booking":21,"acc_booking":3991,"fulfillment":21,"acc_fulfillment":3991,"transfer_cost":0.0,"port_name":"Vancouver","position":{"lat":49.246292,"lng":-123.116226},"status":"surplus"},{"frame_index":253,"name":"ports_20","capacity":10000,"empty":2021,"full":896,"on_shipper":102,"on_consignee":0,"shortage":0,"acc_shortage":0,"booking":75,"acc_booking":13403,"fulfillment":75,"acc_fulfillment":13403,"transfer_cost":0.0,"port_name":"Yantian","position":{"lat":26.8533,"lng":119.8575},"status":"surplus"},{"frame_index":253,"name":"ports_21","capacity":10000,"empty":1806,"full":267,"on_shipper":125,"on_consignee":0,"shortage":0,"acc_shortage":492,"booking":72,"acc_booking":12694,"fulfillment":72,"acc_fulfillment":12202,"transfer_cost":0.0,"port_name":"Yokohama","position":{"lat":35.443707,"lng":139.638031},"status":"surplus"}]