[{"frame_index":54,"name":"ports_0","capacity":10000,"empty":9984,"full":2624,"on_shipper":311,"on_consignee":0,"shortage":0,"acc_shortage":0,"booking":240,"acc_booking":6417,"fulfillment":240,"acc_fulfillment":6417,"transfer_cost":0.0,"port_name":"Bremerhaven","position":{"lat":53.549999,"lng":8.583333},"status":"surplus"},{"frame_index":54,"name":"ports_1","capacity":10000,"empty":640,"full":194,"on_shipper":16,"on_consignee":0,"shortage":0,"acc_shortage":0,"booking":16,"acc_booking":432,"fulfillment":16,"acc_fulfillment":432,"transfer_cost":0.0,"port_name":"Durban","position":{"lat":-29.8579,"lng":31.0292},"status":"surplus"},{"frame_index":54,"name":"ports_2","capacity":10000,"empty":650,"full":49,"on_shipper":21,"on_consignee":0,"shortage":0,"acc_shortage":0,"booking":15,"acc_booking":430,"fulfillment":15,"acc_fulfillment":430,"transfer_cost":0.0,"port_name":"Itagual","position":{"lat":-22.85222,"lng":-43.77528},"status":"surplus"},{"frame_index":54,"name":"ports_3","capacity":10000,"empty":3307,"full":316,"on_shipper":138,"on_consignee":0,"shortage":0,"acc_shortage":0,"booking":90,"acc_booking":2454,"fulfillment":90,"acc_fulfillment":2454,"transfer_cost":0.0,"port_name":"LeHavre","position":{"lat":49.490002,"lng":0.1},"status":"surplus"},{"frame_index":54,"name":"ports_4","capacity":10000,"empty":2950,"full":1467,"on_shipper":118,"on_consignee":0,"shortage":0,"acc_shortage":0,"booking":78,"acc_booking":2050,"fulfillment":78,"acc_fulfillment":2050,"transfer_cost":0.0,"port_name":"Los Angeles","position":{"lat":34.052235,"lng":-118.243683},"status":"surplus"},{"frame_index":54,"name":"ports_5","capacity":10000,"empty":3150,"full":0,"on_shipper":107,"on_consignee":61,"shortage":0,"acc_shortage":0,"booking":78,"acc_booking":2060,"fulfillment":78,"acc_fulfillment":2060,"transfer_cost":0.0,"port_name":"Manzanillo","position":{"lat":19.11695,"lng":-104.34214},"status":"surplus"},{"frame_index":54,"name":"ports_6","capacity":10000,"empty":871,"full":485,"on_shipper":30,"on_consignee":0,"shortage":0,"acc_shortage":0,"booking":24,"acc_booking":629,"fulfillment":24,"acc_fulfillment":629,"transfer_cost":0.0,"port_name":"Melbourne","position":{"lat":-37.840935,"lng":144.946457},"status":"surplus"},{"frame_index":54,"name":"ports_7","capacity":10000,"empty":1396,"full":403,"on_shipper":31,"on_consignee":0,"shortage":0,"acc_shortage":0,"booking":24,"acc_booking":630,"fulfillment":24,"acc_fulfillment":630,"transfer_cost":0.0,"port_name":"Montreal","position":{"lat":45.516136,"lng":-73.65683},"status":"surplus"},{"frame_index":54,"name":"ports_8","capacity":10000,"empty":2730,"full":81,"on_shipper":59,"on_consignee":0,"shortage":0,"acc_shortage":0,"booking":45,"acc_booking":1231,"fulfillment":45,"acc_fulfillment":1231,"transfer_cost":0.0,"port_name":"New York","position":{"lat":40.73061,"lng":-73.935242},"status":"surplus"},{"frame_index":54,"name":"ports_9","capacity":10000,"empty":1947,"full":482,"on_shipper":60,"on_consignee":0,"shortage":0,"acc_shortage":0,"booking":46,"acc_booking":1229,"fulfillment":46,"acc_fulfillment":1229,"transfer_cost":0.0,"port_name":"Oakland","position":{"lat":37.804363,"lng":-122.271111},"status":"surplus"},{"frame_index":54,"name":"ports_10","capacity":10000,"empty":870,"full":79,"on_shipper":31,"on_consignee":0,"shortage":0,"acc_shortage":0,"booking":27,"acc_booking":643,"fulfillment":27,"acc_fulfillment":643,"transfer_cost":0.0,"port_name":"Prince Rupert","position":{"lat":54.312519,"lng":-130.305405},"status":"surplus"},{"frame_index":54,"name":"ports_11","capacity":10000,"empty":3736,"full":1273,"on_shipper":138,"on_consignee":0,"shortage":0,"acc_shortage":0,"booking":93,"acc_booking":2446,"fulfillment":93,"acc_fulfillment":2446,"transfer_cost":0.0,"port_name":"Pusan","position":{"lat":35.166668,"lng":129.066666},"status":"surplus"},{"frame_index":54,"name":"ports_12","capacity":10000,"empty":4827,"full":1676,"on_shipper":150,"on_consignee":261,"shortage":0,"acc_shortage":0,"booking":119,"acc_booking":3267,"fulfillment":119,"acc_fulfillment":3267,"transfer_cost":0.0,"port_name":"Qingdao","position":{"lat":36.066898,"lng":120.382698},"status":"surplus"},{"frame_index":54,"name":"ports_13","capacity":10000,"empty":584,"full":208,"on_shipper":18,"on_consignee":0,"shortage":0,"acc_shortage":0,"booking":16,"acc_booking":430,"fulfillment":16,"acc_fulfillment":430,"transfer_cost":0.0,"port_name":"San Antonio","position":{"lat":29.424349,"lng":-98.491142},"status":"surplus"},{"frame_index":54,"name":"ports_14","capacity":10000,"empty":567,"full":0,"on_shipper":24,"on_consignee":0,"shortage":0,"acc_shortage":0,"booking":15,"acc_booking":433,"fulfillment":15,"acc_fulfillment":433,"transfer_cost":0.0,"port_name":"Santos","position":{"lat":-23.96083,"lng":-46.33361},"status":"surplus"},{"frame_index":54,"name":"ports_15","capacity":10000,"empty":4386,"full":992,"on_shipper":151,"on_consignee":0,"shortage":0,"acc_shortage":0,"booking":105,"acc_booking":2846,"fulfillment":105,"acc_fulfillment":2846,"transfer_cost":0.0,"port_name":"Seattle","position":{"lat":47.608013,"lng":-122.335167},"status":"surplus"},{"frame_index":54,"name":"ports_16","capacity":10000,"empty":5909,"full":1820,"on_shipper":227,"on_consignee":0,"shortage":0,"acc_shortage":0,"booking":149,"acc_booking":4148,"fulfillment":149,"acc_fulfillment":4148,"transfer_cost":0.0,"port_name":"Shanghai","position":{"lat":31.224361,"lng":121.46917},"status":"surplus"},{"frame_index":54,"name":"ports_17","capacity":10000,"empty":2405,"full":698,"on_shipper":83,"on_consignee":0,"shortage":0,"acc_shortage":0,"booking":63,"acc_booking":1645,"fulfillment":63,"acc_fulfillment":1645,"transfer_cost":0.0,"port_name":"Singapore","position":{"lat":1.29027,"lng":103.851959},"status":"surplus"},{"frame_index":54,"name":"ports_18","capacity":10000,"empty":880,"full":181,"on_shipper":36,"on_consignee":0,"shortage":0,"acc_shortage":0,"booking":24,"acc_booking":623,"fulfillment":24,"acc_fulfillment":623,"transfer_cost":0.0,"port_name":"Sydney","position":{"lat":-33.865143,"lng":151.2099},"status":"surplus"},{"frame_index":54,"name":"ports_19","capacity":10000,"empty":1183,"full":474,"on_shipper":41,"on_consignee":0,"shortage":0,"acc_shortage":0,"booking":29,"acc_booking":836,"fulfillment":29,"acc_fulfillment":836,"transfer_cost":0.0,"port_name":"Vancouver","position":{"lat":49.246292,"lng":-123.116226},"status":"surplus"},{"frame_index":54,"name":"ports_20","capacity":10000,"empty":4269,"full":823,"on_shipper":123,"on_consignee":0,"shortage":0,"acc_shortage":0,"booking":101,"acc_booking":2815,"fulfillment":101,"acc_fulfillment":2815,"transfer_cost":0.0,"port_name":"Yantian","position":{"lat":26.8533,"lng":119.8575},"status":"surplus"},{"frame_index":54,"name":"ports_21","capacity":10000,"empty":5400,"full":448,"on_shipper":137,"on_consignee":0,"shortage":0,"acc_shortage":0,"booking":111,"acc_booking":2673,"fulfillment":111,"acc_fulfillment":2673,"transfer_cost":0.0,"port_name":"Yokohama","position":{"lat":35.443707,"lng":139.638031},"status":"surplus"}]