[{"frame_index":948,"name":"ports_0","capacity":10000,"empty":2402,"full":3862,"on_shipper":244,"on_consignee":0,"shortage":0,"acc_shortage":522,"booking":189,"acc_booking":121366,"fulfillment":189,"acc_fulfillment":120844,"transfer_cost":0.0,"port_name":"Bremerhaven","position":{"lat":53.549999,"lng":8.583333},"status":"surplus"},{"frame_index":948,"name":"ports_1","capacity":10000,"empty":355,"full":247,"on_shipper":18,"on_consignee":0,"shortage":0,"acc_shortage":113,"booking":12,"acc_booking":8064,"fulfillment":12,"acc_fulfillment":7951,"transfer_cost":0.0,"port_name":"Durban","position":{"lat":-29.8579,"lng":31.0292},"status":"surplus"},{"frame_index":948,"name":"ports_2","capacity":10000,"empty":602,"full":217,"on_shipper":18,"on_consignee":0,"shortage":0,"acc_shortage":298,"booking":12,"acc_booking":8026,"fulfillment":12,"acc_fulfillment":7728,"transfer_cost":0.0,"port_name":"Itagual","position":{"lat":-22.85222,"lng":-43.77528},"status":"surplus"},{"frame_index":948,"name":"ports_3","capacity":10000,"empty":1020,"full":262,"on_shipper":69,"on_consignee":2391,"shortage":0,"acc_shortage":0,"booking":64,"acc_booking":45909,"fulfillment":64,"acc_fulfillment":45909,"transfer_cost":0.0,"port_name":"LeHavre","position":{"lat":49.490002,"lng":0.1},"status":"surplus"},{"frame_index":948,"name":"ports_4","capacity":10000,"empty":2251,"full":1293,"on_shipper":67,"on_consignee":0,"shortage":0,"acc_shortage":290,"booking":54,"acc_booking":38452,"fulfillment":54,"acc_fulfillment":38162,"transfer_cost":0.0,"port_name":"Los Angeles","position":{"lat":34.052235,"lng":-118.243683},"status":"surplus"},{"frame_index":948,"name":"ports_5","capacity":10000,"empty":1217,"full":34,"on_shipper":67,"on_consignee":284,"shortage":0,"acc_shortage":163,"booking":52,"acc_booking":38522,"fulfillment":52,"acc_fulfillment":38359,"transfer_cost":0.0,"port_name":"Manzanillo","position":{"lat":19.11695,"lng":-104.34214},"status":"surplus"},{"frame_index":948,"name":"ports_6","capacity":10000,"empty":223,"full":391,"on_shipper":26,"on_consignee":0,"shortage":0,"acc_shortage":1855,"booking":16,"acc_booking":11835,"fulfillment":16,"acc_fulfillment":9980,"transfer_cost":0.0,"port_name":"Melbourne","position":{"lat":-37.840935,"lng":144.946457},"status":"surplus"},{"frame_index":948,"name":"ports_7","capacity":10000,"empty":1314,"full":10,"on_shipper":22,"on_consignee":210,"shortage":0,"acc_shortage":0,"booking":16,"acc_booking":11846,"fulfillment":16,"acc_fulfillment":11846,"transfer_cost":0.0,"port_name":"Montreal","position":{"lat":45.516136,"lng":-73.65683},"status":"surplus"},{"frame_index":948,"name":"ports_8","capacity":10000,"empty":1367,"full":359,"on_shipper":43,"on_consignee":0,"shortage":0,"acc_shortage":136,"booking":33,"acc_booking":23144,"fulfillment":33,"acc_fulfillment":23008,"transfer_cost":0.0,"port_name":"New York","position":{"lat":40.73061,"lng":-73.935242},"status":"surplus"},{"frame_index":948,"name":"ports_9","capacity":10000,"empty":1318,"full":515,"on_shipper":42,"on_consignee":0,"shortage":0,"acc_shortage":45,"booking":26,"acc_booking":23161,"fulfillment":26,"acc_fulfillment":23116,"transfer_cost":0.0,"port_name":"Oakland","position":{"lat":37.804363,"lng":-122.271111},"status":"surplus"},{"frame_index":948,"name":"ports_10","capacity":10000,"empty":1512,"full":307,"on_shipper":20,"on_consignee":0,"shortage":0,"acc_shortage":314,"booking":15,"acc_booking":11873,"fulfillment":15,"acc_fulfillment":11559,"transfer_cost":0.0,"port_name":"Prince Rupert","position":{"lat":54.312519,"lng":-130.305405},"status":"surplus"},{"frame_index":948,"name":"ports_11","capacity":10000,"empty":3243,"full":414,"on_shipper":83,"on_consignee":0,"shortage":0,"acc_shortage":204,"booking":66,"acc_booking":45850,"fulfillment":66,"acc_fulfillment":45646,"transfer_cost":0.0,"port_name":"Pusan","position":{"lat":35.166668,"lng":129.066666},"status":"surplus"},{"frame_index":948,"name":"ports_12","capacity":10000,"empty":4716,"full":961,"on_shipper":120,"on_consignee":0,"shortage":0,"acc_shortage":0,"booking":80,"acc_booking":61282,"fulfillment":80,"acc_fulfillment":61282,"transfer_cost":0.0,"port_name":"Qingdao","position":{"lat":36.066898,"lng":120.382698},"status":"surplus"},{"frame_index":948,"name":"ports_13","capacity":10000,"empty":240,"full":157,"on_shipper":16,"on_consignee":0,"shortage":0,"acc_shortage":449,"booking":10,"acc_booking":8032,"fulfillment":10,"acc_fulfillment":7583,"transfer_cost":0.0,"port_name":"San Antonio","position":{"lat":29.424349,"lng":-98.491142},"status":"surplus"},{"frame_index":948,"name":"ports_14","capacity":10000,"empty":666,"full":5,"on_shipper":16,"on_consignee":0,"shortage":0,"acc_shortage":876,"booking":11,"acc_booking":8089,"fulfillment":11,"acc_fulfillment":7213,"transfer_cost":0.0,"port_name":"Santos","position":{"lat":-23.96083,"lng":-46.33361},"status":"surplus"},{"frame_index":948,"name":"ports_15","capacity":10000,"empty":279,"full":1199,"on_shipper":90,"on_consignee":0,"shortage":0,"acc_shortage":141,"booking":76,"acc_booking":53550,"fulfillment":76,"acc_fulfillment":53409,"transfer_cost":0.0,"port_name":"Seattle","position":{"lat":47.608013,"lng":-122.335167},"status":"demand"},{"frame_index":948,"name":"ports_16","capacity":10000,"empty":3228,"full":271,"on_shipper":154,"on_consignee":8,"shortage":0,"acc_shortage":817,"booking":114,"acc_booking":76292,"fulfillment":114,"acc_fulfillment":75475,"transfer_cost":0.0,"port_name":"Shanghai","position":{"lat":31.224361,"lng":121.46917},"status":"surplus"},{"frame_index":948,"name":"ports_17","capacity":10000,"empty":785,"full":438,"on_shipper":72,"on_consignee":185,"shortage":0,"acc_shortage":283,"booking":42,"acc_booking":30830,"fulfillment":42,"acc_fulfillment":30547,"transfer_cost":0.0,"port_name":"Singapore","position":{"lat":1.29027,"lng":103.851959},"status":"surplus"},{"frame_index":948,"name":"ports_18","capacity":10000,"empty":812,"full":252,"on_shipper":18,"on_consignee":0,"shortage":0,"acc_shortage":1374,"booking":15,"acc_booking":11846,"fulfillment":15,"acc_fulfillment":10472,"transfer_cost":0.0,"port_name":"Sydney","position":{"lat":-33.865143,"lng":151.2099},"status":"surplus"},{"frame_index":948,"name":"ports_19","capacity":10000,"empty":750,"full":902,"on_shipper":31,"on_consignee":0,"shortage":0,"acc_shortage":0,"booking":22,"acc_booking":15677,"fulfillment":22,"acc_fulfillment":15677,"transfer_cost":0.0,"port_name":"Vancouver","position":{"lat":49.246292,"lng":-123.116226},"status":"surplus"},{"frame_index":948,"name":"ports_20","capacity":10000,"empty":284,"full":3139,"on_shipper":103,"on_consignee":0,"shortage":0,"acc_shortage":1292,"booking":68,"acc_booking":53219,"fulfillment":68,"acc_fulfillment":51927,"transfer_cost":0.0,"port_name":"Yantian","position":{"lat":26.8533,"lng":119.8575},"status":"demand"},{"frame_index":948,"name":"ports_21","capacity":10000,"empty":82,"full":1530,"on_shipper":100,"on_consignee":0,"shortage":0,"acc_shortage":7235,"booking":73,"acc_booking":50708,"fulfillment":73,"acc_fulfillment":43473,"transfer_cost":0.0,"port_name":"Yokohama","position":{"lat":35.443707,"lng":139.638031},"status":"demand"}]