[{"frame_index":708,"name":"ports_0","capacity":10000,"empty":4871,"full":1910,"on_shipper":107,"on_consignee":0,"shortage":0,"acc_shortage":522,"booking":25,"acc_booking":89286,"fulfillment":25,"acc_fulfillment":88764,"transfer_cost":0.0,"port_name":"Bremerhaven","position":{"lat":53.549999,"lng":8.583333},"status":"surplus"},{"frame_index":708,"name":"ports_1","capacity":10000,"empty":292,"full":0,"on_shipper":4,"on_consignee":145,"shortage":0,"acc_shortage":0,"booking":2,"acc_booking":5937,"fulfillment":2,"acc_fulfillment":5937,"transfer_cost":6.0,"port_name":"Durban","position":{"lat":-29.8579,"lng":31.0292},"status":"surplus"},{"frame_index":708,"name":"ports_2","capacity":10000,"empty":211,"full":319,"on_shipper":5,"on_consignee":0,"shortage":0,"acc_shortage":298,"booking":2,"acc_booking":5917,"fulfillment":2,"acc_fulfillment":5619,"transfer_cost":0.0,"port_name":"Itagual","position":{"lat":-22.85222,"lng":-43.77528},"status":"surplus"},{"frame_index":708,"name":"ports_3","capacity":10000,"empty":2262,"full":956,"on_shipper":30,"on_consignee":0,"shortage":0,"acc_shortage":0,"booking":11,"acc_booking":33779,"fulfillment":11,"acc_fulfillment":33779,"transfer_cost":0.0,"port_name":"LeHavre","position":{"lat":49.490002,"lng":0.1},"status":"surplus"},{"frame_index":708,"name":"ports_4","capacity":10000,"empty":1075,"full":589,"on_shipper":14,"on_consignee":0,"shortage":0,"acc_shortage":150,"booking":9,"acc_booking":28274,"fulfillment":9,"acc_fulfillment":28124,"transfer_cost":0.0,"port_name":"Los Angeles","position":{"lat":34.052235,"lng":-118.243683},"status":"surplus"},{"frame_index":708,"name":"ports_5","capacity":10000,"empty":2555,"full":591,"on_shipper":26,"on_consignee":0,"shortage":0,"acc_shortage":123,"booking":9,"acc_booking":28342,"fulfillment":9,"acc_fulfillment":28219,"transfer_cost":0.0,"port_name":"Manzanillo","position":{"lat":19.11695,"lng":-104.34214},"status":"surplus"},{"frame_index":708,"name":"ports_6","capacity":10000,"empty":483,"full":163,"on_shipper":3,"on_consignee":0,"shortage":0,"acc_shortage":1336,"booking":3,"acc_booking":8706,"fulfillment":3,"acc_fulfillment":7370,"transfer_cost":0.0,"port_name":"Melbourne","position":{"lat":-37.840935,"lng":144.946457},"status":"surplus"},{"frame_index":708,"name":"ports_7","capacity":10000,"empty":471,"full":0,"on_shipper":8,"on_consignee":728,"shortage":0,"acc_shortage":0,"booking":3,"acc_booking":8712,"fulfillment":3,"acc_fulfillment":8712,"transfer_cost":10.0,"port_name":"Montreal","position":{"lat":45.516136,"lng":-73.65683},"status":"surplus"},{"frame_index":708,"name":"ports_8","capacity":10000,"empty":4277,"full":713,"on_shipper":6,"on_consignee":0,"shortage":0,"acc_shortage":0,"booking":6,"acc_booking":17016,"fulfillment":6,"acc_fulfillment":17016,"transfer_cost":0.0,"port_name":"New York","position":{"lat":40.73061,"lng":-73.935242},"status":"surplus"},{"frame_index":708,"name":"ports_9","capacity":10000,"empty":1428,"full":349,"on_shipper":16,"on_consignee":0,"shortage":0,"acc_shortage":45,"booking":6,"acc_booking":17080,"fulfillment":6,"acc_fulfillment":17035,"transfer_cost":0.0,"port_name":"Oakland","position":{"lat":37.804363,"lng":-122.271111},"status":"surplus"},{"frame_index":708,"name":"ports_10","capacity":10000,"empty":1689,"full":146,"on_shipper":10,"on_consignee":0,"shortage":0,"acc_shortage":314,"booking":3,"acc_booking":8722,"fulfillment":3,"acc_fulfillment":8408,"transfer_cost":0.0,"port_name":"Prince Rupert","position":{"lat":54.312519,"lng":-130.305405},"status":"surplus"},{"frame_index":708,"name":"ports_11","capacity":10000,"empty":3062,"full":1774,"on_shipper":34,"on_consignee":26,"shortage":0,"acc_shortage":204,"booking":11,"acc_booking":33748,"fulfillment":11,"acc_fulfillment":33544,"transfer_cost":0.0,"port_name":"Pusan","position":{"lat":35.166668,"lng":129.066666},"status":"surplus"},{"frame_index":708,"name":"ports_12","capacity":10000,"empty":531,"full":2285,"on_shipper":38,"on_consignee":184,"shortage":0,"acc_shortage":0,"booking":13,"acc_booking":45033,"fulfillment":13,"acc_fulfillment":45033,"transfer_cost":112.0,"port_name":"Qingdao","position":{"lat":36.066898,"lng":120.382698},"status":"surplus"},{"frame_index":708,"name":"ports_13","capacity":10000,"empty":250,"full":8,"on_shipper":5,"on_consignee":354,"shortage":0,"acc_shortage":325,"booking":2,"acc_booking":5920,"fulfillment":2,"acc_fulfillment":5595,"transfer_cost":0.0,"port_name":"San Antonio","position":{"lat":29.424349,"lng":-98.491142},"status":"surplus"},{"frame_index":708,"name":"ports_14","capacity":10000,"empty":847,"full":56,"on_shipper":5,"on_consignee":0,"shortage":0,"acc_shortage":762,"booking":2,"acc_booking":5958,"fulfillment":2,"acc_fulfillment":5196,"transfer_cost":0.0,"port_name":"Santos","position":{"lat":-23.96083,"lng":-46.33361},"status":"surplus"},{"frame_index":708,"name":"ports_15","capacity":10000,"empty":3128,"full":1113,"on_shipper":42,"on_consignee":0,"shortage":0,"acc_shortage":0,"booking":12,"acc_booking":39356,"fulfillment":12,"acc_fulfillment":39356,"transfer_cost":0.0,"port_name":"Seattle","position":{"lat":47.608013,"lng":-122.335167},"status":"surplus"},{"frame_index":708,"name":"ports_16","capacity":10000,"empty":1554,"full":1764,"on_shipper":38,"on_consignee":579,"shortage":0,"acc_shortage":712,"booking":18,"acc_booking":56055,"fulfillment":18,"acc_fulfillment":55343,"transfer_cost":0.0,"port_name":"Shanghai","position":{"lat":31.224361,"lng":121.46917},"status":"surplus"},{"frame_index":708,"name":"ports_17","capacity":10000,"empty":2139,"full":263,"on_shipper":25,"on_consignee":97,"shortage":0,"acc_shortage":283,"booking":7,"acc_booking":22699,"fulfillment":7,"acc_fulfillment":22416,"transfer_cost":36.0,"port_name":"Singapore","position":{"lat":1.29027,"lng":103.851959},"status":"surplus"},{"frame_index":708,"name":"ports_18","capacity":10000,"empty":140,"full":344,"on_shipper":7,"on_consignee":0,"shortage":0,"acc_shortage":1082,"booking":3,"acc_booking":8685,"fulfillment":3,"acc_fulfillment":7603,"transfer_cost":0.0,"port_name":"Sydney","position":{"lat":-33.865143,"lng":151.2099},"status":"surplus"},{"frame_index":708,"name":"ports_19","capacity":10000,"empty":1243,"full":242,"on_shipper":13,"on_consignee":0,"shortage":0,"acc_shortage":0,"booking":4,"acc_booking":11562,"fulfillment":4,"acc_fulfillment":11562,"transfer_cost":0.0,"port_name":"Vancouver","position":{"lat":49.246292,"lng":-123.116226},"status":"surplus"},{"frame_index":708,"name":"ports_20","capacity":10000,"empty":600,"full":1236,"on_shipper":30,"on_consignee":13,"shortage":0,"acc_shortage":395,"booking":13,"acc_booking":39116,"fulfillment":13,"acc_fulfillment":38721,"transfer_cost":149.0,"port_name":"Yantian","position":{"lat":26.8533,"lng":119.8575},"status":"surplus"},{"frame_index":708,"name":"ports_21","capacity":10000,"empty":882,"full":161,"on_shipper":9,"on_consignee":464,"shortage":0,"acc_shortage":4175,"booking":4,"acc_booking":37179,"fulfillment":4,"acc_fulfillment":33004,"transfer_cost":0.0,"port_name":"Yokohama","position":{"lat":35.443707,"lng":139.638031},"status":"surplus"}]