[{"frame_index":815,"name":"ports_0","capacity":10000,"empty":5075,"full":3583,"on_shipper":217,"on_consignee":0,"shortage":0,"acc_shortage":522,"booking":195,"acc_booking":103154,"fulfillment":195,"acc_fulfillment":102632,"transfer_cost":0.0,"port_name":"Bremerhaven","position":{"lat":53.549999,"lng":8.583333},"status":"surplus"},{"frame_index":815,"name":"ports_1","capacity":10000,"empty":252,"full":154,"on_shipper":21,"on_consignee":0,"shortage":0,"acc_shortage":10,"booking":14,"acc_booking":6866,"fulfillment":14,"acc_fulfillment":6856,"transfer_cost":0.0,"port_name":"Durban","position":{"lat":-29.8579,"lng":31.0292},"status":"surplus"},{"frame_index":815,"name":"ports_2","capacity":10000,"empty":343,"full":225,"on_shipper":20,"on_consignee":0,"shortage":0,"acc_shortage":298,"booking":12,"acc_booking":6840,"fulfillment":12,"acc_fulfillment":6542,"transfer_cost":0.0,"port_name":"Itagual","position":{"lat":-22.85222,"lng":-43.77528},"status":"surplus"},{"frame_index":815,"name":"ports_3","capacity":10000,"empty":3548,"full":526,"on_shipper":88,"on_consignee":0,"shortage":0,"acc_shortage":0,"booking":73,"acc_booking":39072,"fulfillment":73,"acc_fulfillment":39072,"transfer_cost":0.0,"port_name":"LeHavre","position":{"lat":49.490002,"lng":0.1},"status":"surplus"},{"frame_index":815,"name":"ports_4","capacity":10000,"empty":713,"full":1036,"on_shipper":86,"on_consignee":0,"shortage":0,"acc_shortage":290,"booking":60,"acc_booking":32708,"fulfillment":60,"acc_fulfillment":32418,"transfer_cost":0.0,"port_name":"Los Angeles","position":{"lat":34.052235,"lng":-118.243683},"status":"surplus"},{"frame_index":815,"name":"ports_5","capacity":10000,"empty":3013,"full":160,"on_shipper":76,"on_consignee":0,"shortage":0,"acc_shortage":123,"booking":59,"acc_booking":32823,"fulfillment":59,"acc_fulfillment":32700,"transfer_cost":0.0,"port_name":"Manzanillo","position":{"lat":19.11695,"lng":-104.34214},"status":"surplus"},{"frame_index":815,"name":"ports_6","capacity":10000,"empty":37,"full":380,"on_shipper":34,"on_consignee":0,"shortage":0,"acc_shortage":1572,"booking":18,"acc_booking":10074,"fulfillment":18,"acc_fulfillment":8502,"transfer_cost":0.0,"port_name":"Melbourne","position":{"lat":-37.840935,"lng":144.946457},"status":"demand"},{"frame_index":815,"name":"ports_7","capacity":10000,"empty":755,"full":284,"on_shipper":19,"on_consignee":0,"shortage":0,"acc_shortage":0,"booking":19,"acc_booking":10086,"fulfillment":19,"acc_fulfillment":10086,"transfer_cost":0.0,"port_name":"Montreal","position":{"lat":45.516136,"lng":-73.65683},"status":"surplus"},{"frame_index":815,"name":"ports_8","capacity":10000,"empty":2061,"full":403,"on_shipper":66,"on_consignee":0,"shortage":0,"acc_shortage":136,"booking":37,"acc_booking":19690,"fulfillment":37,"acc_fulfillment":19554,"transfer_cost":0.0,"port_name":"New York","position":{"lat":40.73061,"lng":-73.935242},"status":"surplus"},{"frame_index":815,"name":"ports_9","capacity":10000,"empty":1294,"full":325,"on_shipper":55,"on_consignee":0,"shortage":0,"acc_shortage":45,"booking":33,"acc_booking":19727,"fulfillment":33,"acc_fulfillment":19682,"transfer_cost":0.0,"port_name":"Oakland","position":{"lat":37.804363,"lng":-122.271111},"status":"surplus"},{"frame_index":815,"name":"ports_10","capacity":10000,"empty":1270,"full":200,"on_shipper":30,"on_consignee":0,"shortage":0,"acc_shortage":314,"booking":20,"acc_booking":10105,"fulfillment":20,"acc_fulfillment":9791,"transfer_cost":0.0,"port_name":"Prince Rupert","position":{"lat":54.312519,"lng":-130.305405},"status":"surplus"},{"frame_index":815,"name":"ports_11","capacity":10000,"empty":3202,"full":710,"on_shipper":104,"on_consignee":0,"shortage":0,"acc_shortage":204,"booking":73,"acc_booking":39033,"fulfillment":73,"acc_fulfillment":38829,"transfer_cost":0.0,"port_name":"Pusan","position":{"lat":35.166668,"lng":129.066666},"status":"surplus"},{"frame_index":815,"name":"ports_12","capacity":10000,"empty":4821,"full":836,"on_shipper":139,"on_consignee":0,"shortage":0,"acc_shortage":0,"booking":88,"acc_booking":52133,"fulfillment":88,"acc_fulfillment":52133,"transfer_cost":0.0,"port_name":"Qingdao","position":{"lat":36.066898,"lng":120.382698},"status":"surplus"},{"frame_index":815,"name":"ports_13","capacity":10000,"empty":604,"full":155,"on_shipper":15,"on_consignee":0,"shortage":0,"acc_shortage":449,"booking":11,"acc_booking":6845,"fulfillment":11,"acc_fulfillment":6396,"transfer_cost":0.0,"port_name":"San Antonio","position":{"lat":29.424349,"lng":-98.491142},"status":"surplus"},{"frame_index":815,"name":"ports_14","capacity":10000,"empty":90,"full":184,"on_shipper":21,"on_consignee":0,"shortage":0,"acc_shortage":762,"booking":13,"acc_booking":6886,"fulfillment":13,"acc_fulfillment":6124,"transfer_cost":0.0,"port_name":"Santos","position":{"lat":-23.96083,"lng":-46.33361},"status":"balance"},{"frame_index":815,"name":"ports_15","capacity":10000,"empty":2358,"full":559,"on_shipper":106,"on_consignee":147,"shortage":0,"acc_shortage":0,"booking":84,"acc_booking":45575,"fulfillment":84,"acc_fulfillment":45575,"transfer_cost":0.0,"port_name":"Seattle","position":{"lat":47.608013,"lng":-122.335167},"status":"surplus"},{"frame_index":815,"name":"ports_16","capacity":10000,"empty":2932,"full":1051,"on_shipper":192,"on_consignee":0,"shortage":0,"acc_shortage":760,"booking":139,"acc_booking":64874,"fulfillment":139,"acc_fulfillment":64114,"transfer_cost":0.0,"port_name":"Shanghai","position":{"lat":31.224361,"lng":121.46917},"status":"surplus"},{"frame_index":815,"name":"ports_17","capacity":10000,"empty":665,"full":364,"on_shipper":64,"on_consignee":28,"shortage":0,"acc_shortage":283,"booking":49,"acc_booking":26252,"fulfillment":49,"acc_fulfillment":25969,"transfer_cost":0.0,"port_name":"Singapore","position":{"lat":1.29027,"lng":103.851959},"status":"surplus"},{"frame_index":815,"name":"ports_18","capacity":10000,"empty":1190,"full":28,"on_shipper":32,"on_consignee":0,"shortage":0,"acc_shortage":1374,"booking":20,"acc_booking":10092,"fulfillment":20,"acc_fulfillment":8718,"transfer_cost":0.0,"port_name":"Sydney","position":{"lat":-33.865143,"lng":151.2099},"status":"surplus"},{"frame_index":815,"name":"ports_19","capacity":10000,"empty":1305,"full":381,"on_shipper":32,"on_consignee":183,"shortage":0,"acc_shortage":0,"booking":24,"acc_booking":13365,"fulfillment":24,"acc_fulfillment":13365,"transfer_cost":0.0,"port_name":"Vancouver","position":{"lat":49.246292,"lng":-123.116226},"status":"surplus"},{"frame_index":815,"name":"ports_20","capacity":10000,"empty":1795,"full":678,"on_shipper":102,"on_consignee":0,"shortage":0,"acc_shortage":942,"booking":76,"acc_booking":45283,"fulfillment":76,"acc_fulfillment":44341,"transfer_cost":0.0,"port_name":"Yantian","position":{"lat":26.8533,"lng":119.8575},"status":"surplus"},{"frame_index":815,"name":"ports_21","capacity":10000,"empty":1112,"full":150,"on_shipper":123,"on_consignee":29,"shortage":0,"acc_shortage":6236,"booking":85,"acc_booking":43062,"fulfillment":85,"acc_fulfillment":36826,"transfer_cost":0.0,"port_name":"Yokohama","position":{"lat":35.443707,"lng":139.638031},"status":"surplus"}]