[{"frame_index":408,"name":"ports_0","capacity":10000,"empty":2713,"full":4080,"on_shipper":261,"on_consignee":0,"shortage":0,"acc_shortage":522,"booking":220,"acc_booking":52832,"fulfillment":220,"acc_fulfillment":52310,"transfer_cost":0.0,"port_name":"Bremerhaven","position":{"lat":53.549999,"lng":8.583333},"status":"surplus"},{"frame_index":408,"name":"ports_1","capacity":10000,"empty":241,"full":230,"on_shipper":23,"on_consignee":0,"shortage":0,"acc_shortage":0,"booking":16,"acc_booking":3535,"fulfillment":16,"acc_fulfillment":3535,"transfer_cost":0.0,"port_name":"Durban","position":{"lat":-29.8579,"lng":31.0292},"status":"surplus"},{"frame_index":408,"name":"ports_2","capacity":10000,"empty":628,"full":328,"on_shipper":20,"on_consignee":0,"shortage":0,"acc_shortage":233,"booking":15,"acc_booking":3512,"fulfillment":15,"acc_fulfillment":3279,"transfer_cost":0.0,"port_name":"Itagual","position":{"lat":-22.85222,"lng":-43.77528},"status":"surplus"},{"frame_index":408,"name":"ports_3","capacity":10000,"empty":815,"full":2445,"on_shipper":148,"on_consignee":0,"shortage":0,"acc_shortage":0,"booking":89,"acc_booking":20098,"fulfillment":89,"acc_fulfillment":20098,"transfer_cost":0.0,"port_name":"LeHavre","position":{"lat":49.490002,"lng":0.1},"status":"surplus"},{"frame_index":408,"name":"ports_4","capacity":10000,"empty":1323,"full":2066,"on_shipper":94,"on_consignee":0,"shortage":0,"acc_shortage":0,"booking":73,"acc_booking":16797,"fulfillment":73,"acc_fulfillment":16797,"transfer_cost":0.0,"port_name":"Los Angeles","position":{"lat":34.052235,"lng":-118.243683},"status":"surplus"},{"frame_index":408,"name":"ports_5","capacity":10000,"empty":265,"full":1033,"on_shipper":154,"on_consignee":0,"shortage":0,"acc_shortage":123,"booking":79,"acc_booking":16889,"fulfillment":79,"acc_fulfillment":16766,"transfer_cost":0.0,"port_name":"Manzanillo","position":{"lat":19.11695,"lng":-104.34214},"status":"demand"},{"frame_index":408,"name":"ports_6","capacity":10000,"empty":253,"full":116,"on_shipper":22,"on_consignee":0,"shortage":0,"acc_shortage":819,"booking":22,"acc_booking":5169,"fulfillment":22,"acc_fulfillment":4350,"transfer_cost":0.0,"port_name":"Melbourne","position":{"lat":-37.840935,"lng":144.946457},"status":"surplus"},{"frame_index":408,"name":"ports_7","capacity":10000,"empty":1915,"full":786,"on_shipper":37,"on_consignee":0,"shortage":0,"acc_shortage":0,"booking":22,"acc_booking":5170,"fulfillment":22,"acc_fulfillment":5170,"transfer_cost":0.0,"port_name":"Montreal","position":{"lat":45.516136,"lng":-73.65683},"status":"surplus"},{"frame_index":408,"name":"ports_8","capacity":10000,"empty":1433,"full":542,"on_shipper":66,"on_consignee":0,"shortage":0,"acc_shortage":0,"booking":42,"acc_booking":10092,"fulfillment":42,"acc_fulfillment":10092,"transfer_cost":0.0,"port_name":"New York","position":{"lat":40.73061,"lng":-73.935242},"status":"surplus"},{"frame_index":408,"name":"ports_9","capacity":10000,"empty":928,"full":673,"on_shipper":96,"on_consignee":0,"shortage":0,"acc_shortage":0,"booking":49,"acc_booking":10098,"fulfillment":49,"acc_fulfillment":10098,"transfer_cost":0.0,"port_name":"Oakland","position":{"lat":37.804363,"lng":-122.271111},"status":"surplus"},{"frame_index":408,"name":"ports_10","capacity":10000,"empty":544,"full":953,"on_shipper":18,"on_consignee":0,"shortage":0,"acc_shortage":0,"booking":18,"acc_booking":5159,"fulfillment":18,"acc_fulfillment":5159,"transfer_cost":0.0,"port_name":"Prince Rupert","position":{"lat":54.312519,"lng":-130.305405},"status":"surplus"},{"frame_index":408,"name":"ports_11","capacity":10000,"empty":0,"full":799,"on_shipper":0,"on_consignee":814,"shortage":84,"acc_shortage":204,"booking":84,"acc_booking":20047,"fulfillment":0,"acc_fulfillment":19843,"transfer_cost":0.0,"port_name":"Pusan","position":{"lat":35.166668,"lng":129.066666},"status":"demand"},{"frame_index":408,"name":"ports_12","capacity":10000,"empty":2023,"full":1146,"on_shipper":225,"on_consignee":0,"shortage":0,"acc_shortage":0,"booking":111,"acc_booking":26805,"fulfillment":111,"acc_fulfillment":26805,"transfer_cost":0.0,"port_name":"Qingdao","position":{"lat":36.066898,"lng":120.382698},"status":"surplus"},{"frame_index":408,"name":"ports_13","capacity":10000,"empty":101,"full":433,"on_shipper":26,"on_consignee":0,"shortage":0,"acc_shortage":123,"booking":15,"acc_booking":3505,"fulfillment":15,"acc_fulfillment":3382,"transfer_cost":0.0,"port_name":"San Antonio","position":{"lat":29.424349,"lng":-98.491142},"status":"balance"},{"frame_index":408,"name":"ports_14","capacity":10000,"empty":209,"full":665,"on_shipper":29,"on_consignee":0,"shortage":0,"acc_shortage":697,"booking":17,"acc_booking":3555,"fulfillment":17,"acc_fulfillment":2858,"transfer_cost":0.0,"port_name":"Santos","position":{"lat":-23.96083,"lng":-46.33361},"status":"surplus"},{"frame_index":408,"name":"ports_15","capacity":10000,"empty":2822,"full":1534,"on_shipper":186,"on_consignee":0,"shortage":0,"acc_shortage":0,"booking":102,"acc_booking":23393,"fulfillment":102,"acc_fulfillment":23393,"transfer_cost":0.0,"port_name":"Seattle","position":{"lat":47.608013,"lng":-122.335167},"status":"surplus"},{"frame_index":408,"name":"ports_16","capacity":10000,"empty":249,"full":3211,"on_shipper":220,"on_consignee":0,"shortage":0,"acc_shortage":0,"booking":143,"acc_booking":33413,"fulfillment":143,"acc_fulfillment":33413,"transfer_cost":0.0,"port_name":"Shanghai","position":{"lat":31.224361,"lng":121.46917},"status":"demand"},{"frame_index":408,"name":"ports_17","capacity":10000,"empty":2242,"full":971,"on_shipper":102,"on_consignee":0,"shortage":0,"acc_shortage":40,"booking":60,"acc_booking":13482,"fulfillment":60,"acc_fulfillment":13442,"transfer_cost":0.0,"port_name":"Singapore","position":{"lat":1.29027,"lng":103.851959},"status":"surplus"},{"frame_index":408,"name":"ports_18","capacity":10000,"empty":80,"full":270,"on_shipper":32,"on_consignee":0,"shortage":0,"acc_shortage":419,"booking":24,"acc_booking":5142,"fulfillment":24,"acc_fulfillment":4723,"transfer_cost":0.0,"port_name":"Sydney","position":{"lat":-33.865143,"lng":151.2099},"status":"balance"},{"frame_index":408,"name":"ports_19","capacity":10000,"empty":444,"full":579,"on_shipper":64,"on_consignee":0,"shortage":0,"acc_shortage":0,"booking":30,"acc_booking":6873,"fulfillment":30,"acc_fulfillment":6873,"transfer_cost":0.0,"port_name":"Vancouver","position":{"lat":49.246292,"lng":-123.116226},"status":"surplus"},{"frame_index":408,"name":"ports_20","capacity":10000,"empty":11,"full":1175,"on_shipper":0,"on_consignee":258,"shortage":102,"acc_shortage":275,"booking":102,"acc_booking":23155,"fulfillment":0,"acc_fulfillment":22880,"transfer_cost":11.0,"port_name":"Yantian","position":{"lat":26.8533,"lng":119.8575},"status":"demand"},{"frame_index":408,"name":"ports_21","capacity":10000,"empty":379,"full":293,"on_shipper":106,"on_consignee":140,"shortage":0,"acc_shortage":2444,"booking":106,"acc_booking":22225,"fulfillment":106,"acc_fulfillment":19781,"transfer_cost":0.0,"port_name":"Yokohama","position":{"lat":35.443707,"lng":139.638031},"status":"demand"}]