[{"frame_index":1081,"name":"ports_0","capacity":10000,"empty":610,"full":3203,"on_shipper":221,"on_consignee":0,"shortage":0,"acc_shortage":861,"booking":184,"acc_booking":140236,"fulfillment":184,"acc_fulfillment":139375,"transfer_cost":0.0,"port_name":"Bremerhaven","position":{"lat":53.549999,"lng":8.583333},"status":"demand"},{"frame_index":1081,"name":"ports_1","capacity":10000,"empty":212,"full":387,"on_shipper":25,"on_consignee":0,"shortage":0,"acc_shortage":113,"booking":15,"acc_booking":9319,"fulfillment":15,"acc_fulfillment":9206,"transfer_cost":0.0,"port_name":"Durban","position":{"lat":-29.8579,"lng":31.0292},"status":"surplus"},{"frame_index":1081,"name":"ports_2","capacity":10000,"empty":780,"full":219,"on_shipper":27,"on_consignee":94,"shortage":0,"acc_shortage":298,"booking":15,"acc_booking":9283,"fulfillment":15,"acc_fulfillment":8985,"transfer_cost":13.0,"port_name":"Itagual","position":{"lat":-22.85222,"lng":-43.77528},"status":"surplus"},{"frame_index":1081,"name":"ports_3","capacity":10000,"empty":3630,"full":1693,"on_shipper":107,"on_consignee":471,"shortage":0,"acc_shortage":0,"booking":82,"acc_booking":53042,"fulfillment":82,"acc_fulfillment":53042,"transfer_cost":0.0,"port_name":"LeHavre","position":{"lat":49.490002,"lng":0.1},"status":"surplus"},{"frame_index":1081,"name":"ports_4","capacity":10000,"empty":586,"full":2523,"on_shipper":103,"on_consignee":0,"shortage":0,"acc_shortage":290,"booking":70,"acc_booking":44427,"fulfillment":70,"acc_fulfillment":44137,"transfer_cost":0.0,"port_name":"Los Angeles","position":{"lat":34.052235,"lng":-118.243683},"status":"surplus"},{"frame_index":1081,"name":"ports_5","capacity":10000,"empty":985,"full":344,"on_shipper":101,"on_consignee":294,"shortage":0,"acc_shortage":194,"booking":71,"acc_booking":44495,"fulfillment":71,"acc_fulfillment":44301,"transfer_cost":0.0,"port_name":"Manzanillo","position":{"lat":19.11695,"lng":-104.34214},"status":"surplus"},{"frame_index":1081,"name":"ports_6","capacity":10000,"empty":0,"full":603,"on_shipper":5,"on_consignee":0,"shortage":22,"acc_shortage":2150,"booking":22,"acc_booking":13678,"fulfillment":0,"acc_fulfillment":11528,"transfer_cost":0.0,"port_name":"Melbourne","position":{"lat":-37.840935,"lng":144.946457},"status":"demand"},{"frame_index":1081,"name":"ports_7","capacity":10000,"empty":1096,"full":591,"on_shipper":33,"on_consignee":0,"shortage":0,"acc_shortage":0,"booking":21,"acc_booking":13678,"fulfillment":21,"acc_fulfillment":13678,"transfer_cost":0.0,"port_name":"Montreal","position":{"lat":45.516136,"lng":-73.65683},"status":"surplus"},{"frame_index":1081,"name":"ports_8","capacity":10000,"empty":4867,"full":1020,"on_shipper":65,"on_consignee":0,"shortage":0,"acc_shortage":136,"booking":41,"acc_booking":26747,"fulfillment":41,"acc_fulfillment":26611,"transfer_cost":0.0,"port_name":"New York","position":{"lat":40.73061,"lng":-73.935242},"status":"surplus"},{"frame_index":1081,"name":"ports_9","capacity":10000,"empty":1276,"full":910,"on_shipper":52,"on_consignee":0,"shortage":0,"acc_shortage":45,"booking":44,"acc_booking":26798,"fulfillment":44,"acc_fulfillment":26753,"transfer_cost":0.0,"port_name":"Oakland","position":{"lat":37.804363,"lng":-122.271111},"status":"surplus"},{"frame_index":1081,"name":"ports_10","capacity":10000,"empty":1459,"full":215,"on_shipper":25,"on_consignee":0,"shortage":0,"acc_shortage":314,"booking":20,"acc_booking":13669,"fulfillment":20,"acc_fulfillment":13355,"transfer_cost":0.0,"port_name":"Prince Rupert","position":{"lat":54.312519,"lng":-130.305405},"status":"surplus"},{"frame_index":1081,"name":"ports_11","capacity":10000,"empty":2261,"full":1252,"on_shipper":157,"on_consignee":0,"shortage":0,"acc_shortage":204,"booking":85,"acc_booking":53019,"fulfillment":85,"acc_fulfillment":52815,"transfer_cost":0.0,"port_name":"Pusan","position":{"lat":35.166668,"lng":129.066666},"status":"surplus"},{"frame_index":1081,"name":"ports_12","capacity":10000,"empty":3085,"full":1112,"on_shipper":219,"on_consignee":0,"shortage":0,"acc_shortage":0,"booking":113,"acc_booking":70803,"fulfillment":113,"acc_fulfillment":70803,"transfer_cost":0.0,"port_name":"Qingdao","position":{"lat":36.066898,"lng":120.382698},"status":"surplus"},{"frame_index":1081,"name":"ports_13","capacity":10000,"empty":329,"full":200,"on_shipper":26,"on_consignee":0,"shortage":0,"acc_shortage":459,"booking":14,"acc_booking":9281,"fulfillment":14,"acc_fulfillment":8822,"transfer_cost":0.0,"port_name":"San Antonio","position":{"lat":29.424349,"lng":-98.491142},"status":"surplus"},{"frame_index":1081,"name":"ports_14","capacity":10000,"empty":0,"full":378,"on_shipper":0,"on_consignee":0,"shortage":12,"acc_shortage":1177,"booking":12,"acc_booking":9339,"fulfillment":0,"acc_fulfillment":8162,"transfer_cost":0.0,"port_name":"Santos","position":{"lat":-23.96083,"lng":-46.33361},"status":"demand"},{"frame_index":1081,"name":"ports_15","capacity":10000,"empty":491,"full":2663,"on_shipper":169,"on_consignee":0,"shortage":0,"acc_shortage":1489,"booking":99,"acc_booking":61864,"fulfillment":99,"acc_fulfillment":60375,"transfer_cost":0.0,"port_name":"Seattle","position":{"lat":47.608013,"lng":-122.335167},"status":"balance"},{"frame_index":1081,"name":"ports_16","capacity":10000,"empty":2084,"full":1797,"on_shipper":231,"on_consignee":228,"shortage":0,"acc_shortage":817,"booking":119,"acc_booking":88207,"fulfillment":119,"acc_fulfillment":87390,"transfer_cost":15.0,"port_name":"Shanghai","position":{"lat":31.224361,"lng":121.46917},"status":"surplus"},{"frame_index":1081,"name":"ports_17","capacity":10000,"empty":1104,"full":1053,"on_shipper":104,"on_consignee":0,"shortage":0,"acc_shortage":619,"booking":55,"acc_booking":35621,"fulfillment":55,"acc_fulfillment":35002,"transfer_cost":0.0,"port_name":"Singapore","position":{"lat":1.29027,"lng":103.851959},"status":"surplus"},{"frame_index":1081,"name":"ports_18","capacity":10000,"empty":176,"full":438,"on_shipper":46,"on_consignee":0,"shortage":0,"acc_shortage":1374,"booking":20,"acc_booking":13667,"fulfillment":20,"acc_fulfillment":12293,"transfer_cost":0.0,"port_name":"Sydney","position":{"lat":-33.865143,"lng":151.2099},"status":"surplus"},{"frame_index":1081,"name":"ports_19","capacity":10000,"empty":799,"full":646,"on_shipper":51,"on_consignee":0,"shortage":0,"acc_shortage":0,"booking":30,"acc_booking":18111,"fulfillment":30,"acc_fulfillment":18111,"transfer_cost":0.0,"port_name":"Vancouver","position":{"lat":49.246292,"lng":-123.116226},"status":"surplus"},{"frame_index":1081,"name":"ports_20","capacity":10000,"empty":0,"full":1273,"on_shipper":0,"on_consignee":975,"shortage":102,"acc_shortage":2447,"booking":102,"acc_booking":61646,"fulfillment":0,"acc_fulfillment":59199,"transfer_cost":0.0,"port_name":"Yantian","position":{"lat":26.8533,"lng":119.8575},"status":"demand"},{"frame_index":1081,"name":"ports_21","capacity":10000,"empty":0,"full":1139,"on_shipper":0,"on_consignee":0,"shortage":102,"acc_shortage":9983,"booking":102,"acc_booking":58749,"fulfillment":0,"acc_fulfillment":48766,"transfer_cost":0.0,"port_name":"Yokohama","position":{"lat":35.443707,"lng":139.638031},"status":"demand"}]