[{"frame_index":856,"name":"ports_0","capacity":10000,"empty":2032,"full":1826,"on_shipper":375,"on_consignee":0,"shortage":0,"acc_shortage":522,"booking":297,"acc_booking":110973,"fulfillment":297,"acc_fulfillment":110451,"transfer_cost":0.0,"port_name":"Bremerhaven","position":{"lat":53.549999,"lng":8.583333},"status":"surplus"},{"frame_index":856,"name":"ports_1","capacity":10000,"empty":148,"full":133,"on_shipper":20,"on_consignee":0,"shortage":0,"acc_shortage":10,"booking":16,"acc_booking":7371,"fulfillment":16,"acc_fulfillment":7361,"transfer_cost":0.0,"port_name":"Durban","position":{"lat":-29.8579,"lng":31.0292},"status":"surplus"},{"frame_index":856,"name":"ports_2","capacity":10000,"empty":532,"full":151,"on_shipper":25,"on_consignee":0,"shortage":0,"acc_shortage":298,"booking":17,"acc_booking":7341,"fulfillment":17,"acc_fulfillment":7043,"transfer_cost":0.0,"port_name":"Itagual","position":{"lat":-22.85222,"lng":-43.77528},"status":"surplus"},{"frame_index":856,"name":"ports_3","capacity":10000,"empty":4562,"full":1234,"on_shipper":140,"on_consignee":0,"shortage":0,"acc_shortage":0,"booking":97,"acc_booking":42004,"fulfillment":97,"acc_fulfillment":42004,"transfer_cost":0.0,"port_name":"LeHavre","position":{"lat":49.490002,"lng":0.1},"status":"surplus"},{"frame_index":856,"name":"ports_4","capacity":10000,"empty":1860,"full":1681,"on_shipper":108,"on_consignee":0,"shortage":0,"acc_shortage":290,"booking":78,"acc_booking":35167,"fulfillment":78,"acc_fulfillment":34877,"transfer_cost":0.0,"port_name":"Los Angeles","position":{"lat":34.052235,"lng":-118.243683},"status":"surplus"},{"frame_index":856,"name":"ports_5","capacity":10000,"empty":1455,"full":1297,"on_shipper":102,"on_consignee":0,"shortage":0,"acc_shortage":123,"booking":90,"acc_booking":35305,"fulfillment":90,"acc_fulfillment":35182,"transfer_cost":0.0,"port_name":"Manzanillo","position":{"lat":19.11695,"lng":-104.34214},"status":"surplus"},{"frame_index":856,"name":"ports_6","capacity":10000,"empty":212,"full":263,"on_shipper":31,"on_consignee":0,"shortage":0,"acc_shortage":1654,"booking":24,"acc_booking":10818,"fulfillment":24,"acc_fulfillment":9164,"transfer_cost":0.0,"port_name":"Melbourne","position":{"lat":-37.840935,"lng":144.946457},"status":"surplus"},{"frame_index":856,"name":"ports_7","capacity":10000,"empty":714,"full":152,"on_shipper":37,"on_consignee":0,"shortage":0,"acc_shortage":0,"booking":24,"acc_booking":10834,"fulfillment":24,"acc_fulfillment":10834,"transfer_cost":0.0,"port_name":"Montreal","position":{"lat":45.516136,"lng":-73.65683},"status":"surplus"},{"frame_index":856,"name":"ports_8","capacity":10000,"empty":3953,"full":246,"on_shipper":75,"on_consignee":0,"shortage":0,"acc_shortage":136,"booking":49,"acc_booking":21171,"fulfillment":49,"acc_fulfillment":21035,"transfer_cost":0.0,"port_name":"New York","position":{"lat":40.73061,"lng":-73.935242},"status":"surplus"},{"frame_index":856,"name":"ports_9","capacity":10000,"empty":816,"full":727,"on_shipper":60,"on_consignee":0,"shortage":0,"acc_shortage":45,"booking":50,"acc_booking":21192,"fulfillment":50,"acc_fulfillment":21147,"transfer_cost":0.0,"port_name":"Oakland","position":{"lat":37.804363,"lng":-122.271111},"status":"surplus"},{"frame_index":856,"name":"ports_10","capacity":10000,"empty":1340,"full":105,"on_shipper":41,"on_consignee":0,"shortage":0,"acc_shortage":314,"booking":27,"acc_booking":10873,"fulfillment":27,"acc_fulfillment":10559,"transfer_cost":0.0,"port_name":"Prince Rupert","position":{"lat":54.312519,"lng":-130.305405},"status":"surplus"},{"frame_index":856,"name":"ports_11","capacity":10000,"empty":992,"full":1887,"on_shipper":174,"on_consignee":364,"shortage":0,"acc_shortage":204,"booking":94,"acc_booking":41956,"fulfillment":94,"acc_fulfillment":41752,"transfer_cost":22.0,"port_name":"Pusan","position":{"lat":35.166668,"lng":129.066666},"status":"surplus"},{"frame_index":856,"name":"ports_12","capacity":10000,"empty":1853,"full":2729,"on_shipper":223,"on_consignee":0,"shortage":0,"acc_shortage":0,"booking":140,"acc_booking":56097,"fulfillment":140,"acc_fulfillment":56097,"transfer_cost":0.0,"port_name":"Qingdao","position":{"lat":36.066898,"lng":120.382698},"status":"surplus"},{"frame_index":856,"name":"ports_13","capacity":10000,"empty":401,"full":107,"on_shipper":19,"on_consignee":0,"shortage":0,"acc_shortage":449,"booking":16,"acc_booking":7346,"fulfillment":16,"acc_fulfillment":6897,"transfer_cost":0.0,"port_name":"San Antonio","position":{"lat":29.424349,"lng":-98.491142},"status":"surplus"},{"frame_index":856,"name":"ports_14","capacity":10000,"empty":253,"full":336,"on_shipper":28,"on_consignee":0,"shortage":0,"acc_shortage":819,"booking":18,"acc_booking":7397,"fulfillment":18,"acc_fulfillment":6578,"transfer_cost":0.0,"port_name":"Santos","position":{"lat":-23.96083,"lng":-46.33361},"status":"surplus"},{"frame_index":856,"name":"ports_15","capacity":10000,"empty":471,"full":1838,"on_shipper":175,"on_consignee":389,"shortage":0,"acc_shortage":0,"booking":110,"acc_booking":48994,"fulfillment":110,"acc_fulfillment":48994,"transfer_cost":0.0,"port_name":"Seattle","position":{"lat":47.608013,"lng":-122.335167},"status":"demand"},{"frame_index":856,"name":"ports_16","capacity":10000,"empty":596,"full":2373,"on_shipper":280,"on_consignee":0,"shortage":0,"acc_shortage":760,"booking":178,"acc_booking":69758,"fulfillment":178,"acc_fulfillment":68998,"transfer_cost":0.0,"port_name":"Shanghai","position":{"lat":31.224361,"lng":121.46917},"status":"demand"},{"frame_index":856,"name":"ports_17","capacity":10000,"empty":909,"full":883,"on_shipper":98,"on_consignee":0,"shortage":0,"acc_shortage":283,"booking":63,"acc_booking":28202,"fulfillment":63,"acc_fulfillment":27919,"transfer_cost":0.0,"port_name":"Singapore","position":{"lat":1.29027,"lng":103.851959},"status":"surplus"},{"frame_index":856,"name":"ports_18","capacity":10000,"empty":435,"full":783,"on_shipper":32,"on_consignee":0,"shortage":0,"acc_shortage":1374,"booking":23,"acc_booking":10847,"fulfillment":23,"acc_fulfillment":9473,"transfer_cost":0.0,"port_name":"Sydney","position":{"lat":-33.865143,"lng":151.2099},"status":"surplus"},{"frame_index":856,"name":"ports_19","capacity":10000,"empty":901,"full":549,"on_shipper":60,"on_consignee":0,"shortage":0,"acc_shortage":0,"booking":32,"acc_booking":14353,"fulfillment":32,"acc_fulfillment":14353,"transfer_cost":0.0,"port_name":"Vancouver","position":{"lat":49.246292,"lng":-123.116226},"status":"surplus"},{"frame_index":856,"name":"ports_20","capacity":10000,"empty":358,"full":1755,"on_shipper":202,"on_consignee":6,"shortage":0,"acc_shortage":942,"booking":120,"acc_booking":48719,"fulfillment":120,"acc_fulfillment":47777,"transfer_cost":80.0,"port_name":"Yantian","position":{"lat":26.8533,"lng":119.8575},"status":"demand"},{"frame_index":856,"name":"ports_21","capacity":10000,"empty":0,"full":1727,"on_shipper":0,"on_consignee":0,"shortage":117,"acc_shortage":6790,"booking":117,"acc_booking":46534,"fulfillment":0,"acc_fulfillment":39744,"transfer_cost":0.0,"port_name":"Yokohama","position":{"lat":35.443707,"lng":139.638031},"status":"demand"}]