[{"frame_index":924,"name":"ports_0","capacity":10000,"empty":2865,"full":1700,"on_shipper":220,"on_consignee":0,"shortage":0,"acc_shortage":522,"booking":169,"acc_booking":117306,"fulfillment":169,"acc_fulfillment":116784,"transfer_cost":0.0,"port_name":"Bremerhaven","position":{"lat":53.549999,"lng":8.583333},"status":"surplus"},{"frame_index":924,"name":"ports_1","capacity":10000,"empty":364,"full":122,"on_shipper":16,"on_consignee":0,"shortage":0,"acc_shortage":113,"booking":12,"acc_booking":7806,"fulfillment":12,"acc_fulfillment":7693,"transfer_cost":0.0,"port_name":"Durban","position":{"lat":-29.8579,"lng":31.0292},"status":"surplus"},{"frame_index":924,"name":"ports_2","capacity":10000,"empty":754,"full":90,"on_shipper":20,"on_consignee":0,"shortage":0,"acc_shortage":298,"booking":12,"acc_booking":7767,"fulfillment":12,"acc_fulfillment":7469,"transfer_cost":0.0,"port_name":"Itagual","position":{"lat":-22.85222,"lng":-43.77528},"status":"surplus"},{"frame_index":924,"name":"ports_3","capacity":10000,"empty":1865,"full":2007,"on_shipper":121,"on_consignee":0,"shortage":0,"acc_shortage":0,"booking":73,"acc_booking":44407,"fulfillment":73,"acc_fulfillment":44407,"transfer_cost":0.0,"port_name":"LeHavre","position":{"lat":49.490002,"lng":0.1},"status":"surplus"},{"frame_index":924,"name":"ports_4","capacity":10000,"empty":3357,"full":212,"on_shipper":118,"on_consignee":0,"shortage":0,"acc_shortage":290,"booking":61,"acc_booking":37192,"fulfillment":61,"acc_fulfillment":36902,"transfer_cost":0.0,"port_name":"Los Angeles","position":{"lat":34.052235,"lng":-118.243683},"status":"surplus"},{"frame_index":924,"name":"ports_5","capacity":10000,"empty":925,"full":426,"on_shipper":85,"on_consignee":0,"shortage":0,"acc_shortage":163,"booking":62,"acc_booking":37288,"fulfillment":62,"acc_fulfillment":37125,"transfer_cost":0.0,"port_name":"Manzanillo","position":{"lat":19.11695,"lng":-104.34214},"status":"surplus"},{"frame_index":924,"name":"ports_6","capacity":10000,"empty":398,"full":227,"on_shipper":29,"on_consignee":0,"shortage":0,"acc_shortage":1855,"booking":18,"acc_booking":11451,"fulfillment":18,"acc_fulfillment":9596,"transfer_cost":0.0,"port_name":"Melbourne","position":{"lat":-37.840935,"lng":144.946457},"status":"surplus"},{"frame_index":924,"name":"ports_7","capacity":10000,"empty":1415,"full":166,"on_shipper":19,"on_consignee":0,"shortage":0,"acc_shortage":0,"booking":19,"acc_booking":11461,"fulfillment":19,"acc_fulfillment":11461,"transfer_cost":0.0,"port_name":"Montreal","position":{"lat":45.516136,"lng":-73.65683},"status":"surplus"},{"frame_index":924,"name":"ports_8","capacity":10000,"empty":2764,"full":253,"on_shipper":56,"on_consignee":0,"shortage":0,"acc_shortage":136,"booking":36,"acc_booking":22387,"fulfillment":36,"acc_fulfillment":22251,"transfer_cost":0.0,"port_name":"New York","position":{"lat":40.73061,"lng":-73.935242},"status":"surplus"},{"frame_index":924,"name":"ports_9","capacity":10000,"empty":505,"full":352,"on_shipper":52,"on_consignee":0,"shortage":0,"acc_shortage":45,"booking":34,"acc_booking":22405,"fulfillment":34,"acc_fulfillment":22360,"transfer_cost":0.0,"port_name":"Oakland","position":{"lat":37.804363,"lng":-122.271111},"status":"surplus"},{"frame_index":924,"name":"ports_10","capacity":10000,"empty":917,"full":250,"on_shipper":26,"on_consignee":0,"shortage":0,"acc_shortage":314,"booking":15,"acc_booking":11484,"fulfillment":15,"acc_fulfillment":11170,"transfer_cost":0.0,"port_name":"Prince Rupert","position":{"lat":54.312519,"lng":-130.305405},"status":"surplus"},{"frame_index":924,"name":"ports_11","capacity":10000,"empty":810,"full":458,"on_shipper":92,"on_consignee":0,"shortage":0,"acc_shortage":204,"booking":72,"acc_booking":44353,"fulfillment":72,"acc_fulfillment":44149,"transfer_cost":0.0,"port_name":"Pusan","position":{"lat":35.166668,"lng":129.066666},"status":"surplus"},{"frame_index":924,"name":"ports_12","capacity":10000,"empty":5132,"full":460,"on_shipper":147,"on_consignee":82,"shortage":0,"acc_shortage":0,"booking":107,"acc_booking":59279,"fulfillment":107,"acc_fulfillment":59279,"transfer_cost":0.0,"port_name":"Qingdao","position":{"lat":36.066898,"lng":120.382698},"status":"surplus"},{"frame_index":924,"name":"ports_13","capacity":10000,"empty":293,"full":75,"on_shipper":19,"on_consignee":0,"shortage":0,"acc_shortage":449,"booking":12,"acc_booking":7775,"fulfillment":12,"acc_fulfillment":7326,"transfer_cost":0.0,"port_name":"San Antonio","position":{"lat":29.424349,"lng":-98.491142},"status":"surplus"},{"frame_index":924,"name":"ports_14","capacity":10000,"empty":180,"full":134,"on_shipper":22,"on_consignee":0,"shortage":0,"acc_shortage":819,"booking":12,"acc_booking":7831,"fulfillment":12,"acc_fulfillment":7012,"transfer_cost":0.0,"port_name":"Santos","position":{"lat":-23.96083,"lng":-46.33361},"status":"surplus"},{"frame_index":924,"name":"ports_15","capacity":10000,"empty":1084,"full":1302,"on_shipper":137,"on_consignee":0,"shortage":0,"acc_shortage":0,"booking":84,"acc_booking":51801,"fulfillment":84,"acc_fulfillment":51801,"transfer_cost":0.0,"port_name":"Seattle","position":{"lat":47.608013,"lng":-122.335167},"status":"surplus"},{"frame_index":924,"name":"ports_16","capacity":10000,"empty":2062,"full":1603,"on_shipper":160,"on_consignee":0,"shortage":0,"acc_shortage":817,"booking":126,"acc_booking":73762,"fulfillment":126,"acc_fulfillment":72945,"transfer_cost":0.0,"port_name":"Shanghai","position":{"lat":31.224361,"lng":121.46917},"status":"surplus"},{"frame_index":924,"name":"ports_17","capacity":10000,"empty":1570,"full":298,"on_shipper":78,"on_consignee":0,"shortage":0,"acc_shortage":283,"booking":50,"acc_booking":29827,"fulfillment":50,"acc_fulfillment":29544,"transfer_cost":0.0,"port_name":"Singapore","position":{"lat":1.29027,"lng":103.851959},"status":"surplus"},{"frame_index":924,"name":"ports_18","capacity":10000,"empty":903,"full":286,"on_shipper":17,"on_consignee":0,"shortage":0,"acc_shortage":1374,"booking":17,"acc_booking":11467,"fulfillment":17,"acc_fulfillment":10093,"transfer_cost":0.0,"port_name":"Sydney","position":{"lat":-33.865143,"lng":151.2099},"status":"surplus"},{"frame_index":924,"name":"ports_19","capacity":10000,"empty":1251,"full":402,"on_shipper":30,"on_consignee":0,"shortage":0,"acc_shortage":0,"booking":25,"acc_booking":15176,"fulfillment":25,"acc_fulfillment":15176,"transfer_cost":0.0,"port_name":"Vancouver","position":{"lat":49.246292,"lng":-123.116226},"status":"surplus"},{"frame_index":924,"name":"ports_20","capacity":10000,"empty":1636,"full":2190,"on_shipper":115,"on_consignee":0,"shortage":0,"acc_shortage":1292,"booking":75,"acc_booking":51487,"fulfillment":75,"acc_fulfillment":50195,"transfer_cost":0.0,"port_name":"Yantian","position":{"lat":26.8533,"lng":119.8575},"status":"surplus"},{"frame_index":924,"name":"ports_21","capacity":10000,"empty":588,"full":769,"on_shipper":108,"on_consignee":0,"shortage":0,"acc_shortage":7235,"booking":88,"acc_booking":48986,"fulfillment":88,"acc_fulfillment":41751,"transfer_cost":0.0,"port_name":"Yokohama","position":{"lat":35.443707,"lng":139.638031},"status":"surplus"}]