[{"frame_index":946,"name":"ports_0","capacity":10000,"empty":2704,"full":3681,"on_shipper":123,"on_consignee":0,"shortage":0,"acc_shortage":522,"booking":41,"acc_booking":121064,"fulfillment":41,"acc_fulfillment":120542,"transfer_cost":0.0,"port_name":"Bremerhaven","position":{"lat":53.549999,"lng":8.583333},"status":"surplus"},{"frame_index":946,"name":"ports_1","capacity":10000,"empty":376,"full":237,"on_shipper":7,"on_consignee":0,"shortage":0,"acc_shortage":113,"booking":3,"acc_booking":8043,"fulfillment":3,"acc_fulfillment":7930,"transfer_cost":0.0,"port_name":"Durban","position":{"lat":-29.8579,"lng":31.0292},"status":"surplus"},{"frame_index":946,"name":"ports_2","capacity":10000,"empty":623,"full":207,"on_shipper":7,"on_consignee":0,"shortage":0,"acc_shortage":298,"booking":3,"acc_booking":8005,"fulfillment":3,"acc_fulfillment":7707,"transfer_cost":0.0,"port_name":"Itagual","position":{"lat":-22.85222,"lng":-43.77528},"status":"surplus"},{"frame_index":946,"name":"ports_3","capacity":10000,"empty":1136,"full":2550,"on_shipper":41,"on_consignee":0,"shortage":0,"acc_shortage":0,"booking":18,"acc_booking":45793,"fulfillment":18,"acc_fulfillment":45793,"transfer_cost":0.0,"port_name":"LeHavre","position":{"lat":49.490002,"lng":0.1},"status":"surplus"},{"frame_index":946,"name":"ports_4","capacity":10000,"empty":2347,"full":1221,"on_shipper":43,"on_consignee":0,"shortage":0,"acc_shortage":290,"booking":15,"acc_booking":38356,"fulfillment":15,"acc_fulfillment":38066,"transfer_cost":0.0,"port_name":"Los Angeles","position":{"lat":34.052235,"lng":-118.243683},"status":"surplus"},{"frame_index":946,"name":"ports_5","capacity":10000,"empty":899,"full":687,"on_shipper":30,"on_consignee":0,"shortage":0,"acc_shortage":163,"booking":14,"acc_booking":38433,"fulfillment":14,"acc_fulfillment":38270,"transfer_cost":0.0,"port_name":"Manzanillo","position":{"lat":19.11695,"lng":-104.34214},"status":"surplus"},{"frame_index":946,"name":"ports_6","capacity":10000,"empty":252,"full":383,"on_shipper":5,"on_consignee":0,"shortage":0,"acc_shortage":1855,"booking":5,"acc_booking":11806,"fulfillment":5,"acc_fulfillment":9951,"transfer_cost":0.0,"port_name":"Melbourne","position":{"lat":-37.840935,"lng":144.946457},"status":"surplus"},{"frame_index":946,"name":"ports_7","capacity":10000,"empty":1059,"full":524,"on_shipper":17,"on_consignee":0,"shortage":0,"acc_shortage":0,"booking":5,"acc_booking":11817,"fulfillment":5,"acc_fulfillment":11817,"transfer_cost":0.0,"port_name":"Montreal","position":{"lat":45.516136,"lng":-73.65683},"status":"surplus"},{"frame_index":946,"name":"ports_8","capacity":10000,"empty":1424,"full":323,"on_shipper":22,"on_consignee":0,"shortage":0,"acc_shortage":136,"booking":9,"acc_booking":23087,"fulfillment":9,"acc_fulfillment":22951,"transfer_cost":0.0,"port_name":"New York","position":{"lat":40.73061,"lng":-73.935242},"status":"surplus"},{"frame_index":946,"name":"ports_9","capacity":10000,"empty":1373,"full":484,"on_shipper":18,"on_consignee":0,"shortage":0,"acc_shortage":45,"booking":9,"acc_booking":23106,"fulfillment":9,"acc_fulfillment":23061,"transfer_cost":0.0,"port_name":"Oakland","position":{"lat":37.804363,"lng":-122.271111},"status":"surplus"},{"frame_index":946,"name":"ports_10","capacity":10000,"empty":1542,"full":284,"on_shipper":13,"on_consignee":0,"shortage":0,"acc_shortage":314,"booking":5,"acc_booking":11843,"fulfillment":5,"acc_fulfillment":11529,"transfer_cost":0.0,"port_name":"Prince Rupert","position":{"lat":54.312519,"lng":-130.305405},"status":"surplus"},{"frame_index":946,"name":"ports_11","capacity":10000,"empty":3358,"full":346,"on_shipper":36,"on_consignee":0,"shortage":0,"acc_shortage":204,"booking":18,"acc_booking":45735,"fulfillment":18,"acc_fulfillment":45531,"transfer_cost":0.0,"port_name":"Pusan","position":{"lat":35.166668,"lng":129.066666},"status":"surplus"},{"frame_index":946,"name":"ports_12","capacity":10000,"empty":4867,"full":856,"on_shipper":70,"on_consignee":4,"shortage":0,"acc_shortage":0,"booking":24,"acc_booking":61127,"fulfillment":24,"acc_fulfillment":61127,"transfer_cost":0.0,"port_name":"Qingdao","position":{"lat":36.066898,"lng":120.382698},"status":"surplus"},{"frame_index":946,"name":"ports_13","capacity":10000,"empty":258,"full":146,"on_shipper":9,"on_consignee":0,"shortage":0,"acc_shortage":449,"booking":3,"acc_booking":8014,"fulfillment":3,"acc_fulfillment":7565,"transfer_cost":0.0,"port_name":"San Antonio","position":{"lat":29.424349,"lng":-98.491142},"status":"surplus"},{"frame_index":946,"name":"ports_14","capacity":10000,"empty":101,"full":0,"on_shipper":0,"on_consignee":586,"shortage":3,"acc_shortage":876,"booking":3,"acc_booking":8068,"fulfillment":0,"acc_fulfillment":7192,"transfer_cost":101.0,"port_name":"Santos","position":{"lat":-23.96083,"lng":-46.33361},"status":"surplus"},{"frame_index":946,"name":"ports_15","capacity":10000,"empty":412,"full":1105,"on_shipper":51,"on_consignee":0,"shortage":0,"acc_shortage":141,"booking":20,"acc_booking":53417,"fulfillment":20,"acc_fulfillment":53276,"transfer_cost":0.0,"port_name":"Seattle","position":{"lat":47.608013,"lng":-122.335167},"status":"surplus"},{"frame_index":946,"name":"ports_16","capacity":10000,"empty":3244,"full":522,"on_shipper":48,"on_consignee":191,"shortage":0,"acc_shortage":817,"booking":28,"acc_booking":76084,"fulfillment":28,"acc_fulfillment":75267,"transfer_cost":378.0,"port_name":"Shanghai","position":{"lat":31.224361,"lng":121.46917},"status":"surplus"},{"frame_index":946,"name":"ports_17","capacity":10000,"empty":843,"full":705,"on_shipper":25,"on_consignee":18,"shortage":0,"acc_shortage":283,"booking":12,"acc_booking":30754,"fulfillment":12,"acc_fulfillment":30471,"transfer_cost":0.0,"port_name":"Singapore","position":{"lat":1.29027,"lng":103.851959},"status":"surplus"},{"frame_index":946,"name":"ports_18","capacity":10000,"empty":839,"full":234,"on_shipper":9,"on_consignee":0,"shortage":0,"acc_shortage":1374,"booking":5,"acc_booking":11819,"fulfillment":5,"acc_fulfillment":10445,"transfer_cost":0.0,"port_name":"Sydney","position":{"lat":-33.865143,"lng":151.2099},"status":"surplus"},{"frame_index":946,"name":"ports_19","capacity":10000,"empty":789,"full":876,"on_shipper":18,"on_consignee":0,"shortage":0,"acc_shortage":0,"booking":6,"acc_booking":15638,"fulfillment":6,"acc_fulfillment":15638,"transfer_cost":0.0,"port_name":"Vancouver","position":{"lat":49.246292,"lng":-123.116226},"status":"surplus"},{"frame_index":946,"name":"ports_20","capacity":10000,"empty":411,"full":3077,"on_shipper":38,"on_consignee":0,"shortage":0,"acc_shortage":1292,"booking":20,"acc_booking":53092,"fulfillment":20,"acc_fulfillment":51800,"transfer_cost":0.0,"port_name":"Yantian","position":{"lat":26.8533,"lng":119.8575},"status":"surplus"},{"frame_index":946,"name":"ports_21","capacity":10000,"empty":209,"full":1467,"on_shipper":36,"on_consignee":0,"shortage":0,"acc_shortage":7235,"booking":12,"acc_booking":50581,"fulfillment":12,"acc_fulfillment":43346,"transfer_cost":0.0,"port_name":"Yokohama","position":{"lat":35.443707,"lng":139.638031},"status":"surplus"}]