[{"frame_index":982,"name":"ports_0","capacity":10000,"empty":431,"full":5180,"on_shipper":312,"on_consignee":0,"shortage":0,"acc_shortage":737,"booking":182,"acc_booking":127595,"fulfillment":182,"acc_fulfillment":126858,"transfer_cost":0.0,"port_name":"Bremerhaven","position":{"lat":53.549999,"lng":8.583333},"status":"demand"},{"frame_index":982,"name":"ports_1","capacity":10000,"empty":185,"full":320,"on_shipper":19,"on_consignee":0,"shortage":0,"acc_shortage":113,"booking":14,"acc_booking":8482,"fulfillment":14,"acc_fulfillment":8369,"transfer_cost":0.0,"port_name":"Durban","position":{"lat":-29.8579,"lng":31.0292},"status":"surplus"},{"frame_index":982,"name":"ports_2","capacity":10000,"empty":470,"full":153,"on_shipper":13,"on_consignee":0,"shortage":0,"acc_shortage":298,"booking":13,"acc_booking":8442,"fulfillment":13,"acc_fulfillment":8144,"transfer_cost":0.0,"port_name":"Itagual","position":{"lat":-22.85222,"lng":-43.77528},"status":"surplus"},{"frame_index":982,"name":"ports_3","capacity":10000,"empty":3589,"full":751,"on_shipper":100,"on_consignee":0,"shortage":0,"acc_shortage":0,"booking":72,"acc_booking":48295,"fulfillment":72,"acc_fulfillment":48295,"transfer_cost":0.0,"port_name":"LeHavre","position":{"lat":49.490002,"lng":0.1},"status":"surplus"},{"frame_index":982,"name":"ports_4","capacity":10000,"empty":1942,"full":697,"on_shipper":82,"on_consignee":0,"shortage":0,"acc_shortage":290,"booking":60,"acc_booking":40444,"fulfillment":60,"acc_fulfillment":40154,"transfer_cost":0.0,"port_name":"Los Angeles","position":{"lat":34.052235,"lng":-118.243683},"status":"surplus"},{"frame_index":982,"name":"ports_5","capacity":10000,"empty":318,"full":0,"on_shipper":74,"on_consignee":122,"shortage":0,"acc_shortage":163,"booking":57,"acc_booking":40465,"fulfillment":57,"acc_fulfillment":40302,"transfer_cost":0.0,"port_name":"Manzanillo","position":{"lat":19.11695,"lng":-104.34214},"status":"balance"},{"frame_index":982,"name":"ports_6","capacity":10000,"empty":435,"full":43,"on_shipper":29,"on_consignee":0,"shortage":0,"acc_shortage":2108,"booking":19,"acc_booking":12448,"fulfillment":19,"acc_fulfillment":10340,"transfer_cost":0.0,"port_name":"Melbourne","position":{"lat":-37.840935,"lng":144.946457},"status":"surplus"},{"frame_index":982,"name":"ports_7","capacity":10000,"empty":1130,"full":359,"on_shipper":25,"on_consignee":0,"shortage":0,"acc_shortage":0,"booking":19,"acc_booking":12456,"fulfillment":19,"acc_fulfillment":12456,"transfer_cost":0.0,"port_name":"Montreal","position":{"lat":45.516136,"lng":-73.65683},"status":"surplus"},{"frame_index":982,"name":"ports_8","capacity":10000,"empty":2219,"full":487,"on_shipper":48,"on_consignee":0,"shortage":0,"acc_shortage":136,"booking":36,"acc_booking":24344,"fulfillment":36,"acc_fulfillment":24208,"transfer_cost":0.0,"port_name":"New York","position":{"lat":40.73061,"lng":-73.935242},"status":"surplus"},{"frame_index":982,"name":"ports_9","capacity":10000,"empty":1326,"full":305,"on_shipper":50,"on_consignee":0,"shortage":0,"acc_shortage":45,"booking":38,"acc_booking":24365,"fulfillment":38,"acc_fulfillment":24320,"transfer_cost":0.0,"port_name":"Oakland","position":{"lat":37.804363,"lng":-122.271111},"status":"surplus"},{"frame_index":982,"name":"ports_10","capacity":10000,"empty":1091,"full":55,"on_shipper":25,"on_consignee":0,"shortage":0,"acc_shortage":314,"booking":19,"acc_booking":12455,"fulfillment":19,"acc_fulfillment":12141,"transfer_cost":0.0,"port_name":"Prince Rupert","position":{"lat":54.312519,"lng":-130.305405},"status":"surplus"},{"frame_index":982,"name":"ports_11","capacity":10000,"empty":2266,"full":1032,"on_shipper":101,"on_consignee":0,"shortage":0,"acc_shortage":204,"booking":73,"acc_booking":48244,"fulfillment":73,"acc_fulfillment":48040,"transfer_cost":0.0,"port_name":"Pusan","position":{"lat":35.166668,"lng":129.066666},"status":"surplus"},{"frame_index":982,"name":"ports_12","capacity":10000,"empty":2379,"full":1992,"on_shipper":147,"on_consignee":754,"shortage":0,"acc_shortage":0,"booking":108,"acc_booking":64517,"fulfillment":108,"acc_fulfillment":64517,"transfer_cost":236.0,"port_name":"Qingdao","position":{"lat":36.066898,"lng":120.382698},"status":"surplus"},{"frame_index":982,"name":"ports_13","capacity":10000,"empty":332,"full":49,"on_shipper":21,"on_consignee":0,"shortage":0,"acc_shortage":459,"booking":13,"acc_booking":8447,"fulfillment":13,"acc_fulfillment":7988,"transfer_cost":0.0,"port_name":"San Antonio","position":{"lat":29.424349,"lng":-98.491142},"status":"surplus"},{"frame_index":982,"name":"ports_14","capacity":10000,"empty":353,"full":342,"on_shipper":16,"on_consignee":0,"shortage":0,"acc_shortage":876,"booking":14,"acc_booking":8502,"fulfillment":14,"acc_fulfillment":7626,"transfer_cost":0.0,"port_name":"Santos","position":{"lat":-23.96083,"lng":-46.33361},"status":"surplus"},{"frame_index":982,"name":"ports_15","capacity":10000,"empty":118,"full":1044,"on_shipper":98,"on_consignee":0,"shortage":0,"acc_shortage":859,"booking":84,"acc_booking":56341,"fulfillment":84,"acc_fulfillment":55482,"transfer_cost":0.0,"port_name":"Seattle","position":{"lat":47.608013,"lng":-122.335167},"status":"demand"},{"frame_index":982,"name":"ports_16","capacity":10000,"empty":1767,"full":1019,"on_shipper":194,"on_consignee":0,"shortage":0,"acc_shortage":817,"booking":134,"acc_booking":80373,"fulfillment":134,"acc_fulfillment":79556,"transfer_cost":0.0,"port_name":"Shanghai","position":{"lat":31.224361,"lng":121.46917},"status":"surplus"},{"frame_index":982,"name":"ports_17","capacity":10000,"empty":63,"full":661,"on_shipper":68,"on_consignee":0,"shortage":0,"acc_shortage":516,"booking":50,"acc_booking":32431,"fulfillment":50,"acc_fulfillment":31915,"transfer_cost":0.0,"port_name":"Singapore","position":{"lat":1.29027,"lng":103.851959},"status":"demand"},{"frame_index":982,"name":"ports_18","capacity":10000,"empty":637,"full":212,"on_shipper":30,"on_consignee":0,"shortage":0,"acc_shortage":1374,"booking":20,"acc_booking":12460,"fulfillment":20,"acc_fulfillment":11086,"transfer_cost":0.0,"port_name":"Sydney","position":{"lat":-33.865143,"lng":151.2099},"status":"surplus"},{"frame_index":982,"name":"ports_19","capacity":10000,"empty":781,"full":408,"on_shipper":35,"on_consignee":263,"shortage":0,"acc_shortage":0,"booking":23,"acc_booking":16487,"fulfillment":23,"acc_fulfillment":16487,"transfer_cost":0.0,"port_name":"Vancouver","position":{"lat":49.246292,"lng":-123.116226},"status":"surplus"},{"frame_index":982,"name":"ports_20","capacity":10000,"empty":258,"full":711,"on_shipper":116,"on_consignee":396,"shortage":0,"acc_shortage":1425,"booking":77,"acc_booking":56038,"fulfillment":77,"acc_fulfillment":54613,"transfer_cost":0.0,"port_name":"Yantian","position":{"lat":26.8533,"lng":119.8575},"status":"demand"},{"frame_index":982,"name":"ports_21","capacity":10000,"empty":113,"full":980,"on_shipper":108,"on_consignee":0,"shortage":0,"acc_shortage":7238,"booking":85,"acc_booking":53510,"fulfillment":85,"acc_fulfillment":46272,"transfer_cost":0.0,"port_name":"Yokohama","position":{"lat":35.443707,"lng":139.638031},"status":"demand"}]