[{"frame_index":554,"name":"ports_0","capacity":10000,"empty":4472,"full":2934,"on_shipper":101,"on_consignee":0,"shortage":0,"acc_shortage":522,"booking":73,"acc_booking":70993,"fulfillment":73,"acc_fulfillment":70471,"transfer_cost":0.0,"port_name":"Bremerhaven","position":{"lat":53.549999,"lng":8.583333},"status":"surplus"},{"frame_index":554,"name":"ports_1","capacity":10000,"empty":423,"full":170,"on_shipper":5,"on_consignee":0,"shortage":0,"acc_shortage":0,"booking":5,"acc_booking":4737,"fulfillment":5,"acc_fulfillment":4737,"transfer_cost":0.0,"port_name":"Durban","position":{"lat":-29.8579,"lng":31.0292},"status":"surplus"},{"frame_index":554,"name":"ports_2","capacity":10000,"empty":352,"full":27,"on_shipper":6,"on_consignee":0,"shortage":0,"acc_shortage":233,"booking":5,"acc_booking":4709,"fulfillment":5,"acc_fulfillment":4476,"transfer_cost":0.0,"port_name":"Itagual","position":{"lat":-22.85222,"lng":-43.77528},"status":"surplus"},{"frame_index":554,"name":"ports_3","capacity":10000,"empty":929,"full":1346,"on_shipper":38,"on_consignee":0,"shortage":0,"acc_shortage":0,"booking":29,"acc_booking":26926,"fulfillment":29,"acc_fulfillment":26926,"transfer_cost":0.0,"port_name":"LeHavre","position":{"lat":49.490002,"lng":0.1},"status":"surplus"},{"frame_index":554,"name":"ports_4","capacity":10000,"empty":1017,"full":184,"on_shipper":33,"on_consignee":0,"shortage":0,"acc_shortage":0,"booking":25,"acc_booking":22519,"fulfillment":25,"acc_fulfillment":22519,"transfer_cost":0.0,"port_name":"Los Angeles","position":{"lat":34.052235,"lng":-118.243683},"status":"surplus"},{"frame_index":554,"name":"ports_5","capacity":10000,"empty":2245,"full":161,"on_shipper":27,"on_consignee":0,"shortage":0,"acc_shortage":123,"booking":22,"acc_booking":22558,"fulfillment":22,"acc_fulfillment":22435,"transfer_cost":0.0,"port_name":"Manzanillo","position":{"lat":19.11695,"lng":-104.34214},"status":"surplus"},{"frame_index":554,"name":"ports_6","capacity":10000,"empty":0,"full":157,"on_shipper":0,"on_consignee":433,"shortage":8,"acc_shortage":1259,"booking":8,"acc_booking":6933,"fulfillment":0,"acc_fulfillment":5674,"transfer_cost":0.0,"port_name":"Melbourne","position":{"lat":-37.840935,"lng":144.946457},"status":"balance"},{"frame_index":554,"name":"ports_7","capacity":10000,"empty":1592,"full":80,"on_shipper":10,"on_consignee":0,"shortage":0,"acc_shortage":0,"booking":8,"acc_booking":6935,"fulfillment":8,"acc_fulfillment":6935,"transfer_cost":0.0,"port_name":"Montreal","position":{"lat":45.516136,"lng":-73.65683},"status":"surplus"},{"frame_index":554,"name":"ports_8","capacity":10000,"empty":2109,"full":20,"on_shipper":19,"on_consignee":0,"shortage":0,"acc_shortage":0,"booking":14,"acc_booking":13558,"fulfillment":14,"acc_fulfillment":13558,"transfer_cost":0.0,"port_name":"New York","position":{"lat":40.73061,"lng":-73.935242},"status":"surplus"},{"frame_index":554,"name":"ports_9","capacity":10000,"empty":2361,"full":117,"on_shipper":20,"on_consignee":0,"shortage":0,"acc_shortage":45,"booking":14,"acc_booking":13586,"fulfillment":14,"acc_fulfillment":13541,"transfer_cost":0.0,"port_name":"Oakland","position":{"lat":37.804363,"lng":-122.271111},"status":"surplus"},{"frame_index":554,"name":"ports_10","capacity":10000,"empty":971,"full":87,"on_shipper":7,"on_consignee":0,"shortage":0,"acc_shortage":314,"booking":7,"acc_booking":6953,"fulfillment":7,"acc_fulfillment":6639,"transfer_cost":0.0,"port_name":"Prince Rupert","position":{"lat":54.312519,"lng":-130.305405},"status":"surplus"},{"frame_index":554,"name":"ports_11","capacity":10000,"empty":296,"full":1871,"on_shipper":40,"on_consignee":0,"shortage":0,"acc_shortage":204,"booking":29,"acc_booking":26873,"fulfillment":29,"acc_fulfillment":26669,"transfer_cost":0.0,"port_name":"Pusan","position":{"lat":35.166668,"lng":129.066666},"status":"surplus"},{"frame_index":554,"name":"ports_12","capacity":10000,"empty":2513,"full":1358,"on_shipper":49,"on_consignee":0,"shortage":0,"acc_shortage":0,"booking":39,"acc_booking":35943,"fulfillment":39,"acc_fulfillment":35943,"transfer_cost":0.0,"port_name":"Qingdao","position":{"lat":36.066898,"lng":120.382698},"status":"surplus"},{"frame_index":554,"name":"ports_13","capacity":10000,"empty":169,"full":216,"on_shipper":6,"on_consignee":0,"shortage":0,"acc_shortage":286,"booking":5,"acc_booking":4703,"fulfillment":5,"acc_fulfillment":4417,"transfer_cost":0.0,"port_name":"San Antonio","position":{"lat":29.424349,"lng":-98.491142},"status":"surplus"},{"frame_index":554,"name":"ports_14","capacity":10000,"empty":55,"full":0,"on_shipper":7,"on_consignee":440,"shortage":0,"acc_shortage":762,"booking":6,"acc_booking":4752,"fulfillment":6,"acc_fulfillment":3990,"transfer_cost":127.0,"port_name":"Santos","position":{"lat":-23.96083,"lng":-46.33361},"status":"balance"},{"frame_index":554,"name":"ports_15","capacity":10000,"empty":2061,"full":2429,"on_shipper":49,"on_consignee":0,"shortage":0,"acc_shortage":0,"booking":33,"acc_booking":31367,"fulfillment":33,"acc_fulfillment":31367,"transfer_cost":0.0,"port_name":"Seattle","position":{"lat":47.608013,"lng":-122.335167},"status":"surplus"},{"frame_index":554,"name":"ports_16","capacity":10000,"empty":851,"full":2256,"on_shipper":59,"on_consignee":0,"shortage":0,"acc_shortage":470,"booking":52,"acc_booking":44748,"fulfillment":52,"acc_fulfillment":44278,"transfer_cost":0.0,"port_name":"Shanghai","position":{"lat":31.224361,"lng":121.46917},"status":"surplus"},{"frame_index":554,"name":"ports_17","capacity":10000,"empty":562,"full":483,"on_shipper":28,"on_consignee":141,"shortage":0,"acc_shortage":40,"booking":20,"acc_booking":18072,"fulfillment":20,"acc_fulfillment":18032,"transfer_cost":0.0,"port_name":"Singapore","position":{"lat":1.29027,"lng":103.851959},"status":"surplus"},{"frame_index":554,"name":"ports_18","capacity":10000,"empty":758,"full":48,"on_shipper":13,"on_consignee":0,"shortage":0,"acc_shortage":957,"booking":9,"acc_booking":6907,"fulfillment":9,"acc_fulfillment":5950,"transfer_cost":0.0,"port_name":"Sydney","position":{"lat":-33.865143,"lng":151.2099},"status":"surplus"},{"frame_index":554,"name":"ports_19","capacity":10000,"empty":689,"full":282,"on_shipper":14,"on_consignee":0,"shortage":0,"acc_shortage":0,"booking":10,"acc_booking":9219,"fulfillment":10,"acc_fulfillment":9219,"transfer_cost":0.0,"port_name":"Vancouver","position":{"lat":49.246292,"lng":-123.116226},"status":"surplus"},{"frame_index":554,"name":"ports_20","capacity":10000,"empty":321,"full":1941,"on_shipper":42,"on_consignee":44,"shortage":0,"acc_shortage":395,"booking":34,"acc_booking":31173,"fulfillment":34,"acc_fulfillment":30778,"transfer_cost":103.0,"port_name":"Yantian","position":{"lat":26.8533,"lng":119.8575},"status":"surplus"},{"frame_index":554,"name":"ports_21","capacity":10000,"empty":145,"full":251,"on_shipper":40,"on_consignee":0,"shortage":0,"acc_shortage":3258,"booking":29,"acc_booking":29728,"fulfillment":29,"acc_fulfillment":26470,"transfer_cost":0.0,"port_name":"Yokohama","position":{"lat":35.443707,"lng":139.638031},"status":"balance"}]