[{"frame_index":562,"name":"ports_0","capacity":10000,"empty":6561,"full":301,"on_shipper":103,"on_consignee":0,"shortage":0,"acc_shortage":522,"booking":26,"acc_booking":71443,"fulfillment":26,"acc_fulfillment":70921,"transfer_cost":0.0,"port_name":"Bremerhaven","position":{"lat":53.549999,"lng":8.583333},"status":"surplus"},{"frame_index":562,"name":"ports_1","capacity":10000,"empty":395,"full":198,"on_shipper":5,"on_consignee":0,"shortage":0,"acc_shortage":0,"booking":2,"acc_booking":4765,"fulfillment":2,"acc_fulfillment":4765,"transfer_cost":0.0,"port_name":"Durban","position":{"lat":-29.8579,"lng":31.0292},"status":"surplus"},{"frame_index":562,"name":"ports_2","capacity":10000,"empty":322,"full":57,"on_shipper":6,"on_consignee":0,"shortage":0,"acc_shortage":233,"booking":2,"acc_booking":4739,"fulfillment":2,"acc_fulfillment":4506,"transfer_cost":0.0,"port_name":"Itagual","position":{"lat":-22.85222,"lng":-43.77528},"status":"surplus"},{"frame_index":562,"name":"ports_3","capacity":10000,"empty":770,"full":1529,"on_shipper":14,"on_consignee":0,"shortage":0,"acc_shortage":0,"booking":9,"acc_booking":27085,"fulfillment":9,"acc_fulfillment":27085,"transfer_cost":0.0,"port_name":"LeHavre","position":{"lat":49.490002,"lng":0.1},"status":"surplus"},{"frame_index":562,"name":"ports_4","capacity":10000,"empty":1631,"full":216,"on_shipper":8,"on_consignee":0,"shortage":0,"acc_shortage":0,"booking":8,"acc_booking":22652,"fulfillment":8,"acc_fulfillment":22652,"transfer_cost":0.0,"port_name":"Los Angeles","position":{"lat":34.052235,"lng":-118.243683},"status":"surplus"},{"frame_index":562,"name":"ports_5","capacity":10000,"empty":2108,"full":301,"on_shipper":24,"on_consignee":0,"shortage":0,"acc_shortage":123,"booking":8,"acc_booking":22695,"fulfillment":8,"acc_fulfillment":22572,"transfer_cost":0.0,"port_name":"Manzanillo","position":{"lat":19.11695,"lng":-104.34214},"status":"surplus"},{"frame_index":562,"name":"ports_6","capacity":10000,"empty":539,"full":22,"on_shipper":7,"on_consignee":0,"shortage":0,"acc_shortage":1259,"booking":3,"acc_booking":6975,"fulfillment":3,"acc_fulfillment":5716,"transfer_cost":0.0,"port_name":"Melbourne","position":{"lat":-37.840935,"lng":144.946457},"status":"surplus"},{"frame_index":562,"name":"ports_7","capacity":10000,"empty":1549,"full":126,"on_shipper":7,"on_consignee":0,"shortage":0,"acc_shortage":0,"booking":3,"acc_booking":6978,"fulfillment":3,"acc_fulfillment":6978,"transfer_cost":0.0,"port_name":"Montreal","position":{"lat":45.516136,"lng":-73.65683},"status":"surplus"},{"frame_index":562,"name":"ports_8","capacity":10000,"empty":2028,"full":102,"on_shipper":18,"on_consignee":0,"shortage":0,"acc_shortage":0,"booking":5,"acc_booking":13639,"fulfillment":5,"acc_fulfillment":13639,"transfer_cost":0.0,"port_name":"New York","position":{"lat":40.73061,"lng":-73.935242},"status":"surplus"},{"frame_index":562,"name":"ports_9","capacity":10000,"empty":722,"full":30,"on_shipper":13,"on_consignee":0,"shortage":0,"acc_shortage":45,"booking":5,"acc_booking":13665,"fulfillment":5,"acc_fulfillment":13620,"transfer_cost":0.0,"port_name":"Oakland","position":{"lat":37.804363,"lng":-122.271111},"status":"surplus"},{"frame_index":562,"name":"ports_10","capacity":10000,"empty":931,"full":131,"on_shipper":3,"on_consignee":0,"shortage":0,"acc_shortage":314,"booking":3,"acc_booking":6993,"fulfillment":3,"acc_fulfillment":6679,"transfer_cost":0.0,"port_name":"Prince Rupert","position":{"lat":54.312519,"lng":-130.305405},"status":"surplus"},{"frame_index":562,"name":"ports_11","capacity":10000,"empty":137,"full":2053,"on_shipper":17,"on_consignee":0,"shortage":0,"acc_shortage":204,"booking":9,"acc_booking":27032,"fulfillment":9,"acc_fulfillment":26828,"transfer_cost":0.0,"port_name":"Pusan","position":{"lat":35.166668,"lng":129.066666},"status":"surplus"},{"frame_index":562,"name":"ports_12","capacity":10000,"empty":3234,"full":606,"on_shipper":26,"on_consignee":0,"shortage":0,"acc_shortage":0,"booking":12,"acc_booking":36158,"fulfillment":12,"acc_fulfillment":36158,"transfer_cost":0.0,"port_name":"Qingdao","position":{"lat":36.066898,"lng":120.382698},"status":"surplus"},{"frame_index":562,"name":"ports_13","capacity":10000,"empty":140,"full":246,"on_shipper":5,"on_consignee":0,"shortage":0,"acc_shortage":286,"booking":2,"acc_booking":4732,"fulfillment":2,"acc_fulfillment":4446,"transfer_cost":0.0,"port_name":"San Antonio","position":{"lat":29.424349,"lng":-98.491142},"status":"surplus"},{"frame_index":562,"name":"ports_14","capacity":10000,"empty":466,"full":34,"on_shipper":2,"on_consignee":0,"shortage":0,"acc_shortage":762,"booking":2,"acc_booking":4781,"fulfillment":2,"acc_fulfillment":4019,"transfer_cost":0.0,"port_name":"Santos","position":{"lat":-23.96083,"lng":-46.33361},"status":"surplus"},{"frame_index":562,"name":"ports_15","capacity":10000,"empty":2437,"full":2341,"on_shipper":32,"on_consignee":0,"shortage":0,"acc_shortage":0,"booking":10,"acc_booking":31549,"fulfillment":10,"acc_fulfillment":31549,"transfer_cost":0.0,"port_name":"Seattle","position":{"lat":47.608013,"lng":-122.335167},"status":"surplus"},{"frame_index":562,"name":"ports_16","capacity":10000,"empty":808,"full":2371,"on_shipper":20,"on_consignee":28,"shortage":0,"acc_shortage":470,"booking":14,"acc_booking":45013,"fulfillment":14,"acc_fulfillment":44543,"transfer_cost":0.0,"port_name":"Shanghai","position":{"lat":31.224361,"lng":121.46917},"status":"surplus"},{"frame_index":562,"name":"ports_17","capacity":10000,"empty":998,"full":493,"on_shipper":12,"on_consignee":0,"shortage":0,"acc_shortage":40,"booking":6,"acc_booking":18179,"fulfillment":6,"acc_fulfillment":18139,"transfer_cost":0.0,"port_name":"Singapore","position":{"lat":1.29027,"lng":103.851959},"status":"surplus"},{"frame_index":562,"name":"ports_18","capacity":10000,"empty":716,"full":98,"on_shipper":5,"on_consignee":0,"shortage":0,"acc_shortage":957,"booking":2,"acc_booking":6949,"fulfillment":2,"acc_fulfillment":5992,"transfer_cost":0.0,"port_name":"Sydney","position":{"lat":-33.865143,"lng":151.2099},"status":"surplus"},{"frame_index":562,"name":"ports_19","capacity":10000,"empty":947,"full":232,"on_shipper":8,"on_consignee":0,"shortage":0,"acc_shortage":0,"booking":4,"acc_booking":9276,"fulfillment":4,"acc_fulfillment":9276,"transfer_cost":0.0,"port_name":"Vancouver","position":{"lat":49.246292,"lng":-123.116226},"status":"surplus"},{"frame_index":562,"name":"ports_20","capacity":10000,"empty":719,"full":1871,"on_shipper":31,"on_consignee":0,"shortage":0,"acc_shortage":395,"booking":10,"acc_booking":31355,"fulfillment":10,"acc_fulfillment":30960,"transfer_cost":0.0,"port_name":"Yantian","position":{"lat":26.8533,"lng":119.8575},"status":"surplus"},{"frame_index":562,"name":"ports_21","capacity":10000,"empty":1199,"full":107,"on_shipper":8,"on_consignee":0,"shortage":0,"acc_shortage":3258,"booking":0,"acc_booking":29852,"fulfillment":0,"acc_fulfillment":26594,"transfer_cost":0.0,"port_name":"Yokohama","position":{"lat":35.443707,"lng":139.638031},"status":"surplus"}]