[{"frame_index":724,"name":"ports_0","capacity":10000,"empty":3661,"full":3618,"on_shipper":162,"on_consignee":0,"shortage":0,"acc_shortage":522,"booking":138,"acc_booking":92014,"fulfillment":138,"acc_fulfillment":91492,"transfer_cost":0.0,"port_name":"Bremerhaven","position":{"lat":53.549999,"lng":8.583333},"status":"surplus"},{"frame_index":724,"name":"ports_1","capacity":10000,"empty":251,"full":178,"on_shipper":12,"on_consignee":0,"shortage":0,"acc_shortage":0,"booking":10,"acc_booking":6123,"fulfillment":10,"acc_fulfillment":6123,"transfer_cost":0.0,"port_name":"Durban","position":{"lat":-29.8579,"lng":31.0292},"status":"surplus"},{"frame_index":724,"name":"ports_2","capacity":10000,"empty":657,"full":20,"on_shipper":12,"on_consignee":0,"shortage":0,"acc_shortage":298,"booking":10,"acc_booking":6098,"fulfillment":10,"acc_fulfillment":5800,"transfer_cost":0.0,"port_name":"Itagual","position":{"lat":-22.85222,"lng":-43.77528},"status":"surplus"},{"frame_index":724,"name":"ports_3","capacity":10000,"empty":2679,"full":971,"on_shipper":77,"on_consignee":0,"shortage":0,"acc_shortage":0,"booking":53,"acc_booking":34846,"fulfillment":53,"acc_fulfillment":34846,"transfer_cost":0.0,"port_name":"LeHavre","position":{"lat":49.490002,"lng":0.1},"status":"surplus"},{"frame_index":724,"name":"ports_4","capacity":10000,"empty":180,"full":1440,"on_shipper":58,"on_consignee":0,"shortage":0,"acc_shortage":150,"booking":45,"acc_booking":29169,"fulfillment":45,"acc_fulfillment":29019,"transfer_cost":0.0,"port_name":"Los Angeles","position":{"lat":34.052235,"lng":-118.243683},"status":"balance"},{"frame_index":724,"name":"ports_5","capacity":10000,"empty":1903,"full":17,"on_shipper":58,"on_consignee":0,"shortage":0,"acc_shortage":123,"booking":42,"acc_booking":29237,"fulfillment":42,"acc_fulfillment":29114,"transfer_cost":0.0,"port_name":"Manzanillo","position":{"lat":19.11695,"lng":-104.34214},"status":"surplus"},{"frame_index":724,"name":"ports_6","capacity":10000,"empty":208,"full":424,"on_shipper":17,"on_consignee":0,"shortage":0,"acc_shortage":1336,"booking":14,"acc_booking":8981,"fulfillment":14,"acc_fulfillment":7645,"transfer_cost":0.0,"port_name":"Melbourne","position":{"lat":-37.840935,"lng":144.946457},"status":"surplus"},{"frame_index":724,"name":"ports_7","capacity":10000,"empty":925,"full":265,"on_shipper":17,"on_consignee":0,"shortage":0,"acc_shortage":0,"booking":14,"acc_booking":8986,"fulfillment":14,"acc_fulfillment":8986,"transfer_cost":0.0,"port_name":"Montreal","position":{"lat":45.516136,"lng":-73.65683},"status":"surplus"},{"frame_index":724,"name":"ports_8","capacity":10000,"empty":3899,"full":265,"on_shipper":33,"on_consignee":0,"shortage":0,"acc_shortage":0,"booking":26,"acc_booking":17552,"fulfillment":26,"acc_fulfillment":17552,"transfer_cost":0.0,"port_name":"New York","position":{"lat":40.73061,"lng":-73.935242},"status":"surplus"},{"frame_index":724,"name":"ports_9","capacity":10000,"empty":1098,"full":268,"on_shipper":31,"on_consignee":0,"shortage":0,"acc_shortage":45,"booking":27,"acc_booking":17611,"fulfillment":27,"acc_fulfillment":17566,"transfer_cost":0.0,"port_name":"Oakland","position":{"lat":37.804363,"lng":-122.271111},"status":"surplus"},{"frame_index":724,"name":"ports_10","capacity":10000,"empty":1412,"full":413,"on_shipper":20,"on_consignee":0,"shortage":0,"acc_shortage":314,"booking":14,"acc_booking":8999,"fulfillment":14,"acc_fulfillment":8685,"transfer_cost":0.0,"port_name":"Prince Rupert","position":{"lat":54.312519,"lng":-130.305405},"status":"surplus"},{"frame_index":724,"name":"ports_11","capacity":10000,"empty":2030,"full":2792,"on_shipper":74,"on_consignee":0,"shortage":0,"acc_shortage":204,"booking":53,"acc_booking":34806,"fulfillment":53,"acc_fulfillment":34602,"transfer_cost":0.0,"port_name":"Pusan","position":{"lat":35.166668,"lng":129.066666},"status":"surplus"},{"frame_index":724,"name":"ports_12","capacity":10000,"empty":2171,"full":1285,"on_shipper":91,"on_consignee":190,"shortage":0,"acc_shortage":0,"booking":67,"acc_booking":46471,"fulfillment":67,"acc_fulfillment":46471,"transfer_cost":479.0,"port_name":"Qingdao","position":{"lat":36.066898,"lng":120.382698},"status":"surplus"},{"frame_index":724,"name":"ports_13","capacity":10000,"empty":419,"full":185,"on_shipper":13,"on_consignee":0,"shortage":0,"acc_shortage":325,"booking":9,"acc_booking":6105,"fulfillment":9,"acc_fulfillment":5780,"transfer_cost":0.0,"port_name":"San Antonio","position":{"lat":29.424349,"lng":-98.491142},"status":"surplus"},{"frame_index":724,"name":"ports_14","capacity":10000,"empty":662,"full":230,"on_shipper":16,"on_consignee":0,"shortage":0,"acc_shortage":762,"booking":10,"acc_booking":6143,"fulfillment":10,"acc_fulfillment":5381,"transfer_cost":0.0,"port_name":"Santos","position":{"lat":-23.96083,"lng":-46.33361},"status":"surplus"},{"frame_index":724,"name":"ports_15","capacity":10000,"empty":2628,"full":1208,"on_shipper":70,"on_consignee":133,"shortage":0,"acc_shortage":0,"booking":61,"acc_booking":40611,"fulfillment":61,"acc_fulfillment":40611,"transfer_cost":0.0,"port_name":"Seattle","position":{"lat":47.608013,"lng":-122.335167},"status":"surplus"},{"frame_index":724,"name":"ports_16","capacity":10000,"empty":1092,"full":3296,"on_shipper":114,"on_consignee":0,"shortage":0,"acc_shortage":712,"booking":100,"acc_booking":57872,"fulfillment":100,"acc_fulfillment":57160,"transfer_cost":0.0,"port_name":"Shanghai","position":{"lat":31.224361,"lng":121.46917},"status":"surplus"},{"frame_index":724,"name":"ports_17","capacity":10000,"empty":2784,"full":644,"on_shipper":51,"on_consignee":0,"shortage":0,"acc_shortage":283,"booking":37,"acc_booking":23416,"fulfillment":37,"acc_fulfillment":23133,"transfer_cost":0.0,"port_name":"Singapore","position":{"lat":1.29027,"lng":103.851959},"status":"surplus"},{"frame_index":724,"name":"ports_18","capacity":10000,"empty":159,"full":81,"on_shipper":17,"on_consignee":0,"shortage":0,"acc_shortage":1082,"booking":15,"acc_booking":8968,"fulfillment":15,"acc_fulfillment":7886,"transfer_cost":0.0,"port_name":"Sydney","position":{"lat":-33.865143,"lng":151.2099},"status":"surplus"},{"frame_index":724,"name":"ports_19","capacity":10000,"empty":893,"full":579,"on_shipper":26,"on_consignee":0,"shortage":0,"acc_shortage":0,"booking":17,"acc_booking":11912,"fulfillment":17,"acc_fulfillment":11912,"transfer_cost":0.0,"port_name":"Vancouver","position":{"lat":49.246292,"lng":-123.116226},"status":"surplus"},{"frame_index":724,"name":"ports_20","capacity":10000,"empty":276,"full":1228,"on_shipper":93,"on_consignee":0,"shortage":0,"acc_shortage":671,"booking":62,"acc_booking":40385,"fulfillment":62,"acc_fulfillment":39714,"transfer_cost":0.0,"port_name":"Yantian","position":{"lat":26.8533,"lng":119.8575},"status":"balance"},{"frame_index":724,"name":"ports_21","capacity":10000,"empty":390,"full":273,"on_shipper":83,"on_consignee":0,"shortage":0,"acc_shortage":4175,"booking":61,"acc_booking":38429,"fulfillment":61,"acc_fulfillment":34254,"transfer_cost":0.0,"port_name":"Yokohama","position":{"lat":35.443707,"lng":139.638031},"status":"surplus"}]