[{"frame_index":608,"name":"ports_0","capacity":10000,"empty":3660,"full":5482,"on_shipper":298,"on_consignee":0,"shortage":0,"acc_shortage":522,"booking":156,"acc_booking":77359,"fulfillment":156,"acc_fulfillment":76837,"transfer_cost":0.0,"port_name":"Bremerhaven","position":{"lat":53.549999,"lng":8.583333},"status":"surplus"},{"frame_index":608,"name":"ports_1","capacity":10000,"empty":443,"full":147,"on_shipper":13,"on_consignee":0,"shortage":0,"acc_shortage":0,"booking":11,"acc_booking":5142,"fulfillment":11,"acc_fulfillment":5142,"transfer_cost":0.0,"port_name":"Durban","position":{"lat":-29.8579,"lng":31.0292},"status":"surplus"},{"frame_index":608,"name":"ports_2","capacity":10000,"empty":270,"full":307,"on_shipper":12,"on_consignee":0,"shortage":0,"acc_shortage":233,"booking":12,"acc_booking":5116,"fulfillment":12,"acc_fulfillment":4883,"transfer_cost":0.0,"port_name":"Itagual","position":{"lat":-22.85222,"lng":-43.77528},"status":"surplus"},{"frame_index":608,"name":"ports_3","capacity":10000,"empty":1977,"full":257,"on_shipper":98,"on_consignee":156,"shortage":0,"acc_shortage":0,"booking":65,"acc_booking":29255,"fulfillment":65,"acc_fulfillment":29255,"transfer_cost":121.0,"port_name":"LeHavre","position":{"lat":49.490002,"lng":0.1},"status":"surplus"},{"frame_index":608,"name":"ports_4","capacity":10000,"empty":275,"full":1582,"on_shipper":71,"on_consignee":0,"shortage":0,"acc_shortage":0,"booking":55,"acc_booking":24477,"fulfillment":55,"acc_fulfillment":24477,"transfer_cost":0.0,"port_name":"Los Angeles","position":{"lat":34.052235,"lng":-118.243683},"status":"balance"},{"frame_index":608,"name":"ports_5","capacity":10000,"empty":2035,"full":850,"on_shipper":92,"on_consignee":0,"shortage":0,"acc_shortage":123,"booking":56,"acc_booking":24499,"fulfillment":56,"acc_fulfillment":24376,"transfer_cost":0.0,"port_name":"Manzanillo","position":{"lat":19.11695,"lng":-104.34214},"status":"surplus"},{"frame_index":608,"name":"ports_6","capacity":10000,"empty":216,"full":393,"on_shipper":28,"on_consignee":0,"shortage":0,"acc_shortage":1259,"booking":16,"acc_booking":7534,"fulfillment":16,"acc_fulfillment":6275,"transfer_cost":0.0,"port_name":"Melbourne","position":{"lat":-37.840935,"lng":144.946457},"status":"surplus"},{"frame_index":608,"name":"ports_7","capacity":10000,"empty":1270,"full":0,"on_shipper":27,"on_consignee":214,"shortage":0,"acc_shortage":0,"booking":16,"acc_booking":7540,"fulfillment":16,"acc_fulfillment":7540,"transfer_cost":395.0,"port_name":"Montreal","position":{"lat":45.516136,"lng":-73.65683},"status":"surplus"},{"frame_index":608,"name":"ports_8","capacity":10000,"empty":2536,"full":353,"on_shipper":33,"on_consignee":0,"shortage":0,"acc_shortage":0,"booking":33,"acc_booking":14740,"fulfillment":33,"acc_fulfillment":14740,"transfer_cost":0.0,"port_name":"New York","position":{"lat":40.73061,"lng":-73.935242},"status":"surplus"},{"frame_index":608,"name":"ports_9","capacity":10000,"empty":909,"full":549,"on_shipper":47,"on_consignee":0,"shortage":0,"acc_shortage":45,"booking":35,"acc_booking":14770,"fulfillment":35,"acc_fulfillment":14725,"transfer_cost":0.0,"port_name":"Oakland","position":{"lat":37.804363,"lng":-122.271111},"status":"surplus"},{"frame_index":608,"name":"ports_10","capacity":10000,"empty":1634,"full":0,"on_shipper":21,"on_consignee":150,"shortage":0,"acc_shortage":314,"booking":16,"acc_booking":7557,"fulfillment":16,"acc_fulfillment":7243,"transfer_cost":220.0,"port_name":"Prince Rupert","position":{"lat":54.312519,"lng":-130.305405},"status":"surplus"},{"frame_index":608,"name":"ports_11","capacity":10000,"empty":2804,"full":439,"on_shipper":86,"on_consignee":471,"shortage":0,"acc_shortage":204,"booking":63,"acc_booking":29195,"fulfillment":63,"acc_fulfillment":28991,"transfer_cost":0.0,"port_name":"Pusan","position":{"lat":35.166668,"lng":129.066666},"status":"surplus"},{"frame_index":608,"name":"ports_12","capacity":10000,"empty":3643,"full":390,"on_shipper":106,"on_consignee":165,"shortage":0,"acc_shortage":0,"booking":90,"acc_booking":38992,"fulfillment":90,"acc_fulfillment":38992,"transfer_cost":0.0,"port_name":"Qingdao","position":{"lat":36.066898,"lng":120.382698},"status":"surplus"},{"frame_index":608,"name":"ports_13","capacity":10000,"empty":155,"full":319,"on_shipper":16,"on_consignee":0,"shortage":0,"acc_shortage":286,"booking":12,"acc_booking":5110,"fulfillment":12,"acc_fulfillment":4824,"transfer_cost":0.0,"port_name":"San Antonio","position":{"lat":29.424349,"lng":-98.491142},"status":"surplus"},{"frame_index":608,"name":"ports_14","capacity":10000,"empty":1269,"full":142,"on_shipper":19,"on_consignee":0,"shortage":0,"acc_shortage":762,"booking":12,"acc_booking":5157,"fulfillment":12,"acc_fulfillment":4395,"transfer_cost":0.0,"port_name":"Santos","position":{"lat":-23.96083,"lng":-46.33361},"status":"surplus"},{"frame_index":608,"name":"ports_15","capacity":10000,"empty":3272,"full":1254,"on_shipper":92,"on_consignee":0,"shortage":0,"acc_shortage":0,"booking":74,"acc_booking":34078,"fulfillment":74,"acc_fulfillment":34078,"transfer_cost":0.0,"port_name":"Seattle","position":{"lat":47.608013,"lng":-122.335167},"status":"surplus"},{"frame_index":608,"name":"ports_16","capacity":10000,"empty":1241,"full":1009,"on_shipper":128,"on_consignee":464,"shortage":0,"acc_shortage":470,"booking":106,"acc_booking":48513,"fulfillment":106,"acc_fulfillment":48043,"transfer_cost":0.0,"port_name":"Shanghai","position":{"lat":31.224361,"lng":121.46917},"status":"surplus"},{"frame_index":608,"name":"ports_17","capacity":10000,"empty":540,"full":507,"on_shipper":76,"on_consignee":0,"shortage":0,"acc_shortage":40,"booking":44,"acc_booking":19641,"fulfillment":44,"acc_fulfillment":19601,"transfer_cost":0.0,"port_name":"Singapore","position":{"lat":1.29027,"lng":103.851959},"status":"surplus"},{"frame_index":608,"name":"ports_18","capacity":10000,"empty":559,"full":218,"on_shipper":24,"on_consignee":0,"shortage":0,"acc_shortage":957,"booking":17,"acc_booking":7505,"fulfillment":17,"acc_fulfillment":6548,"transfer_cost":0.0,"port_name":"Sydney","position":{"lat":-33.865143,"lng":151.2099},"status":"surplus"},{"frame_index":608,"name":"ports_19","capacity":10000,"empty":1173,"full":177,"on_shipper":33,"on_consignee":0,"shortage":0,"acc_shortage":0,"booking":20,"acc_booking":10016,"fulfillment":20,"acc_fulfillment":10016,"transfer_cost":0.0,"port_name":"Vancouver","position":{"lat":49.246292,"lng":-123.116226},"status":"surplus"},{"frame_index":608,"name":"ports_20","capacity":10000,"empty":603,"full":961,"on_shipper":113,"on_consignee":0,"shortage":0,"acc_shortage":395,"booking":80,"acc_booking":33844,"fulfillment":80,"acc_fulfillment":33449,"transfer_cost":0.0,"port_name":"Yantian","position":{"lat":26.8533,"lng":119.8575},"status":"surplus"},{"frame_index":608,"name":"ports_21","capacity":10000,"empty":0,"full":1819,"on_shipper":0,"on_consignee":0,"shortage":75,"acc_shortage":3519,"booking":75,"acc_booking":32245,"fulfillment":0,"acc_fulfillment":28726,"transfer_cost":0.0,"port_name":"Yokohama","position":{"lat":35.443707,"lng":139.638031},"status":"demand"}]