[{"frame_index":414,"name":"ports_0","capacity":10000,"empty":3238,"full":1372,"on_shipper":135,"on_consignee":445,"shortage":0,"acc_shortage":522,"booking":47,"acc_booking":53714,"fulfillment":47,"acc_fulfillment":53192,"transfer_cost":0.0,"port_name":"Bremerhaven","position":{"lat":53.549999,"lng":8.583333},"status":"surplus"},{"frame_index":414,"name":"ports_1","capacity":10000,"empty":175,"full":313,"on_shipper":6,"on_consignee":0,"shortage":0,"acc_shortage":0,"booking":3,"acc_booking":3601,"fulfillment":3,"acc_fulfillment":3601,"transfer_cost":0.0,"port_name":"Durban","position":{"lat":-29.8579,"lng":31.0292},"status":"surplus"},{"frame_index":414,"name":"ports_2","capacity":10000,"empty":567,"full":403,"on_shipper":6,"on_consignee":0,"shortage":0,"acc_shortage":233,"booking":4,"acc_booking":3573,"fulfillment":4,"acc_fulfillment":3340,"transfer_cost":0.0,"port_name":"Itagual","position":{"lat":-22.85222,"lng":-43.77528},"status":"surplus"},{"frame_index":414,"name":"ports_3","capacity":10000,"empty":1166,"full":249,"on_shipper":49,"on_consignee":0,"shortage":0,"acc_shortage":0,"booking":19,"acc_booking":20446,"fulfillment":19,"acc_fulfillment":20446,"transfer_cost":0.0,"port_name":"LeHavre","position":{"lat":49.490002,"lng":0.1},"status":"surplus"},{"frame_index":414,"name":"ports_4","capacity":10000,"empty":1028,"full":2421,"on_shipper":34,"on_consignee":0,"shortage":0,"acc_shortage":0,"booking":16,"acc_booking":17092,"fulfillment":16,"acc_fulfillment":17092,"transfer_cost":0.0,"port_name":"Los Angeles","position":{"lat":34.052235,"lng":-118.243683},"status":"surplus"},{"frame_index":414,"name":"ports_5","capacity":10000,"empty":360,"full":46,"on_shipper":31,"on_consignee":1543,"shortage":0,"acc_shortage":123,"booking":15,"acc_booking":17165,"fulfillment":15,"acc_fulfillment":17042,"transfer_cost":0.0,"port_name":"Manzanillo","position":{"lat":19.11695,"lng":-104.34214},"status":"surplus"},{"frame_index":414,"name":"ports_6","capacity":10000,"empty":259,"full":88,"on_shipper":5,"on_consignee":0,"shortage":0,"acc_shortage":819,"booking":5,"acc_booking":5260,"fulfillment":5,"acc_fulfillment":4441,"transfer_cost":0.0,"port_name":"Melbourne","position":{"lat":-37.840935,"lng":144.946457},"status":"surplus"},{"frame_index":414,"name":"ports_7","capacity":10000,"empty":1825,"full":901,"on_shipper":12,"on_consignee":0,"shortage":0,"acc_shortage":0,"booking":5,"acc_booking":5260,"fulfillment":5,"acc_fulfillment":5260,"transfer_cost":0.0,"port_name":"Montreal","position":{"lat":45.516136,"lng":-73.65683},"status":"surplus"},{"frame_index":414,"name":"ports_8","capacity":10000,"empty":1256,"full":765,"on_shipper":20,"on_consignee":0,"shortage":0,"acc_shortage":0,"booking":9,"acc_booking":10269,"fulfillment":9,"acc_fulfillment":10269,"transfer_cost":0.0,"port_name":"New York","position":{"lat":40.73061,"lng":-73.935242},"status":"surplus"},{"frame_index":414,"name":"ports_9","capacity":10000,"empty":752,"full":929,"on_shipper":16,"on_consignee":0,"shortage":0,"acc_shortage":0,"booking":10,"acc_booking":10274,"fulfillment":10,"acc_fulfillment":10274,"transfer_cost":0.0,"port_name":"Oakland","position":{"lat":37.804363,"lng":-122.271111},"status":"surplus"},{"frame_index":414,"name":"ports_10","capacity":10000,"empty":450,"full":1046,"on_shipper":19,"on_consignee":0,"shortage":0,"acc_shortage":0,"booking":5,"acc_booking":5253,"fulfillment":5,"acc_fulfillment":5253,"transfer_cost":0.0,"port_name":"Prince Rupert","position":{"lat":54.312519,"lng":-130.305405},"status":"surplus"},{"frame_index":414,"name":"ports_11","capacity":10000,"empty":472,"full":1091,"on_shipper":50,"on_consignee":0,"shortage":0,"acc_shortage":204,"booking":18,"acc_booking":20389,"fulfillment":18,"acc_fulfillment":20185,"transfer_cost":0.0,"port_name":"Pusan","position":{"lat":35.166668,"lng":129.066666},"status":"surplus"},{"frame_index":414,"name":"ports_12","capacity":10000,"empty":2304,"full":940,"on_shipper":44,"on_consignee":328,"shortage":0,"acc_shortage":0,"booking":26,"acc_booking":27267,"fulfillment":26,"acc_fulfillment":27267,"transfer_cost":366.0,"port_name":"Qingdao","position":{"lat":36.066898,"lng":120.382698},"status":"surplus"},{"frame_index":414,"name":"ports_13","capacity":10000,"empty":36,"full":518,"on_shipper":6,"on_consignee":0,"shortage":0,"acc_shortage":123,"booking":4,"acc_booking":3570,"fulfillment":4,"acc_fulfillment":3447,"transfer_cost":0.0,"port_name":"San Antonio","position":{"lat":29.424349,"lng":-98.491142},"status":"balance"},{"frame_index":414,"name":"ports_14","capacity":10000,"empty":151,"full":117,"on_shipper":8,"on_consignee":566,"shortage":0,"acc_shortage":697,"booking":3,"acc_booking":3615,"fulfillment":3,"acc_fulfillment":2918,"transfer_cost":0.0,"port_name":"Santos","position":{"lat":-23.96083,"lng":-46.33361},"status":"surplus"},{"frame_index":414,"name":"ports_15","capacity":10000,"empty":3125,"full":1357,"on_shipper":60,"on_consignee":0,"shortage":0,"acc_shortage":0,"booking":21,"acc_booking":23806,"fulfillment":21,"acc_fulfillment":23806,"transfer_cost":0.0,"port_name":"Seattle","position":{"lat":47.608013,"lng":-122.335167},"status":"surplus"},{"frame_index":414,"name":"ports_16","capacity":10000,"empty":165,"full":3494,"on_shipper":85,"on_consignee":0,"shortage":0,"acc_shortage":0,"booking":30,"acc_booking":34004,"fulfillment":30,"acc_fulfillment":34004,"transfer_cost":0.0,"port_name":"Shanghai","position":{"lat":31.224361,"lng":121.46917},"status":"balance"},{"frame_index":414,"name":"ports_17","capacity":10000,"empty":2008,"full":1284,"on_shipper":23,"on_consignee":0,"shortage":0,"acc_shortage":40,"booking":13,"acc_booking":13716,"fulfillment":13,"acc_fulfillment":13676,"transfer_cost":0.0,"port_name":"Singapore","position":{"lat":1.29027,"lng":103.851959},"status":"surplus"},{"frame_index":414,"name":"ports_18","capacity":10000,"empty":0,"full":377,"on_shipper":5,"on_consignee":0,"shortage":5,"acc_shortage":429,"booking":5,"acc_booking":5232,"fulfillment":0,"acc_fulfillment":4803,"transfer_cost":0.0,"port_name":"Sydney","position":{"lat":-33.865143,"lng":151.2099},"status":"balance"},{"frame_index":414,"name":"ports_19","capacity":10000,"empty":325,"full":752,"on_shipper":10,"on_consignee":0,"shortage":0,"acc_shortage":0,"booking":7,"acc_booking":6992,"fulfillment":7,"acc_fulfillment":6992,"transfer_cost":0.0,"port_name":"Vancouver","position":{"lat":49.246292,"lng":-123.116226},"status":"surplus"},{"frame_index":414,"name":"ports_20","capacity":10000,"empty":826,"full":1101,"on_shipper":41,"on_consignee":16,"shortage":0,"acc_shortage":350,"booking":23,"acc_booking":23568,"fulfillment":23,"acc_fulfillment":23218,"transfer_cost":755.0,"port_name":"Yantian","position":{"lat":26.8533,"lng":119.8575},"status":"surplus"},{"frame_index":414,"name":"ports_21","capacity":10000,"empty":342,"full":473,"on_shipper":46,"on_consignee":0,"shortage":0,"acc_shortage":2444,"booking":14,"acc_booking":22628,"fulfillment":14,"acc_fulfillment":20184,"transfer_cost":0.0,"port_name":"Yokohama","position":{"lat":35.443707,"lng":139.638031},"status":"surplus"}]