[{"frame_index":421,"name":"ports_0","capacity":10000,"empty":2652,"full":2294,"on_shipper":244,"on_consignee":0,"shortage":0,"acc_shortage":522,"booking":223,"acc_booking":54745,"fulfillment":223,"acc_fulfillment":54223,"transfer_cost":0.0,"port_name":"Bremerhaven","position":{"lat":53.549999,"lng":8.583333},"status":"surplus"},{"frame_index":421,"name":"ports_1","capacity":10000,"empty":107,"full":369,"on_shipper":18,"on_consignee":0,"shortage":0,"acc_shortage":0,"booking":13,"acc_booking":3669,"fulfillment":13,"acc_fulfillment":3669,"transfer_cost":0.0,"port_name":"Durban","position":{"lat":-29.8579,"lng":31.0292},"status":"balance"},{"frame_index":421,"name":"ports_2","capacity":10000,"empty":501,"full":459,"on_shipper":16,"on_consignee":0,"shortage":0,"acc_shortage":233,"booking":13,"acc_booking":3639,"fulfillment":13,"acc_fulfillment":3406,"transfer_cost":0.0,"port_name":"Itagual","position":{"lat":-22.85222,"lng":-43.77528},"status":"surplus"},{"frame_index":421,"name":"ports_3","capacity":10000,"empty":1108,"full":491,"on_shipper":98,"on_consignee":0,"shortage":0,"acc_shortage":0,"booking":76,"acc_booking":20831,"fulfillment":76,"acc_fulfillment":20831,"transfer_cost":0.0,"port_name":"LeHavre","position":{"lat":49.490002,"lng":0.1},"status":"surplus"},{"frame_index":421,"name":"ports_4","capacity":10000,"empty":711,"full":2685,"on_shipper":87,"on_consignee":0,"shortage":0,"acc_shortage":0,"booking":63,"acc_booking":17409,"fulfillment":63,"acc_fulfillment":17409,"transfer_cost":0.0,"port_name":"Los Angeles","position":{"lat":34.052235,"lng":-118.243683},"status":"surplus"},{"frame_index":421,"name":"ports_5","capacity":10000,"empty":1588,"full":296,"on_shipper":96,"on_consignee":0,"shortage":0,"acc_shortage":123,"booking":63,"acc_booking":17480,"fulfillment":63,"acc_fulfillment":17357,"transfer_cost":0.0,"port_name":"Manzanillo","position":{"lat":19.11695,"lng":-104.34214},"status":"surplus"},{"frame_index":421,"name":"ports_6","capacity":10000,"empty":396,"full":15,"on_shipper":35,"on_consignee":77,"shortage":0,"acc_shortage":819,"booking":19,"acc_booking":5358,"fulfillment":19,"acc_fulfillment":4539,"transfer_cost":62.0,"port_name":"Melbourne","position":{"lat":-37.840935,"lng":144.946457},"status":"surplus"},{"frame_index":421,"name":"ports_7","capacity":10000,"empty":2025,"full":6,"on_shipper":37,"on_consignee":362,"shortage":0,"acc_shortage":0,"booking":20,"acc_booking":5360,"fulfillment":20,"acc_fulfillment":5360,"transfer_cost":0.0,"port_name":"Montreal","position":{"lat":45.516136,"lng":-73.65683},"status":"surplus"},{"frame_index":421,"name":"ports_8","capacity":10000,"empty":1870,"full":122,"on_shipper":54,"on_consignee":0,"shortage":0,"acc_shortage":0,"booking":40,"acc_booking":10461,"fulfillment":40,"acc_fulfillment":10461,"transfer_cost":0.0,"port_name":"New York","position":{"lat":40.73061,"lng":-73.935242},"status":"surplus"},{"frame_index":421,"name":"ports_9","capacity":10000,"empty":566,"full":1083,"on_shipper":48,"on_consignee":0,"shortage":0,"acc_shortage":0,"booking":35,"acc_booking":10460,"fulfillment":35,"acc_fulfillment":10460,"transfer_cost":0.0,"port_name":"Oakland","position":{"lat":37.804363,"lng":-122.271111},"status":"surplus"},{"frame_index":421,"name":"ports_10","capacity":10000,"empty":349,"full":1140,"on_shipper":26,"on_consignee":0,"shortage":0,"acc_shortage":0,"booking":20,"acc_booking":5354,"fulfillment":20,"acc_fulfillment":5354,"transfer_cost":0.0,"port_name":"Prince Rupert","position":{"lat":54.312519,"lng":-130.305405},"status":"surplus"},{"frame_index":421,"name":"ports_11","capacity":10000,"empty":160,"full":1331,"on_shipper":122,"on_consignee":0,"shortage":0,"acc_shortage":204,"booking":76,"acc_booking":20770,"fulfillment":76,"acc_fulfillment":20566,"transfer_cost":0.0,"port_name":"Pusan","position":{"lat":35.166668,"lng":129.066666},"status":"demand"},{"frame_index":421,"name":"ports_12","capacity":10000,"empty":2371,"full":1044,"on_shipper":142,"on_consignee":0,"shortage":0,"acc_shortage":0,"booking":102,"acc_booking":27768,"fulfillment":102,"acc_fulfillment":27768,"transfer_cost":0.0,"port_name":"Qingdao","position":{"lat":36.066898,"lng":120.382698},"status":"surplus"},{"frame_index":421,"name":"ports_13","capacity":10000,"empty":0,"full":560,"on_shipper":0,"on_consignee":0,"shortage":12,"acc_shortage":153,"booking":12,"acc_booking":3636,"fulfillment":0,"acc_fulfillment":3483,"transfer_cost":0.0,"port_name":"San Antonio","position":{"lat":29.424349,"lng":-98.491142},"status":"demand"},{"frame_index":421,"name":"ports_14","capacity":10000,"empty":653,"full":166,"on_shipper":23,"on_consignee":0,"shortage":0,"acc_shortage":697,"booking":14,"acc_booking":3679,"fulfillment":14,"acc_fulfillment":2982,"transfer_cost":0.0,"port_name":"Santos","position":{"lat":-23.96083,"lng":-46.33361},"status":"surplus"},{"frame_index":421,"name":"ports_15","capacity":10000,"empty":2679,"full":1720,"on_shipper":143,"on_consignee":0,"shortage":0,"acc_shortage":0,"booking":86,"acc_booking":24252,"fulfillment":86,"acc_fulfillment":24252,"transfer_cost":0.0,"port_name":"Seattle","position":{"lat":47.608013,"lng":-122.335167},"status":"surplus"},{"frame_index":421,"name":"ports_16","capacity":10000,"empty":663,"full":1271,"on_shipper":171,"on_consignee":0,"shortage":0,"acc_shortage":0,"booking":110,"acc_booking":34607,"fulfillment":110,"acc_fulfillment":34607,"transfer_cost":0.0,"port_name":"Shanghai","position":{"lat":31.224361,"lng":121.46917},"status":"surplus"},{"frame_index":421,"name":"ports_17","capacity":10000,"empty":2449,"full":366,"on_shipper":63,"on_consignee":186,"shortage":0,"acc_shortage":40,"booking":51,"acc_booking":13970,"fulfillment":51,"acc_fulfillment":13930,"transfer_cost":11.0,"port_name":"Singapore","position":{"lat":1.29027,"lng":103.851959},"status":"surplus"},{"frame_index":421,"name":"ports_18","capacity":10000,"empty":0,"full":382,"on_shipper":0,"on_consignee":0,"shortage":19,"acc_shortage":527,"booking":19,"acc_booking":5330,"fulfillment":0,"acc_fulfillment":4803,"transfer_cost":0.0,"port_name":"Sydney","position":{"lat":-33.865143,"lng":151.2099},"status":"demand"},{"frame_index":421,"name":"ports_19","capacity":10000,"empty":195,"full":856,"on_shipper":36,"on_consignee":0,"shortage":0,"acc_shortage":0,"booking":28,"acc_booking":7122,"fulfillment":28,"acc_fulfillment":7122,"transfer_cost":0.0,"port_name":"Vancouver","position":{"lat":49.246292,"lng":-123.116226},"status":"surplus"},{"frame_index":421,"name":"ports_20","capacity":10000,"empty":729,"full":555,"on_shipper":118,"on_consignee":275,"shortage":0,"acc_shortage":350,"booking":84,"acc_booking":23990,"fulfillment":84,"acc_fulfillment":23640,"transfer_cost":0.0,"port_name":"Yantian","position":{"lat":26.8533,"lng":119.8575},"status":"surplus"},{"frame_index":421,"name":"ports_21","capacity":10000,"empty":0,"full":807,"on_shipper":54,"on_consignee":0,"shortage":84,"acc_shortage":2528,"booking":92,"acc_booking":23054,"fulfillment":8,"acc_fulfillment":20526,"transfer_cost":0.0,"port_name":"Yokohama","position":{"lat":35.443707,"lng":139.638031},"status":"demand"}]