[{"frame_index":674,"name":"ports_0","capacity":10000,"empty":5210,"full":3796,"on_shipper":34,"on_consignee":0,"shortage":0,"acc_shortage":522,"booking":21,"acc_booking":86016,"fulfillment":21,"acc_fulfillment":85494,"transfer_cost":0.0,"port_name":"Bremerhaven","position":{"lat":53.549999,"lng":8.583333},"status":"surplus"},{"frame_index":674,"name":"ports_1","capacity":10000,"empty":77,"full":166,"on_shipper":3,"on_consignee":0,"shortage":0,"acc_shortage":0,"booking":2,"acc_booking":5716,"fulfillment":2,"acc_fulfillment":5716,"transfer_cost":0.0,"port_name":"Durban","position":{"lat":-29.8579,"lng":31.0292},"status":"surplus"},{"frame_index":674,"name":"ports_2","capacity":10000,"empty":431,"full":100,"on_shipper":4,"on_consignee":0,"shortage":0,"acc_shortage":298,"booking":2,"acc_booking":5697,"fulfillment":2,"acc_fulfillment":5399,"transfer_cost":0.0,"port_name":"Itagual","position":{"lat":-22.85222,"lng":-43.77528},"status":"surplus"},{"frame_index":674,"name":"ports_3","capacity":10000,"empty":3138,"full":113,"on_shipper":8,"on_consignee":0,"shortage":0,"acc_shortage":0,"booking":8,"acc_booking":32539,"fulfillment":8,"acc_fulfillment":32539,"transfer_cost":0.0,"port_name":"LeHavre","position":{"lat":49.490002,"lng":0.1},"status":"surplus"},{"frame_index":674,"name":"ports_4","capacity":10000,"empty":2019,"full":605,"on_shipper":14,"on_consignee":0,"shortage":0,"acc_shortage":150,"booking":7,"acc_booking":27227,"fulfillment":7,"acc_fulfillment":27077,"transfer_cost":0.0,"port_name":"Los Angeles","position":{"lat":34.052235,"lng":-118.243683},"status":"surplus"},{"frame_index":674,"name":"ports_5","capacity":10000,"empty":2055,"full":39,"on_shipper":9,"on_consignee":0,"shortage":0,"acc_shortage":123,"booking":6,"acc_booking":27296,"fulfillment":6,"acc_fulfillment":27173,"transfer_cost":0.0,"port_name":"Manzanillo","position":{"lat":19.11695,"lng":-104.34214},"status":"surplus"},{"frame_index":674,"name":"ports_6","capacity":10000,"empty":449,"full":67,"on_shipper":2,"on_consignee":0,"shortage":0,"acc_shortage":1336,"booking":2,"acc_booking":8382,"fulfillment":2,"acc_fulfillment":7046,"transfer_cost":0.0,"port_name":"Melbourne","position":{"lat":-37.840935,"lng":144.946457},"status":"surplus"},{"frame_index":674,"name":"ports_7","capacity":10000,"empty":197,"full":0,"on_shipper":3,"on_consignee":587,"shortage":0,"acc_shortage":0,"booking":2,"acc_booking":8389,"fulfillment":2,"acc_fulfillment":8389,"transfer_cost":458.0,"port_name":"Montreal","position":{"lat":45.516136,"lng":-73.65683},"status":"surplus"},{"frame_index":674,"name":"ports_8","capacity":10000,"empty":4895,"full":88,"on_shipper":13,"on_consignee":0,"shortage":0,"acc_shortage":0,"booking":5,"acc_booking":16398,"fulfillment":5,"acc_fulfillment":16398,"transfer_cost":0.0,"port_name":"New York","position":{"lat":40.73061,"lng":-73.935242},"status":"surplus"},{"frame_index":674,"name":"ports_9","capacity":10000,"empty":705,"full":324,"on_shipper":10,"on_consignee":0,"shortage":0,"acc_shortage":45,"booking":4,"acc_booking":16461,"fulfillment":4,"acc_fulfillment":16416,"transfer_cost":0.0,"port_name":"Oakland","position":{"lat":37.804363,"lng":-122.271111},"status":"surplus"},{"frame_index":674,"name":"ports_10","capacity":10000,"empty":898,"full":202,"on_shipper":4,"on_consignee":0,"shortage":0,"acc_shortage":314,"booking":2,"acc_booking":8406,"fulfillment":2,"acc_fulfillment":8092,"transfer_cost":0.0,"port_name":"Prince Rupert","position":{"lat":54.312519,"lng":-130.305405},"status":"surplus"},{"frame_index":674,"name":"ports_11","capacity":10000,"empty":3492,"full":709,"on_shipper":15,"on_consignee":540,"shortage":0,"acc_shortage":204,"booking":8,"acc_booking":32503,"fulfillment":8,"acc_fulfillment":32299,"transfer_cost":0.0,"port_name":"Pusan","position":{"lat":35.166668,"lng":129.066666},"status":"surplus"},{"frame_index":674,"name":"ports_12","capacity":10000,"empty":2830,"full":1430,"on_shipper":21,"on_consignee":0,"shortage":0,"acc_shortage":0,"booking":12,"acc_booking":43382,"fulfillment":12,"acc_fulfillment":43382,"transfer_cost":0.0,"port_name":"Qingdao","position":{"lat":36.066898,"lng":120.382698},"status":"surplus"},{"frame_index":674,"name":"ports_13","capacity":10000,"empty":683,"full":24,"on_shipper":2,"on_consignee":0,"shortage":0,"acc_shortage":325,"booking":2,"acc_booking":5694,"fulfillment":2,"acc_fulfillment":5369,"transfer_cost":0.0,"port_name":"San Antonio","position":{"lat":29.424349,"lng":-98.491142},"status":"surplus"},{"frame_index":674,"name":"ports_14","capacity":10000,"empty":285,"full":0,"on_shipper":4,"on_consignee":289,"shortage":0,"acc_shortage":762,"booking":2,"acc_booking":5740,"fulfillment":2,"acc_fulfillment":4978,"transfer_cost":244.0,"port_name":"Santos","position":{"lat":-23.96083,"lng":-46.33361},"status":"surplus"},{"frame_index":674,"name":"ports_15","capacity":10000,"empty":3536,"full":271,"on_shipper":19,"on_consignee":0,"shortage":0,"acc_shortage":0,"booking":9,"acc_booking":37907,"fulfillment":9,"acc_fulfillment":37907,"transfer_cost":0.0,"port_name":"Seattle","position":{"lat":47.608013,"lng":-122.335167},"status":"surplus"},{"frame_index":674,"name":"ports_16","capacity":10000,"empty":1414,"full":790,"on_shipper":25,"on_consignee":0,"shortage":0,"acc_shortage":712,"booking":11,"acc_booking":53994,"fulfillment":11,"acc_fulfillment":53282,"transfer_cost":0.0,"port_name":"Shanghai","position":{"lat":31.224361,"lng":121.46917},"status":"surplus"},{"frame_index":674,"name":"ports_17","capacity":10000,"empty":705,"full":353,"on_shipper":9,"on_consignee":0,"shortage":0,"acc_shortage":283,"booking":5,"acc_booking":21856,"fulfillment":5,"acc_fulfillment":21573,"transfer_cost":0.0,"port_name":"Singapore","position":{"lat":1.29027,"lng":103.851959},"status":"surplus"},{"frame_index":674,"name":"ports_18","capacity":10000,"empty":469,"full":17,"on_shipper":5,"on_consignee":0,"shortage":0,"acc_shortage":1082,"booking":2,"acc_booking":8356,"fulfillment":2,"acc_fulfillment":7274,"transfer_cost":0.0,"port_name":"Sydney","position":{"lat":-33.865143,"lng":151.2099},"status":"surplus"},{"frame_index":674,"name":"ports_19","capacity":10000,"empty":714,"full":614,"on_shipper":6,"on_consignee":0,"shortage":0,"acc_shortage":0,"booking":3,"acc_booking":11133,"fulfillment":3,"acc_fulfillment":11133,"transfer_cost":0.0,"port_name":"Vancouver","position":{"lat":49.246292,"lng":-123.116226},"status":"surplus"},{"frame_index":674,"name":"ports_20","capacity":10000,"empty":916,"full":678,"on_shipper":17,"on_consignee":0,"shortage":0,"acc_shortage":395,"booking":9,"acc_booking":37660,"fulfillment":9,"acc_fulfillment":37265,"transfer_cost":0.0,"port_name":"Yantian","position":{"lat":26.8533,"lng":119.8575},"status":"surplus"},{"frame_index":674,"name":"ports_21","capacity":10000,"empty":207,"full":9,"on_shipper":4,"on_consignee":48,"shortage":0,"acc_shortage":4175,"booking":0,"acc_booking":35901,"fulfillment":0,"acc_fulfillment":31726,"transfer_cost":22.0,"port_name":"Yokohama","position":{"lat":35.443707,"lng":139.638031},"status":"surplus"}]