[{"frame_index":182,"name":"ports_0","capacity":10000,"empty":4383,"full":5417,"on_shipper":439,"on_consignee":0,"shortage":0,"acc_shortage":0,"booking":259,"acc_booking":24085,"fulfillment":259,"acc_fulfillment":24085,"transfer_cost":0.0,"port_name":"Bremerhaven","position":{"lat":53.549999,"lng":8.583333},"status":"surplus"},{"frame_index":182,"name":"ports_1","capacity":10000,"empty":475,"full":422,"on_shipper":20,"on_consignee":0,"shortage":0,"acc_shortage":0,"booking":20,"acc_booking":1614,"fulfillment":20,"acc_fulfillment":1614,"transfer_cost":0.0,"port_name":"Durban","position":{"lat":-29.8579,"lng":31.0292},"status":"surplus"},{"frame_index":182,"name":"ports_2","capacity":10000,"empty":298,"full":388,"on_shipper":34,"on_consignee":0,"shortage":0,"acc_shortage":233,"booking":18,"acc_booking":1601,"fulfillment":18,"acc_fulfillment":1368,"transfer_cost":0.0,"port_name":"Itagual","position":{"lat":-22.85222,"lng":-43.77528},"status":"surplus"},{"frame_index":182,"name":"ports_3","capacity":10000,"empty":3118,"full":1008,"on_shipper":155,"on_consignee":0,"shortage":0,"acc_shortage":0,"booking":110,"acc_booking":9150,"fulfillment":110,"acc_fulfillment":9150,"transfer_cost":0.0,"port_name":"LeHavre","position":{"lat":49.490002,"lng":0.1},"status":"surplus"},{"frame_index":182,"name":"ports_4","capacity":10000,"empty":2890,"full":412,"on_shipper":141,"on_consignee":0,"shortage":0,"acc_shortage":0,"booking":91,"acc_booking":7651,"fulfillment":91,"acc_fulfillment":7651,"transfer_cost":0.0,"port_name":"Los Angeles","position":{"lat":34.052235,"lng":-118.243683},"status":"surplus"},{"frame_index":182,"name":"ports_5","capacity":10000,"empty":1225,"full":138,"on_shipper":130,"on_consignee":0,"shortage":0,"acc_shortage":0,"booking":86,"acc_booking":7646,"fulfillment":86,"acc_fulfillment":7646,"transfer_cost":0.0,"port_name":"Manzanillo","position":{"lat":19.11695,"lng":-104.34214},"status":"surplus"},{"frame_index":182,"name":"ports_6","capacity":10000,"empty":297,"full":219,"on_shipper":41,"on_consignee":0,"shortage":0,"acc_shortage":0,"booking":27,"acc_booking":2352,"fulfillment":27,"acc_fulfillment":2352,"transfer_cost":0.0,"port_name":"Melbourne","position":{"lat":-37.840935,"lng":144.946457},"status":"surplus"},{"frame_index":182,"name":"ports_7","capacity":10000,"empty":2519,"full":61,"on_shipper":50,"on_consignee":0,"shortage":0,"acc_shortage":0,"booking":27,"acc_booking":2350,"fulfillment":27,"acc_fulfillment":2350,"transfer_cost":0.0,"port_name":"Montreal","position":{"lat":45.516136,"lng":-73.65683},"status":"surplus"},{"frame_index":182,"name":"ports_8","capacity":10000,"empty":3705,"full":690,"on_shipper":54,"on_consignee":0,"shortage":0,"acc_shortage":0,"booking":54,"acc_booking":4604,"fulfillment":54,"acc_fulfillment":4604,"transfer_cost":0.0,"port_name":"New York","position":{"lat":40.73061,"lng":-73.935242},"status":"surplus"},{"frame_index":182,"name":"ports_9","capacity":10000,"empty":653,"full":1675,"on_shipper":88,"on_consignee":0,"shortage":0,"acc_shortage":0,"booking":61,"acc_booking":4585,"fulfillment":61,"acc_fulfillment":4585,"transfer_cost":0.0,"port_name":"Oakland","position":{"lat":37.804363,"lng":-122.271111},"status":"surplus"},{"frame_index":182,"name":"ports_10","capacity":10000,"empty":843,"full":206,"on_shipper":44,"on_consignee":0,"shortage":0,"acc_shortage":0,"booking":27,"acc_booking":2341,"fulfillment":27,"acc_fulfillment":2341,"transfer_cost":0.0,"port_name":"Prince Rupert","position":{"lat":54.312519,"lng":-130.305405},"status":"surplus"},{"frame_index":182,"name":"ports_11","capacity":10000,"empty":1762,"full":507,"on_shipper":150,"on_consignee":0,"shortage":0,"acc_shortage":0,"booking":112,"acc_booking":9132,"fulfillment":112,"acc_fulfillment":9132,"transfer_cost":0.0,"port_name":"Pusan","position":{"lat":35.166668,"lng":129.066666},"status":"surplus"},{"frame_index":182,"name":"ports_12","capacity":10000,"empty":1442,"full":2270,"on_shipper":203,"on_consignee":0,"shortage":0,"acc_shortage":0,"booking":127,"acc_booking":12153,"fulfillment":127,"acc_fulfillment":12153,"transfer_cost":0.0,"port_name":"Qingdao","position":{"lat":36.066898,"lng":120.382698},"status":"surplus"},{"frame_index":182,"name":"ports_13","capacity":10000,"empty":267,"full":0,"on_shipper":19,"on_consignee":279,"shortage":0,"acc_shortage":55,"booking":19,"acc_booking":1601,"fulfillment":19,"acc_fulfillment":1546,"transfer_cost":114.0,"port_name":"San Antonio","position":{"lat":29.424349,"lng":-98.491142},"status":"surplus"},{"frame_index":182,"name":"ports_14","capacity":10000,"empty":0,"full":224,"on_shipper":0,"on_consignee":0,"shortage":18,"acc_shortage":442,"booking":18,"acc_booking":1618,"fulfillment":0,"acc_fulfillment":1176,"transfer_cost":0.0,"port_name":"Santos","position":{"lat":-23.96083,"lng":-46.33361},"status":"demand"},{"frame_index":182,"name":"ports_15","capacity":10000,"empty":2599,"full":1023,"on_shipper":178,"on_consignee":0,"shortage":0,"acc_shortage":0,"booking":126,"acc_booking":10651,"fulfillment":126,"acc_fulfillment":10651,"transfer_cost":0.0,"port_name":"Seattle","position":{"lat":47.608013,"lng":-122.335167},"status":"surplus"},{"frame_index":182,"name":"ports_16","capacity":10000,"empty":2152,"full":1304,"on_shipper":207,"on_consignee":371,"shortage":0,"acc_shortage":0,"booking":164,"acc_booking":15140,"fulfillment":164,"acc_fulfillment":15140,"transfer_cost":0.0,"port_name":"Shanghai","position":{"lat":31.224361,"lng":121.46917},"status":"surplus"},{"frame_index":182,"name":"ports_17","capacity":10000,"empty":407,"full":435,"on_shipper":105,"on_consignee":0,"shortage":0,"acc_shortage":0,"booking":70,"acc_booking":6143,"fulfillment":70,"acc_fulfillment":6143,"transfer_cost":0.0,"port_name":"Singapore","position":{"lat":1.29027,"lng":103.851959},"status":"surplus"},{"frame_index":182,"name":"ports_18","capacity":10000,"empty":230,"full":399,"on_shipper":31,"on_consignee":0,"shortage":0,"acc_shortage":0,"booking":24,"acc_booking":2327,"fulfillment":24,"acc_fulfillment":2327,"transfer_cost":0.0,"port_name":"Sydney","position":{"lat":-33.865143,"lng":151.2099},"status":"surplus"},{"frame_index":182,"name":"ports_19","capacity":10000,"empty":624,"full":276,"on_shipper":65,"on_consignee":0,"shortage":0,"acc_shortage":0,"booking":39,"acc_booking":3115,"fulfillment":39,"acc_fulfillment":3115,"transfer_cost":0.0,"port_name":"Vancouver","position":{"lat":49.246292,"lng":-123.116226},"status":"surplus"},{"frame_index":182,"name":"ports_20","capacity":10000,"empty":1272,"full":1436,"on_shipper":187,"on_consignee":5,"shortage":0,"acc_shortage":0,"booking":126,"acc_booking":10467,"fulfillment":126,"acc_fulfillment":10467,"transfer_cost":0.0,"port_name":"Yantian","position":{"lat":26.8533,"lng":119.8575},"status":"surplus"},{"frame_index":182,"name":"ports_21","capacity":10000,"empty":904,"full":2395,"on_shipper":216,"on_consignee":0,"shortage":0,"acc_shortage":0,"booking":134,"acc_booking":10161,"fulfillment":134,"acc_fulfillment":10161,"transfer_cost":0.0,"port_name":"Yokohama","position":{"lat":35.443707,"lng":139.638031},"status":"surplus"}]