[{"frame_index":650,"name":"ports_0","capacity":10000,"empty":791,"full":6185,"on_shipper":134,"on_consignee":0,"shortage":0,"acc_shortage":522,"booking":79,"acc_booking":84472,"fulfillment":79,"acc_fulfillment":83950,"transfer_cost":0.0,"port_name":"Bremerhaven","position":{"lat":53.549999,"lng":8.583333},"status":"surplus"},{"frame_index":650,"name":"ports_1","capacity":10000,"empty":183,"full":54,"on_shipper":9,"on_consignee":0,"shortage":0,"acc_shortage":0,"booking":5,"acc_booking":5610,"fulfillment":5,"acc_fulfillment":5610,"transfer_cost":0.0,"port_name":"Durban","position":{"lat":-29.8579,"lng":31.0292},"status":"surplus"},{"frame_index":650,"name":"ports_2","capacity":10000,"empty":0,"full":240,"on_shipper":0,"on_consignee":0,"shortage":5,"acc_shortage":294,"booking":5,"acc_booking":5589,"fulfillment":0,"acc_fulfillment":5295,"transfer_cost":0.0,"port_name":"Itagual","position":{"lat":-22.85222,"lng":-43.77528},"status":"balance"},{"frame_index":650,"name":"ports_3","capacity":10000,"empty":1554,"full":1235,"on_shipper":42,"on_consignee":0,"shortage":0,"acc_shortage":0,"booking":30,"acc_booking":31960,"fulfillment":30,"acc_fulfillment":31960,"transfer_cost":0.0,"port_name":"LeHavre","position":{"lat":49.490002,"lng":0.1},"status":"surplus"},{"frame_index":650,"name":"ports_4","capacity":10000,"empty":962,"full":458,"on_shipper":60,"on_consignee":0,"shortage":0,"acc_shortage":150,"booking":26,"acc_booking":26743,"fulfillment":26,"acc_fulfillment":26593,"transfer_cost":0.0,"port_name":"Los Angeles","position":{"lat":34.052235,"lng":-118.243683},"status":"surplus"},{"frame_index":650,"name":"ports_5","capacity":10000,"empty":1661,"full":194,"on_shipper":53,"on_consignee":0,"shortage":0,"acc_shortage":123,"booking":29,"acc_booking":26845,"fulfillment":29,"acc_fulfillment":26722,"transfer_cost":0.0,"port_name":"Manzanillo","position":{"lat":19.11695,"lng":-104.34214},"status":"surplus"},{"frame_index":650,"name":"ports_6","capacity":10000,"empty":262,"full":152,"on_shipper":11,"on_consignee":143,"shortage":0,"acc_shortage":1336,"booking":8,"acc_booking":8229,"fulfillment":8,"acc_fulfillment":6893,"transfer_cost":0.0,"port_name":"Melbourne","position":{"lat":-37.840935,"lng":144.946457},"status":"surplus"},{"frame_index":650,"name":"ports_7","capacity":10000,"empty":809,"full":12,"on_shipper":15,"on_consignee":0,"shortage":0,"acc_shortage":0,"booking":8,"acc_booking":8235,"fulfillment":8,"acc_fulfillment":8235,"transfer_cost":0.0,"port_name":"Montreal","position":{"lat":45.516136,"lng":-73.65683},"status":"surplus"},{"frame_index":650,"name":"ports_8","capacity":10000,"empty":1178,"full":1705,"on_shipper":39,"on_consignee":0,"shortage":0,"acc_shortage":0,"booking":15,"acc_booking":16098,"fulfillment":15,"acc_fulfillment":16098,"transfer_cost":0.0,"port_name":"New York","position":{"lat":40.73061,"lng":-73.935242},"status":"surplus"},{"frame_index":650,"name":"ports_9","capacity":10000,"empty":196,"full":0,"on_shipper":33,"on_consignee":810,"shortage":0,"acc_shortage":45,"booking":14,"acc_booking":16160,"fulfillment":14,"acc_fulfillment":16115,"transfer_cost":786.0,"port_name":"Oakland","position":{"lat":37.804363,"lng":-122.271111},"status":"surplus"},{"frame_index":650,"name":"ports_10","capacity":10000,"empty":1051,"full":36,"on_shipper":17,"on_consignee":0,"shortage":0,"acc_shortage":314,"booking":7,"acc_booking":8253,"fulfillment":7,"acc_fulfillment":7939,"transfer_cost":0.0,"port_name":"Prince Rupert","position":{"lat":54.312519,"lng":-130.305405},"status":"surplus"},{"frame_index":650,"name":"ports_11","capacity":10000,"empty":2713,"full":710,"on_shipper":52,"on_consignee":618,"shortage":0,"acc_shortage":204,"booking":31,"acc_booking":31920,"fulfillment":31,"acc_fulfillment":31716,"transfer_cost":13.0,"port_name":"Pusan","position":{"lat":35.166668,"lng":129.066666},"status":"surplus"},{"frame_index":650,"name":"ports_12","capacity":10000,"empty":1525,"full":2106,"on_shipper":58,"on_consignee":0,"shortage":0,"acc_shortage":0,"booking":39,"acc_booking":42613,"fulfillment":39,"acc_fulfillment":42613,"transfer_cost":0.0,"port_name":"Qingdao","position":{"lat":36.066898,"lng":120.382698},"status":"surplus"},{"frame_index":650,"name":"ports_13","capacity":10000,"empty":665,"full":56,"on_shipper":11,"on_consignee":0,"shortage":0,"acc_shortage":325,"booking":5,"acc_booking":5587,"fulfillment":5,"acc_fulfillment":5262,"transfer_cost":0.0,"port_name":"San Antonio","position":{"lat":29.424349,"lng":-98.491142},"status":"surplus"},{"frame_index":650,"name":"ports_14","capacity":10000,"empty":630,"full":130,"on_shipper":11,"on_consignee":0,"shortage":0,"acc_shortage":762,"booking":6,"acc_booking":5639,"fulfillment":6,"acc_fulfillment":4877,"transfer_cost":0.0,"port_name":"Santos","position":{"lat":-23.96083,"lng":-46.33361},"status":"surplus"},{"frame_index":650,"name":"ports_15","capacity":10000,"empty":1644,"full":1502,"on_shipper":68,"on_consignee":742,"shortage":0,"acc_shortage":0,"booking":34,"acc_booking":37236,"fulfillment":34,"acc_fulfillment":37236,"transfer_cost":0.0,"port_name":"Seattle","position":{"lat":47.608013,"lng":-122.335167},"status":"surplus"},{"frame_index":650,"name":"ports_16","capacity":10000,"empty":932,"full":840,"on_shipper":55,"on_consignee":131,"shortage":0,"acc_shortage":712,"booking":45,"acc_booking":53038,"fulfillment":45,"acc_fulfillment":52326,"transfer_cost":0.0,"port_name":"Shanghai","position":{"lat":31.224361,"lng":121.46917},"status":"surplus"},{"frame_index":650,"name":"ports_17","capacity":10000,"empty":779,"full":487,"on_shipper":38,"on_consignee":4,"shortage":0,"acc_shortage":283,"booking":20,"acc_booking":21466,"fulfillment":20,"acc_fulfillment":21183,"transfer_cost":0.0,"port_name":"Singapore","position":{"lat":1.29027,"lng":103.851959},"status":"surplus"},{"frame_index":650,"name":"ports_18","capacity":10000,"empty":11,"full":236,"on_shipper":18,"on_consignee":0,"shortage":0,"acc_shortage":957,"booking":9,"acc_booking":8198,"fulfillment":9,"acc_fulfillment":7241,"transfer_cost":0.0,"port_name":"Sydney","position":{"lat":-33.865143,"lng":151.2099},"status":"balance"},{"frame_index":650,"name":"ports_19","capacity":10000,"empty":694,"full":615,"on_shipper":25,"on_consignee":0,"shortage":0,"acc_shortage":0,"booking":10,"acc_booking":10929,"fulfillment":10,"acc_fulfillment":10929,"transfer_cost":0.0,"port_name":"Vancouver","position":{"lat":49.246292,"lng":-123.116226},"status":"surplus"},{"frame_index":650,"name":"ports_20","capacity":10000,"empty":983,"full":671,"on_shipper":55,"on_consignee":0,"shortage":0,"acc_shortage":395,"booking":33,"acc_booking":36988,"fulfillment":33,"acc_fulfillment":36593,"transfer_cost":0.0,"port_name":"Yantian","position":{"lat":26.8533,"lng":119.8575},"status":"surplus"},{"frame_index":650,"name":"ports_21","capacity":10000,"empty":0,"full":2432,"on_shipper":0,"on_consignee":0,"shortage":29,"acc_shortage":3696,"booking":29,"acc_booking":35409,"fulfillment":0,"acc_fulfillment":31713,"transfer_cost":0.0,"port_name":"Yokohama","position":{"lat":35.443707,"lng":139.638031},"status":"demand"}]