[{"frame_index":975,"name":"ports_0","capacity":10000,"empty":1482,"full":4372,"on_shipper":69,"on_consignee":0,"shortage":0,"acc_shortage":737,"booking":56,"acc_booking":126544,"fulfillment":56,"acc_fulfillment":125807,"transfer_cost":0.0,"port_name":"Bremerhaven","position":{"lat":53.549999,"lng":8.583333},"status":"surplus"},{"frame_index":975,"name":"ports_1","capacity":10000,"empty":256,"full":262,"on_shipper":6,"on_consignee":0,"shortage":0,"acc_shortage":113,"booking":4,"acc_booking":8411,"fulfillment":4,"acc_fulfillment":8298,"transfer_cost":0.0,"port_name":"Durban","position":{"lat":-29.8579,"lng":31.0292},"status":"surplus"},{"frame_index":975,"name":"ports_2","capacity":10000,"empty":539,"full":92,"on_shipper":5,"on_consignee":0,"shortage":0,"acc_shortage":298,"booking":4,"acc_booking":8373,"fulfillment":4,"acc_fulfillment":8075,"transfer_cost":0.0,"port_name":"Itagual","position":{"lat":-22.85222,"lng":-43.77528},"status":"surplus"},{"frame_index":975,"name":"ports_3","capacity":10000,"empty":3933,"full":424,"on_shipper":23,"on_consignee":60,"shortage":0,"acc_shortage":0,"booking":23,"acc_booking":47891,"fulfillment":23,"acc_fulfillment":47891,"transfer_cost":0.0,"port_name":"LeHavre","position":{"lat":49.490002,"lng":0.1},"status":"surplus"},{"frame_index":975,"name":"ports_4","capacity":10000,"empty":1274,"full":1489,"on_shipper":23,"on_consignee":0,"shortage":0,"acc_shortage":290,"booking":20,"acc_booking":40108,"fulfillment":20,"acc_fulfillment":39818,"transfer_cost":0.0,"port_name":"Los Angeles","position":{"lat":34.052235,"lng":-118.243683},"status":"surplus"},{"frame_index":975,"name":"ports_5","capacity":10000,"empty":645,"full":97,"on_shipper":19,"on_consignee":0,"shortage":0,"acc_shortage":163,"booking":17,"acc_booking":40138,"fulfillment":17,"acc_fulfillment":39975,"transfer_cost":0.0,"port_name":"Manzanillo","position":{"lat":19.11695,"lng":-104.34214},"status":"surplus"},{"frame_index":975,"name":"ports_6","capacity":10000,"empty":336,"full":239,"on_shipper":6,"on_consignee":0,"shortage":0,"acc_shortage":2108,"booking":6,"acc_booking":12344,"fulfillment":6,"acc_fulfillment":10236,"transfer_cost":0.0,"port_name":"Melbourne","position":{"lat":-37.840935,"lng":144.946457},"status":"surplus"},{"frame_index":975,"name":"ports_7","capacity":10000,"empty":1233,"full":273,"on_shipper":8,"on_consignee":0,"shortage":0,"acc_shortage":0,"booking":6,"acc_booking":12353,"fulfillment":6,"acc_fulfillment":12353,"transfer_cost":0.0,"port_name":"Montreal","position":{"lat":45.516136,"lng":-73.65683},"status":"surplus"},{"frame_index":975,"name":"ports_8","capacity":10000,"empty":2424,"full":313,"on_shipper":17,"on_consignee":0,"shortage":0,"acc_shortage":136,"booking":12,"acc_booking":24139,"fulfillment":12,"acc_fulfillment":24003,"transfer_cost":0.0,"port_name":"New York","position":{"lat":40.73061,"lng":-73.935242},"status":"surplus"},{"frame_index":975,"name":"ports_9","capacity":10000,"empty":1529,"full":138,"on_shipper":14,"on_consignee":0,"shortage":0,"acc_shortage":45,"booking":13,"acc_booking":24162,"fulfillment":13,"acc_fulfillment":24117,"transfer_cost":0.0,"port_name":"Oakland","position":{"lat":37.804363,"lng":-122.271111},"status":"surplus"},{"frame_index":975,"name":"ports_10","capacity":10000,"empty":1239,"full":374,"on_shipper":7,"on_consignee":0,"shortage":0,"acc_shortage":314,"booking":7,"acc_booking":12354,"fulfillment":7,"acc_fulfillment":12040,"transfer_cost":0.0,"port_name":"Prince Rupert","position":{"lat":54.312519,"lng":-130.305405},"status":"surplus"},{"frame_index":975,"name":"ports_11","capacity":10000,"empty":2669,"full":702,"on_shipper":28,"on_consignee":0,"shortage":0,"acc_shortage":204,"booking":23,"acc_booking":47841,"fulfillment":23,"acc_fulfillment":47637,"transfer_cost":0.0,"port_name":"Pusan","position":{"lat":35.166668,"lng":129.066666},"status":"surplus"},{"frame_index":975,"name":"ports_12","capacity":10000,"empty":2568,"full":2595,"on_shipper":29,"on_consignee":0,"shortage":0,"acc_shortage":0,"booking":28,"acc_booking":63957,"fulfillment":28,"acc_fulfillment":63957,"transfer_cost":0.0,"port_name":"Qingdao","position":{"lat":36.066898,"lng":120.382698},"status":"surplus"},{"frame_index":975,"name":"ports_13","capacity":10000,"empty":218,"full":105,"on_shipper":6,"on_consignee":0,"shortage":0,"acc_shortage":459,"booking":5,"acc_booking":8373,"fulfillment":5,"acc_fulfillment":7914,"transfer_cost":0.0,"port_name":"San Antonio","position":{"lat":29.424349,"lng":-98.491142},"status":"surplus"},{"frame_index":975,"name":"ports_14","capacity":10000,"empty":423,"full":282,"on_shipper":6,"on_consignee":0,"shortage":0,"acc_shortage":876,"booking":5,"acc_booking":8432,"fulfillment":5,"acc_fulfillment":7556,"transfer_cost":0.0,"port_name":"Santos","position":{"lat":-23.96083,"lng":-46.33361},"status":"surplus"},{"frame_index":975,"name":"ports_15","capacity":10000,"empty":97,"full":1186,"on_shipper":32,"on_consignee":0,"shortage":0,"acc_shortage":859,"booking":27,"acc_booking":55875,"fulfillment":27,"acc_fulfillment":55016,"transfer_cost":0.0,"port_name":"Seattle","position":{"lat":47.608013,"lng":-122.335167},"status":"balance"},{"frame_index":975,"name":"ports_16","capacity":10000,"empty":1880,"full":721,"on_shipper":43,"on_consignee":0,"shortage":0,"acc_shortage":817,"booking":40,"acc_booking":79657,"fulfillment":40,"acc_fulfillment":78840,"transfer_cost":0.0,"port_name":"Shanghai","position":{"lat":31.224361,"lng":121.46917},"status":"surplus"},{"frame_index":975,"name":"ports_17","capacity":10000,"empty":179,"full":526,"on_shipper":20,"on_consignee":38,"shortage":0,"acc_shortage":516,"booking":16,"acc_booking":32158,"fulfillment":16,"acc_fulfillment":31642,"transfer_cost":0.0,"port_name":"Singapore","position":{"lat":1.29027,"lng":103.851959},"status":"surplus"},{"frame_index":975,"name":"ports_18","capacity":10000,"empty":384,"full":452,"on_shipper":9,"on_consignee":0,"shortage":0,"acc_shortage":1374,"booking":6,"acc_booking":12356,"fulfillment":6,"acc_fulfillment":10982,"transfer_cost":0.0,"port_name":"Sydney","position":{"lat":-33.865143,"lng":151.2099},"status":"surplus"},{"frame_index":975,"name":"ports_19","capacity":10000,"empty":567,"full":1124,"on_shipper":11,"on_consignee":0,"shortage":0,"acc_shortage":0,"booking":9,"acc_booking":16349,"fulfillment":9,"acc_fulfillment":16349,"transfer_cost":0.0,"port_name":"Vancouver","position":{"lat":49.246292,"lng":-123.116226},"status":"surplus"},{"frame_index":975,"name":"ports_20","capacity":10000,"empty":603,"full":886,"on_shipper":32,"on_consignee":0,"shortage":0,"acc_shortage":1425,"booking":25,"acc_booking":55556,"fulfillment":25,"acc_fulfillment":54131,"transfer_cost":0.0,"port_name":"Yantian","position":{"lat":26.8533,"lng":119.8575},"status":"surplus"},{"frame_index":975,"name":"ports_21","capacity":10000,"empty":578,"full":603,"on_shipper":20,"on_consignee":0,"shortage":0,"acc_shortage":7238,"booking":20,"acc_booking":53045,"fulfillment":20,"acc_fulfillment":45807,"transfer_cost":0.0,"port_name":"Yokohama","position":{"lat":35.443707,"lng":139.638031},"status":"surplus"}]