[{"frame_index":727,"name":"ports_0","capacity":10000,"empty":2934,"full":4056,"on_shipper":451,"on_consignee":0,"shortage":0,"acc_shortage":522,"booking":253,"acc_booking":92741,"fulfillment":253,"acc_fulfillment":92219,"transfer_cost":0.0,"port_name":"Bremerhaven","position":{"lat":53.549999,"lng":8.583333},"status":"surplus"},{"frame_index":727,"name":"ports_1","capacity":10000,"empty":205,"full":213,"on_shipper":23,"on_consignee":0,"shortage":0,"acc_shortage":0,"booking":15,"acc_booking":6169,"fulfillment":15,"acc_fulfillment":6169,"transfer_cost":0.0,"port_name":"Durban","position":{"lat":-29.8579,"lng":31.0292},"status":"surplus"},{"frame_index":727,"name":"ports_2","capacity":10000,"empty":608,"full":53,"on_shipper":28,"on_consignee":0,"shortage":0,"acc_shortage":298,"booking":16,"acc_booking":6147,"fulfillment":16,"acc_fulfillment":5849,"transfer_cost":0.0,"port_name":"Itagual","position":{"lat":-22.85222,"lng":-43.77528},"status":"surplus"},{"frame_index":727,"name":"ports_3","capacity":10000,"empty":2395,"full":1199,"on_shipper":133,"on_consignee":0,"shortage":0,"acc_shortage":0,"booking":97,"acc_booking":35130,"fulfillment":97,"acc_fulfillment":35130,"transfer_cost":0.0,"port_name":"LeHavre","position":{"lat":49.490002,"lng":0.1},"status":"surplus"},{"frame_index":727,"name":"ports_4","capacity":10000,"empty":0,"full":1575,"on_shipper":103,"on_consignee":0,"shortage":54,"acc_shortage":204,"booking":81,"acc_booking":29403,"fulfillment":27,"acc_fulfillment":29199,"transfer_cost":0.0,"port_name":"Los Angeles","position":{"lat":34.052235,"lng":-118.243683},"status":"demand"},{"frame_index":727,"name":"ports_5","capacity":10000,"empty":1659,"full":202,"on_shipper":117,"on_consignee":0,"shortage":0,"acc_shortage":123,"booking":75,"acc_booking":29481,"fulfillment":75,"acc_fulfillment":29358,"transfer_cost":0.0,"port_name":"Manzanillo","position":{"lat":19.11695,"lng":-104.34214},"status":"surplus"},{"frame_index":727,"name":"ports_6","capacity":10000,"empty":137,"full":481,"on_shipper":31,"on_consignee":0,"shortage":0,"acc_shortage":1336,"booking":24,"acc_booking":9052,"fulfillment":24,"acc_fulfillment":7716,"transfer_cost":0.0,"port_name":"Melbourne","position":{"lat":-37.840935,"lng":144.946457},"status":"balance"},{"frame_index":727,"name":"ports_7","capacity":10000,"empty":692,"full":35,"on_shipper":37,"on_consignee":0,"shortage":0,"acc_shortage":0,"booking":25,"acc_booking":9058,"fulfillment":25,"acc_fulfillment":9058,"transfer_cost":0.0,"port_name":"Montreal","position":{"lat":45.516136,"lng":-73.65683},"status":"surplus"},{"frame_index":727,"name":"ports_8","capacity":10000,"empty":3760,"full":387,"on_shipper":50,"on_consignee":0,"shortage":0,"acc_shortage":0,"booking":50,"acc_booking":17691,"fulfillment":50,"acc_fulfillment":17691,"transfer_cost":0.0,"port_name":"New York","position":{"lat":40.73061,"lng":-73.935242},"status":"surplus"},{"frame_index":727,"name":"ports_9","capacity":10000,"empty":958,"full":378,"on_shipper":61,"on_consignee":0,"shortage":0,"acc_shortage":45,"booking":48,"acc_booking":17751,"fulfillment":48,"acc_fulfillment":17706,"transfer_cost":0.0,"port_name":"Oakland","position":{"lat":37.804363,"lng":-122.271111},"status":"surplus"},{"frame_index":727,"name":"ports_10","capacity":10000,"empty":1341,"full":464,"on_shipper":40,"on_consignee":0,"shortage":0,"acc_shortage":314,"booking":22,"acc_booking":9070,"fulfillment":22,"acc_fulfillment":8756,"transfer_cost":0.0,"port_name":"Prince Rupert","position":{"lat":54.312519,"lng":-130.305405},"status":"surplus"},{"frame_index":727,"name":"ports_11","capacity":10000,"empty":1758,"full":3028,"on_shipper":110,"on_consignee":0,"shortage":0,"acc_shortage":204,"booking":96,"acc_booking":35078,"fulfillment":96,"acc_fulfillment":34874,"transfer_cost":0.0,"port_name":"Pusan","position":{"lat":35.166668,"lng":129.066666},"status":"surplus"},{"frame_index":727,"name":"ports_12","capacity":10000,"empty":1989,"full":1561,"on_shipper":187,"on_consignee":0,"shortage":0,"acc_shortage":0,"booking":142,"acc_booking":46843,"fulfillment":142,"acc_fulfillment":46843,"transfer_cost":0.0,"port_name":"Qingdao","position":{"lat":36.066898,"lng":120.382698},"status":"surplus"},{"frame_index":727,"name":"ports_13","capacity":10000,"empty":368,"full":219,"on_shipper":30,"on_consignee":0,"shortage":0,"acc_shortage":325,"booking":18,"acc_booking":6156,"fulfillment":18,"acc_fulfillment":5831,"transfer_cost":0.0,"port_name":"San Antonio","position":{"lat":29.424349,"lng":-98.491142},"status":"surplus"},{"frame_index":727,"name":"ports_14","capacity":10000,"empty":613,"full":268,"on_shipper":27,"on_consignee":0,"shortage":0,"acc_shortage":762,"booking":18,"acc_booking":6192,"fulfillment":18,"acc_fulfillment":5430,"transfer_cost":0.0,"port_name":"Santos","position":{"lat":-23.96083,"lng":-46.33361},"status":"surplus"},{"frame_index":727,"name":"ports_15","capacity":10000,"empty":2431,"full":1459,"on_shipper":149,"on_consignee":0,"shortage":0,"acc_shortage":0,"booking":111,"acc_booking":40941,"fulfillment":111,"acc_fulfillment":40941,"transfer_cost":0.0,"port_name":"Seattle","position":{"lat":47.608013,"lng":-122.335167},"status":"surplus"},{"frame_index":727,"name":"ports_16","capacity":10000,"empty":736,"full":2618,"on_shipper":249,"on_consignee":325,"shortage":0,"acc_shortage":712,"booking":146,"acc_booking":58322,"fulfillment":146,"acc_fulfillment":57610,"transfer_cost":0.0,"port_name":"Shanghai","position":{"lat":31.224361,"lng":121.46917},"status":"balance"},{"frame_index":727,"name":"ports_17","capacity":10000,"empty":2892,"full":480,"on_shipper":103,"on_consignee":5,"shortage":0,"acc_shortage":283,"booking":66,"acc_booking":23605,"fulfillment":66,"acc_fulfillment":23322,"transfer_cost":0.0,"port_name":"Singapore","position":{"lat":1.29027,"lng":103.851959},"status":"surplus"},{"frame_index":727,"name":"ports_18","capacity":10000,"empty":82,"full":133,"on_shipper":42,"on_consignee":0,"shortage":0,"acc_shortage":1082,"booking":26,"acc_booking":9045,"fulfillment":26,"acc_fulfillment":7963,"transfer_cost":0.0,"port_name":"Sydney","position":{"lat":-33.865143,"lng":151.2099},"status":"balance"},{"frame_index":727,"name":"ports_19","capacity":10000,"empty":801,"full":658,"on_shipper":39,"on_consignee":0,"shortage":0,"acc_shortage":0,"booking":31,"acc_booking":12004,"fulfillment":31,"acc_fulfillment":12004,"transfer_cost":0.0,"port_name":"Vancouver","position":{"lat":49.246292,"lng":-123.116226},"status":"surplus"},{"frame_index":727,"name":"ports_20","capacity":10000,"empty":0,"full":1357,"on_shipper":189,"on_consignee":10,"shortage":30,"acc_shortage":701,"booking":123,"acc_booking":40716,"fulfillment":93,"acc_fulfillment":40015,"transfer_cost":0.0,"port_name":"Yantian","position":{"lat":26.8533,"lng":119.8575},"status":"demand"},{"frame_index":727,"name":"ports_21","capacity":10000,"empty":55,"full":533,"on_shipper":158,"on_consignee":0,"shortage":0,"acc_shortage":4175,"booking":115,"acc_booking":38764,"fulfillment":115,"acc_fulfillment":34589,"transfer_cost":0.0,"port_name":"Yokohama","position":{"lat":35.443707,"lng":139.638031},"status":"demand"}]