[{"frame_index":1086,"name":"ports_0","capacity":10000,"empty":0,"full":4005,"on_shipper":29,"on_consignee":0,"shortage":20,"acc_shortage":899,"booking":20,"acc_booking":140884,"fulfillment":0,"acc_fulfillment":139985,"transfer_cost":0.0,"port_name":"Bremerhaven","position":{"lat":53.549999,"lng":8.583333},"status":"demand"},{"frame_index":1086,"name":"ports_1","capacity":10000,"empty":169,"full":449,"on_shipper":6,"on_consignee":0,"shortage":0,"acc_shortage":113,"booking":2,"acc_booking":9362,"fulfillment":2,"acc_fulfillment":9249,"transfer_cost":0.0,"port_name":"Durban","position":{"lat":-29.8579,"lng":31.0292},"status":"surplus"},{"frame_index":1086,"name":"ports_2","capacity":10000,"empty":830,"full":286,"on_shipper":4,"on_consignee":0,"shortage":0,"acc_shortage":298,"booking":2,"acc_booking":9327,"fulfillment":2,"acc_fulfillment":9029,"transfer_cost":0.0,"port_name":"Itagual","position":{"lat":-22.85222,"lng":-43.77528},"status":"surplus"},{"frame_index":1086,"name":"ports_3","capacity":10000,"empty":3856,"full":2025,"on_shipper":20,"on_consignee":0,"shortage":0,"acc_shortage":0,"booking":8,"acc_booking":53287,"fulfillment":8,"acc_fulfillment":53287,"transfer_cost":0.0,"port_name":"LeHavre","position":{"lat":49.490002,"lng":0.1},"status":"surplus"},{"frame_index":1086,"name":"ports_4","capacity":10000,"empty":77,"full":839,"on_shipper":17,"on_consignee":934,"shortage":0,"acc_shortage":290,"booking":7,"acc_booking":44630,"fulfillment":7,"acc_fulfillment":44340,"transfer_cost":306.0,"port_name":"Los Angeles","position":{"lat":34.052235,"lng":-118.243683},"status":"balance"},{"frame_index":1086,"name":"ports_5","capacity":10000,"empty":1066,"full":641,"on_shipper":17,"on_consignee":0,"shortage":0,"acc_shortage":194,"booking":7,"acc_booking":44708,"fulfillment":7,"acc_fulfillment":44514,"transfer_cost":0.0,"port_name":"Manzanillo","position":{"lat":19.11695,"lng":-104.34214},"status":"surplus"},{"frame_index":1086,"name":"ports_6","capacity":10000,"empty":0,"full":608,"on_shipper":0,"on_consignee":0,"shortage":2,"acc_shortage":2212,"booking":2,"acc_booking":13740,"fulfillment":0,"acc_fulfillment":11528,"transfer_cost":0.0,"port_name":"Melbourne","position":{"lat":-37.840935,"lng":144.946457},"status":"balance"},{"frame_index":1086,"name":"ports_7","capacity":10000,"empty":1034,"full":679,"on_shipper":7,"on_consignee":0,"shortage":0,"acc_shortage":0,"booking":2,"acc_booking":13740,"fulfillment":2,"acc_fulfillment":13740,"transfer_cost":0.0,"port_name":"Montreal","position":{"lat":45.516136,"lng":-73.65683},"status":"surplus"},{"frame_index":1086,"name":"ports_8","capacity":10000,"empty":2499,"full":0,"on_shipper":13,"on_consignee":1893,"shortage":0,"acc_shortage":136,"booking":4,"acc_booking":26868,"fulfillment":4,"acc_fulfillment":26732,"transfer_cost":2247.0,"port_name":"New York","position":{"lat":40.73061,"lng":-73.935242},"status":"surplus"},{"frame_index":1086,"name":"ports_9","capacity":10000,"empty":1151,"full":1075,"on_shipper":12,"on_consignee":0,"shortage":0,"acc_shortage":45,"booking":4,"acc_booking":26923,"fulfillment":4,"acc_fulfillment":26878,"transfer_cost":0.0,"port_name":"Oakland","position":{"lat":37.804363,"lng":-122.271111},"status":"surplus"},{"frame_index":1086,"name":"ports_10","capacity":10000,"empty":1397,"full":293,"on_shipper":9,"on_consignee":0,"shortage":0,"acc_shortage":314,"booking":3,"acc_booking":13731,"fulfillment":3,"acc_fulfillment":13417,"transfer_cost":0.0,"port_name":"Prince Rupert","position":{"lat":54.312519,"lng":-130.305405},"status":"surplus"},{"frame_index":1086,"name":"ports_11","capacity":10000,"empty":2013,"full":1628,"on_shipper":29,"on_consignee":0,"shortage":0,"acc_shortage":204,"booking":8,"acc_booking":53267,"fulfillment":8,"acc_fulfillment":53063,"transfer_cost":0.0,"port_name":"Pusan","position":{"lat":35.166668,"lng":129.066666},"status":"surplus"},{"frame_index":1086,"name":"ports_12","capacity":10000,"empty":2879,"full":1485,"on_shipper":30,"on_consignee":63,"shortage":0,"acc_shortage":0,"booking":11,"acc_booking":71114,"fulfillment":11,"acc_fulfillment":71114,"transfer_cost":0.0,"port_name":"Qingdao","position":{"lat":36.066898,"lng":120.382698},"status":"surplus"},{"frame_index":1086,"name":"ports_13","capacity":10000,"empty":285,"full":266,"on_shipper":4,"on_consignee":0,"shortage":0,"acc_shortage":459,"booking":2,"acc_booking":9325,"fulfillment":2,"acc_fulfillment":8866,"transfer_cost":0.0,"port_name":"San Antonio","position":{"lat":29.424349,"lng":-98.491142},"status":"surplus"},{"frame_index":1086,"name":"ports_14","capacity":10000,"empty":0,"full":378,"on_shipper":0,"on_consignee":0,"shortage":2,"acc_shortage":1223,"booking":2,"acc_booking":9385,"fulfillment":0,"acc_fulfillment":8162,"transfer_cost":0.0,"port_name":"Santos","position":{"lat":-23.96083,"lng":-46.33361},"status":"balance"},{"frame_index":1086,"name":"ports_15","capacity":10000,"empty":210,"full":3071,"on_shipper":42,"on_consignee":0,"shortage":0,"acc_shortage":1489,"booking":9,"acc_booking":62145,"fulfillment":9,"acc_fulfillment":60656,"transfer_cost":0.0,"port_name":"Seattle","position":{"lat":47.608013,"lng":-122.335167},"status":"surplus"},{"frame_index":1086,"name":"ports_16","capacity":10000,"empty":1909,"full":2168,"on_shipper":26,"on_consignee":423,"shortage":0,"acc_shortage":817,"booking":12,"acc_booking":88620,"fulfillment":12,"acc_fulfillment":87803,"transfer_cost":10.0,"port_name":"Shanghai","position":{"lat":31.224361,"lng":121.46917},"status":"surplus"},{"frame_index":1086,"name":"ports_17","capacity":10000,"empty":1057,"full":1067,"on_shipper":19,"on_consignee":4,"shortage":0,"acc_shortage":619,"booking":6,"acc_booking":35785,"fulfillment":6,"acc_fulfillment":35166,"transfer_cost":0.0,"port_name":"Singapore","position":{"lat":1.29027,"lng":103.851959},"status":"surplus"},{"frame_index":1086,"name":"ports_18","capacity":10000,"empty":321,"full":162,"on_shipper":5,"on_consignee":0,"shortage":0,"acc_shortage":1374,"booking":3,"acc_booking":13728,"fulfillment":3,"acc_fulfillment":12354,"transfer_cost":0.0,"port_name":"Sydney","position":{"lat":-33.865143,"lng":151.2099},"status":"surplus"},{"frame_index":1086,"name":"ports_19","capacity":10000,"empty":715,"full":773,"on_shipper":8,"on_consignee":0,"shortage":0,"acc_shortage":0,"booking":3,"acc_booking":18195,"fulfillment":3,"acc_fulfillment":18195,"transfer_cost":0.0,"port_name":"Vancouver","position":{"lat":49.246292,"lng":-123.116226},"status":"surplus"},{"frame_index":1086,"name":"ports_20","capacity":10000,"empty":742,"full":1318,"on_shipper":29,"on_consignee":0,"shortage":0,"acc_shortage":2447,"booking":5,"acc_booking":61926,"fulfillment":5,"acc_fulfillment":59479,"transfer_cost":0.0,"port_name":"Yantian","position":{"lat":26.8533,"lng":119.8575},"status":"surplus"},{"frame_index":1086,"name":"ports_21","capacity":10000,"empty":0,"full":1139,"on_shipper":0,"on_consignee":0,"shortage":0,"acc_shortage":10254,"booking":0,"acc_booking":59020,"fulfillment":0,"acc_fulfillment":48766,"transfer_cost":0.0,"port_name":"Yokohama","position":{"lat":35.443707,"lng":139.638031},"status":"balance"}]