[{"frame_index":571,"name":"ports_0","capacity":10000,"empty":8489,"full":496,"on_shipper":96,"on_consignee":0,"shortage":0,"acc_shortage":522,"booking":63,"acc_booking":71996,"fulfillment":63,"acc_fulfillment":71474,"transfer_cost":0.0,"port_name":"Bremerhaven","position":{"lat":53.549999,"lng":8.583333},"status":"surplus"},{"frame_index":571,"name":"ports_1","capacity":10000,"empty":356,"full":236,"on_shipper":6,"on_consignee":0,"shortage":0,"acc_shortage":0,"booking":4,"acc_booking":4804,"fulfillment":4,"acc_fulfillment":4804,"transfer_cost":0.0,"port_name":"Durban","position":{"lat":-29.8579,"lng":31.0292},"status":"surplus"},{"frame_index":571,"name":"ports_2","capacity":10000,"empty":284,"full":95,"on_shipper":6,"on_consignee":0,"shortage":0,"acc_shortage":233,"booking":4,"acc_booking":4777,"fulfillment":4,"acc_fulfillment":4544,"transfer_cost":0.0,"port_name":"Itagual","position":{"lat":-22.85222,"lng":-43.77528},"status":"surplus"},{"frame_index":571,"name":"ports_3","capacity":10000,"empty":565,"full":1713,"on_shipper":35,"on_consignee":0,"shortage":0,"acc_shortage":0,"booking":23,"acc_booking":27290,"fulfillment":23,"acc_fulfillment":27290,"transfer_cost":0.0,"port_name":"LeHavre","position":{"lat":49.490002,"lng":0.1},"status":"surplus"},{"frame_index":571,"name":"ports_4","capacity":10000,"empty":1457,"full":376,"on_shipper":22,"on_consignee":0,"shortage":0,"acc_shortage":0,"booking":19,"acc_booking":22826,"fulfillment":19,"acc_fulfillment":22826,"transfer_cost":0.0,"port_name":"Los Angeles","position":{"lat":34.052235,"lng":-118.243683},"status":"surplus"},{"frame_index":571,"name":"ports_5","capacity":10000,"empty":1930,"full":470,"on_shipper":33,"on_consignee":0,"shortage":0,"acc_shortage":123,"booking":22,"acc_booking":22873,"fulfillment":22,"acc_fulfillment":22750,"transfer_cost":0.0,"port_name":"Manzanillo","position":{"lat":19.11695,"lng":-104.34214},"status":"surplus"},{"frame_index":571,"name":"ports_6","capacity":10000,"empty":484,"full":76,"on_shipper":8,"on_consignee":0,"shortage":0,"acc_shortage":1259,"booking":6,"acc_booking":7030,"fulfillment":6,"acc_fulfillment":5771,"transfer_cost":0.0,"port_name":"Melbourne","position":{"lat":-37.840935,"lng":144.946457},"status":"surplus"},{"frame_index":571,"name":"ports_7","capacity":10000,"empty":1493,"full":183,"on_shipper":6,"on_consignee":0,"shortage":0,"acc_shortage":0,"booking":6,"acc_booking":7034,"fulfillment":6,"acc_fulfillment":7034,"transfer_cost":0.0,"port_name":"Montreal","position":{"lat":45.516136,"lng":-73.65683},"status":"surplus"},{"frame_index":571,"name":"ports_8","capacity":10000,"empty":1925,"full":207,"on_shipper":16,"on_consignee":0,"shortage":0,"acc_shortage":0,"booking":12,"acc_booking":13742,"fulfillment":12,"acc_fulfillment":13742,"transfer_cost":0.0,"port_name":"New York","position":{"lat":40.73061,"lng":-73.935242},"status":"surplus"},{"frame_index":571,"name":"ports_9","capacity":10000,"empty":615,"full":134,"on_shipper":16,"on_consignee":0,"shortage":0,"acc_shortage":45,"booking":13,"acc_booking":13772,"fulfillment":13,"acc_fulfillment":13727,"transfer_cost":0.0,"port_name":"Oakland","position":{"lat":37.804363,"lng":-122.271111},"status":"surplus"},{"frame_index":571,"name":"ports_10","capacity":10000,"empty":875,"full":185,"on_shipper":5,"on_consignee":0,"shortage":0,"acc_shortage":314,"booking":5,"acc_booking":7049,"fulfillment":5,"acc_fulfillment":6735,"transfer_cost":0.0,"port_name":"Prince Rupert","position":{"lat":54.312519,"lng":-130.305405},"status":"surplus"},{"frame_index":571,"name":"ports_11","capacity":10000,"empty":1599,"full":150,"on_shipper":28,"on_consignee":74,"shortage":0,"acc_shortage":204,"booking":24,"acc_booking":27241,"fulfillment":24,"acc_fulfillment":27037,"transfer_cost":0.0,"port_name":"Pusan","position":{"lat":35.166668,"lng":129.066666},"status":"surplus"},{"frame_index":571,"name":"ports_12","capacity":10000,"empty":2071,"full":572,"on_shipper":45,"on_consignee":137,"shortage":0,"acc_shortage":0,"booking":32,"acc_booking":36433,"fulfillment":32,"acc_fulfillment":36433,"transfer_cost":888.0,"port_name":"Qingdao","position":{"lat":36.066898,"lng":120.382698},"status":"surplus"},{"frame_index":571,"name":"ports_13","capacity":10000,"empty":103,"full":282,"on_shipper":6,"on_consignee":0,"shortage":0,"acc_shortage":286,"booking":4,"acc_booking":4769,"fulfillment":4,"acc_fulfillment":4483,"transfer_cost":0.0,"port_name":"San Antonio","position":{"lat":29.424349,"lng":-98.491142},"status":"surplus"},{"frame_index":571,"name":"ports_14","capacity":10000,"empty":429,"full":68,"on_shipper":5,"on_consignee":0,"shortage":0,"acc_shortage":762,"booking":4,"acc_booking":4818,"fulfillment":4,"acc_fulfillment":4056,"transfer_cost":0.0,"port_name":"Santos","position":{"lat":-23.96083,"lng":-46.33361},"status":"surplus"},{"frame_index":571,"name":"ports_15","capacity":10000,"empty":2197,"full":2584,"on_shipper":29,"on_consignee":0,"shortage":0,"acc_shortage":0,"booking":26,"acc_booking":31789,"fulfillment":26,"acc_fulfillment":31789,"transfer_cost":0.0,"port_name":"Seattle","position":{"lat":47.608013,"lng":-122.335167},"status":"surplus"},{"frame_index":571,"name":"ports_16","capacity":10000,"empty":196,"full":2553,"on_shipper":53,"on_consignee":541,"shortage":0,"acc_shortage":470,"booking":38,"acc_booking":45352,"fulfillment":38,"acc_fulfillment":44882,"transfer_cost":170.0,"port_name":"Shanghai","position":{"lat":31.224361,"lng":121.46917},"status":"balance"},{"frame_index":571,"name":"ports_17","capacity":10000,"empty":1196,"full":341,"on_shipper":21,"on_consignee":0,"shortage":0,"acc_shortage":40,"booking":15,"acc_booking":18318,"fulfillment":15,"acc_fulfillment":18278,"transfer_cost":0.0,"port_name":"Singapore","position":{"lat":1.29027,"lng":103.851959},"status":"surplus"},{"frame_index":571,"name":"ports_18","capacity":10000,"empty":662,"full":151,"on_shipper":6,"on_consignee":0,"shortage":0,"acc_shortage":957,"booking":5,"acc_booking":7003,"fulfillment":5,"acc_fulfillment":6046,"transfer_cost":0.0,"port_name":"Sydney","position":{"lat":-33.865143,"lng":151.2099},"status":"surplus"},{"frame_index":571,"name":"ports_19","capacity":10000,"empty":873,"full":304,"on_shipper":10,"on_consignee":0,"shortage":0,"acc_shortage":0,"booking":8,"acc_booking":9350,"fulfillment":8,"acc_fulfillment":9350,"transfer_cost":0.0,"port_name":"Vancouver","position":{"lat":49.246292,"lng":-123.116226},"status":"surplus"},{"frame_index":571,"name":"ports_20","capacity":10000,"empty":888,"full":1790,"on_shipper":35,"on_consignee":0,"shortage":0,"acc_shortage":395,"booking":26,"acc_booking":31595,"fulfillment":26,"acc_fulfillment":31200,"transfer_cost":0.0,"port_name":"Yantian","position":{"lat":26.8533,"lng":119.8575},"status":"surplus"},{"frame_index":571,"name":"ports_21","capacity":10000,"empty":1020,"full":272,"on_shipper":22,"on_consignee":0,"shortage":0,"acc_shortage":3258,"booking":18,"acc_booking":30031,"fulfillment":18,"acc_fulfillment":26773,"transfer_cost":0.0,"port_name":"Yokohama","position":{"lat":35.443707,"lng":139.638031},"status":"surplus"}]