[{"frame_index":517,"name":"ports_0","capacity":10000,"empty":4336,"full":330,"on_shipper":386,"on_consignee":756,"shortage":0,"acc_shortage":522,"booking":244,"acc_booking":66680,"fulfillment":244,"acc_fulfillment":66158,"transfer_cost":1490.0,"port_name":"Bremerhaven","position":{"lat":53.549999,"lng":8.583333},"status":"surplus"},{"frame_index":517,"name":"ports_1","capacity":10000,"empty":310,"full":91,"on_shipper":34,"on_consignee":0,"shortage":0,"acc_shortage":0,"booking":19,"acc_booking":4453,"fulfillment":19,"acc_fulfillment":4453,"transfer_cost":0.0,"port_name":"Durban","position":{"lat":-29.8579,"lng":31.0292},"status":"surplus"},{"frame_index":517,"name":"ports_2","capacity":10000,"empty":757,"full":243,"on_shipper":27,"on_consignee":0,"shortage":0,"acc_shortage":233,"booking":18,"acc_booking":4418,"fulfillment":18,"acc_fulfillment":4185,"transfer_cost":0.0,"port_name":"Itagual","position":{"lat":-22.85222,"lng":-43.77528},"status":"surplus"},{"frame_index":517,"name":"ports_3","capacity":10000,"empty":1314,"full":1282,"on_shipper":133,"on_consignee":0,"shortage":0,"acc_shortage":0,"booking":103,"acc_booking":25276,"fulfillment":103,"acc_fulfillment":25276,"transfer_cost":0.0,"port_name":"LeHavre","position":{"lat":49.490002,"lng":0.1},"status":"surplus"},{"frame_index":517,"name":"ports_4","capacity":10000,"empty":1114,"full":2403,"on_shipper":136,"on_consignee":0,"shortage":0,"acc_shortage":0,"booking":86,"acc_booking":21128,"fulfillment":86,"acc_fulfillment":21128,"transfer_cost":0.0,"port_name":"Los Angeles","position":{"lat":34.052235,"lng":-118.243683},"status":"surplus"},{"frame_index":517,"name":"ports_5","capacity":10000,"empty":1074,"full":1052,"on_shipper":117,"on_consignee":0,"shortage":0,"acc_shortage":123,"booking":84,"acc_booking":21195,"fulfillment":84,"acc_fulfillment":21072,"transfer_cost":0.0,"port_name":"Manzanillo","position":{"lat":19.11695,"lng":-104.34214},"status":"surplus"},{"frame_index":517,"name":"ports_6","capacity":10000,"empty":6,"full":374,"on_shipper":40,"on_consignee":0,"shortage":0,"acc_shortage":837,"booking":27,"acc_booking":6505,"fulfillment":27,"acc_fulfillment":5668,"transfer_cost":0.0,"port_name":"Melbourne","position":{"lat":-37.840935,"lng":144.946457},"status":"demand"},{"frame_index":517,"name":"ports_7","capacity":10000,"empty":1632,"full":583,"on_shipper":35,"on_consignee":0,"shortage":0,"acc_shortage":0,"booking":26,"acc_booking":6506,"fulfillment":26,"acc_fulfillment":6506,"transfer_cost":0.0,"port_name":"Montreal","position":{"lat":45.516136,"lng":-73.65683},"status":"surplus"},{"frame_index":517,"name":"ports_8","capacity":10000,"empty":673,"full":597,"on_shipper":76,"on_consignee":0,"shortage":0,"acc_shortage":0,"booking":56,"acc_booking":12717,"fulfillment":56,"acc_fulfillment":12717,"transfer_cost":0.0,"port_name":"New York","position":{"lat":40.73061,"lng":-73.935242},"status":"surplus"},{"frame_index":517,"name":"ports_9","capacity":10000,"empty":821,"full":948,"on_shipper":70,"on_consignee":0,"shortage":0,"acc_shortage":45,"booking":61,"acc_booking":12735,"fulfillment":61,"acc_fulfillment":12690,"transfer_cost":0.0,"port_name":"Oakland","position":{"lat":37.804363,"lng":-122.271111},"status":"surplus"},{"frame_index":517,"name":"ports_10","capacity":10000,"empty":1055,"full":50,"on_shipper":43,"on_consignee":0,"shortage":0,"acc_shortage":314,"booking":29,"acc_booking":6516,"fulfillment":29,"acc_fulfillment":6202,"transfer_cost":0.0,"port_name":"Prince Rupert","position":{"lat":54.312519,"lng":-130.305405},"status":"surplus"},{"frame_index":517,"name":"ports_11","capacity":10000,"empty":1344,"full":2469,"on_shipper":157,"on_consignee":0,"shortage":0,"acc_shortage":204,"booking":100,"acc_booking":25205,"fulfillment":100,"acc_fulfillment":25001,"transfer_cost":0.0,"port_name":"Pusan","position":{"lat":35.166668,"lng":129.066666},"status":"surplus"},{"frame_index":517,"name":"ports_12","capacity":10000,"empty":2875,"full":2288,"on_shipper":208,"on_consignee":0,"shortage":0,"acc_shortage":0,"booking":148,"acc_booking":33677,"fulfillment":148,"acc_fulfillment":33677,"transfer_cost":0.0,"port_name":"Qingdao","position":{"lat":36.066898,"lng":120.382698},"status":"surplus"},{"frame_index":517,"name":"ports_13","capacity":10000,"empty":575,"full":34,"on_shipper":27,"on_consignee":0,"shortage":0,"acc_shortage":286,"booking":17,"acc_booking":4411,"fulfillment":17,"acc_fulfillment":4125,"transfer_cost":0.0,"port_name":"San Antonio","position":{"lat":29.424349,"lng":-98.491142},"status":"surplus"},{"frame_index":517,"name":"ports_14","capacity":10000,"empty":482,"full":109,"on_shipper":22,"on_consignee":0,"shortage":0,"acc_shortage":762,"booking":18,"acc_booking":4452,"fulfillment":18,"acc_fulfillment":3690,"transfer_cost":0.0,"port_name":"Santos","position":{"lat":-23.96083,"lng":-46.33361},"status":"surplus"},{"frame_index":517,"name":"ports_15","capacity":10000,"empty":3750,"full":985,"on_shipper":150,"on_consignee":0,"shortage":0,"acc_shortage":0,"booking":122,"acc_booking":29420,"fulfillment":122,"acc_fulfillment":29420,"transfer_cost":0.0,"port_name":"Seattle","position":{"lat":47.608013,"lng":-122.335167},"status":"surplus"},{"frame_index":517,"name":"ports_16","capacity":10000,"empty":212,"full":2230,"on_shipper":200,"on_consignee":0,"shortage":0,"acc_shortage":70,"booking":156,"acc_booking":41996,"fulfillment":156,"acc_fulfillment":41926,"transfer_cost":0.0,"port_name":"Shanghai","position":{"lat":31.224361,"lng":121.46917},"status":"demand"},{"frame_index":517,"name":"ports_17","capacity":10000,"empty":858,"full":722,"on_shipper":86,"on_consignee":64,"shortage":0,"acc_shortage":40,"booking":71,"acc_booking":16959,"fulfillment":71,"acc_fulfillment":16919,"transfer_cost":0.0,"port_name":"Singapore","position":{"lat":1.29027,"lng":103.851959},"status":"surplus"},{"frame_index":517,"name":"ports_18","capacity":10000,"empty":0,"full":808,"on_shipper":21,"on_consignee":0,"shortage":13,"acc_shortage":787,"booking":27,"acc_booking":6477,"fulfillment":14,"acc_fulfillment":5690,"transfer_cost":0.0,"port_name":"Sydney","position":{"lat":-33.865143,"lng":151.2099},"status":"demand"},{"frame_index":517,"name":"ports_19","capacity":10000,"empty":354,"full":469,"on_shipper":55,"on_consignee":0,"shortage":0,"acc_shortage":0,"booking":37,"acc_booking":8654,"fulfillment":37,"acc_fulfillment":8654,"transfer_cost":0.0,"port_name":"Vancouver","position":{"lat":49.246292,"lng":-123.116226},"status":"surplus"},{"frame_index":517,"name":"ports_20","capacity":10000,"empty":410,"full":1431,"on_shipper":193,"on_consignee":10,"shortage":0,"acc_shortage":350,"booking":123,"acc_booking":29241,"fulfillment":123,"acc_fulfillment":28891,"transfer_cost":10.0,"port_name":"Yantian","position":{"lat":26.8533,"lng":119.8575},"status":"demand"},{"frame_index":517,"name":"ports_21","capacity":10000,"empty":0,"full":2900,"on_shipper":114,"on_consignee":0,"shortage":61,"acc_shortage":2801,"booking":126,"acc_booking":27920,"fulfillment":65,"acc_fulfillment":25119,"transfer_cost":0.0,"port_name":"Yokohama","position":{"lat":35.443707,"lng":139.638031},"status":"demand"}]