[{"frame_index":956,"name":"ports_0","capacity":10000,"empty":297,"full":5982,"on_shipper":229,"on_consignee":0,"shortage":0,"acc_shortage":522,"booking":217,"acc_booking":123471,"fulfillment":217,"acc_fulfillment":122949,"transfer_cost":0.0,"port_name":"Bremerhaven","position":{"lat":53.549999,"lng":8.583333},"status":"demand"},{"frame_index":956,"name":"ports_1","capacity":10000,"empty":462,"full":34,"on_shipper":28,"on_consignee":0,"shortage":0,"acc_shortage":113,"booking":14,"acc_booking":8205,"fulfillment":14,"acc_fulfillment":8092,"transfer_cost":0.0,"port_name":"Durban","position":{"lat":-29.8579,"lng":31.0292},"status":"surplus"},{"frame_index":956,"name":"ports_2","capacity":10000,"empty":461,"full":344,"on_shipper":32,"on_consignee":0,"shortage":0,"acc_shortage":298,"booking":16,"acc_booking":8167,"fulfillment":16,"acc_fulfillment":7869,"transfer_cost":0.0,"port_name":"Itagual","position":{"lat":-22.85222,"lng":-43.77528},"status":"surplus"},{"frame_index":956,"name":"ports_3","capacity":10000,"empty":3004,"full":911,"on_shipper":99,"on_consignee":0,"shortage":0,"acc_shortage":0,"booking":90,"acc_booking":46717,"fulfillment":90,"acc_fulfillment":46717,"transfer_cost":0.0,"port_name":"LeHavre","position":{"lat":49.490002,"lng":0.1},"status":"surplus"},{"frame_index":956,"name":"ports_4","capacity":10000,"empty":1603,"full":440,"on_shipper":86,"on_consignee":657,"shortage":0,"acc_shortage":290,"booking":74,"acc_booking":39122,"fulfillment":74,"acc_fulfillment":38832,"transfer_cost":22.0,"port_name":"Los Angeles","position":{"lat":34.052235,"lng":-118.243683},"status":"surplus"},{"frame_index":956,"name":"ports_5","capacity":10000,"empty":896,"full":526,"on_shipper":127,"on_consignee":0,"shortage":0,"acc_shortage":163,"booking":78,"acc_booking":39190,"fulfillment":78,"acc_fulfillment":39027,"transfer_cost":0.0,"port_name":"Manzanillo","position":{"lat":19.11695,"lng":-104.34214},"status":"surplus"},{"frame_index":956,"name":"ports_6","capacity":10000,"empty":19,"full":589,"on_shipper":32,"on_consignee":0,"shortage":0,"acc_shortage":1855,"booking":22,"acc_booking":12039,"fulfillment":22,"acc_fulfillment":10184,"transfer_cost":0.0,"port_name":"Melbourne","position":{"lat":-37.840935,"lng":144.946457},"status":"demand"},{"frame_index":956,"name":"ports_7","capacity":10000,"empty":1320,"full":200,"on_shipper":36,"on_consignee":0,"shortage":0,"acc_shortage":0,"booking":22,"acc_booking":12050,"fulfillment":22,"acc_fulfillment":12050,"transfer_cost":0.0,"port_name":"Montreal","position":{"lat":45.516136,"lng":-73.65683},"status":"surplus"},{"frame_index":956,"name":"ports_8","capacity":10000,"empty":967,"full":760,"on_shipper":42,"on_consignee":0,"shortage":0,"acc_shortage":136,"booking":42,"acc_booking":23544,"fulfillment":42,"acc_fulfillment":23408,"transfer_cost":0.0,"port_name":"New York","position":{"lat":40.73061,"lng":-73.935242},"status":"surplus"},{"frame_index":956,"name":"ports_9","capacity":10000,"empty":903,"full":900,"on_shipper":72,"on_consignee":0,"shortage":0,"acc_shortage":45,"booking":40,"acc_booking":23576,"fulfillment":40,"acc_fulfillment":23531,"transfer_cost":0.0,"port_name":"Oakland","position":{"lat":37.804363,"lng":-122.271111},"status":"surplus"},{"frame_index":956,"name":"ports_10","capacity":10000,"empty":1524,"full":59,"on_shipper":37,"on_consignee":0,"shortage":0,"acc_shortage":314,"booking":20,"acc_booking":12069,"fulfillment":20,"acc_fulfillment":11755,"transfer_cost":0.0,"port_name":"Prince Rupert","position":{"lat":54.312519,"lng":-130.305405},"status":"surplus"},{"frame_index":956,"name":"ports_11","capacity":10000,"empty":2790,"full":933,"on_shipper":132,"on_consignee":0,"shortage":0,"acc_shortage":204,"booking":86,"acc_booking":46658,"fulfillment":86,"acc_fulfillment":46454,"transfer_cost":0.0,"port_name":"Pusan","position":{"lat":35.166668,"lng":129.066666},"status":"surplus"},{"frame_index":956,"name":"ports_12","capacity":10000,"empty":3570,"full":1511,"on_shipper":184,"on_consignee":163,"shortage":0,"acc_shortage":0,"booking":123,"acc_booking":62395,"fulfillment":123,"acc_fulfillment":62395,"transfer_cost":0.0,"port_name":"Qingdao","position":{"lat":36.066898,"lng":120.382698},"status":"surplus"},{"frame_index":956,"name":"ports_13","capacity":10000,"empty":98,"full":283,"on_shipper":32,"on_consignee":0,"shortage":0,"acc_shortage":449,"booking":16,"acc_booking":8174,"fulfillment":16,"acc_fulfillment":7725,"transfer_cost":0.0,"port_name":"San Antonio","position":{"lat":29.424349,"lng":-98.491142},"status":"balance"},{"frame_index":956,"name":"ports_14","capacity":10000,"empty":628,"full":60,"on_shipper":23,"on_consignee":0,"shortage":0,"acc_shortage":876,"booking":13,"acc_booking":8227,"fulfillment":13,"acc_fulfillment":7351,"transfer_cost":0.0,"port_name":"Santos","position":{"lat":-23.96083,"lng":-46.33361},"status":"surplus"},{"frame_index":956,"name":"ports_15","capacity":10000,"empty":0,"full":1160,"on_shipper":53,"on_consignee":0,"shortage":64,"acc_shortage":704,"booking":107,"acc_booking":54502,"fulfillment":43,"acc_fulfillment":53798,"transfer_cost":0.0,"port_name":"Seattle","position":{"lat":47.608013,"lng":-122.335167},"status":"demand"},{"frame_index":956,"name":"ports_16","capacity":10000,"empty":1977,"full":1232,"on_shipper":203,"on_consignee":12,"shortage":0,"acc_shortage":817,"booking":129,"acc_booking":77678,"fulfillment":129,"acc_fulfillment":76861,"transfer_cost":0.0,"port_name":"Shanghai","position":{"lat":31.224361,"lng":121.46917},"status":"surplus"},{"frame_index":956,"name":"ports_17","capacity":10000,"empty":208,"full":662,"on_shipper":107,"on_consignee":0,"shortage":0,"acc_shortage":283,"booking":59,"acc_booking":31368,"fulfillment":59,"acc_fulfillment":31085,"transfer_cost":0.0,"port_name":"Singapore","position":{"lat":1.29027,"lng":103.851959},"status":"demand"},{"frame_index":956,"name":"ports_18","capacity":10000,"empty":682,"full":122,"on_shipper":41,"on_consignee":0,"shortage":0,"acc_shortage":1374,"booking":24,"acc_booking":12058,"fulfillment":24,"acc_fulfillment":10684,"transfer_cost":0.0,"port_name":"Sydney","position":{"lat":-33.865143,"lng":151.2099},"status":"surplus"},{"frame_index":956,"name":"ports_19","capacity":10000,"empty":473,"full":1171,"on_shipper":39,"on_consignee":0,"shortage":0,"acc_shortage":0,"booking":29,"acc_booking":15954,"fulfillment":29,"acc_fulfillment":15954,"transfer_cost":0.0,"port_name":"Vancouver","position":{"lat":49.246292,"lng":-123.116226},"status":"surplus"},{"frame_index":956,"name":"ports_20","capacity":10000,"empty":1204,"full":753,"on_shipper":172,"on_consignee":48,"shortage":0,"acc_shortage":1425,"booking":113,"acc_booking":54120,"fulfillment":113,"acc_fulfillment":52695,"transfer_cost":1.0,"port_name":"Yantian","position":{"lat":26.8533,"lng":119.8575},"status":"surplus"},{"frame_index":956,"name":"ports_21","capacity":10000,"empty":1705,"full":733,"on_shipper":205,"on_consignee":0,"shortage":0,"acc_shortage":7238,"booking":106,"acc_booking":51695,"fulfillment":106,"acc_fulfillment":44457,"transfer_cost":0.0,"port_name":"Yokohama","position":{"lat":35.443707,"lng":139.638031},"status":"surplus"}]