[{"frame_index":105,"name":"ports_0","capacity":10000,"empty":5258,"full":2471,"on_shipper":80,"on_consignee":0,"shortage":0,"acc_shortage":0,"booking":43,"acc_booking":13788,"fulfillment":43,"acc_fulfillment":13788,"transfer_cost":0.0,"port_name":"Bremerhaven","position":{"lat":53.549999,"lng":8.583333},"status":"surplus"},{"frame_index":105,"name":"ports_1","capacity":10000,"empty":580,"full":122,"on_shipper":5,"on_consignee":0,"shortage":0,"acc_shortage":0,"booking":4,"acc_booking":925,"fulfillment":4,"acc_fulfillment":925,"transfer_cost":0.0,"port_name":"Durban","position":{"lat":-29.8579,"lng":31.0292},"status":"surplus"},{"frame_index":105,"name":"ports_2","capacity":10000,"empty":168,"full":548,"on_shipper":4,"on_consignee":0,"shortage":0,"acc_shortage":0,"booking":3,"acc_booking":912,"fulfillment":3,"acc_fulfillment":912,"transfer_cost":0.0,"port_name":"Itagual","position":{"lat":-22.85222,"lng":-43.77528},"status":"surplus"},{"frame_index":105,"name":"ports_3","capacity":10000,"empty":2056,"full":1100,"on_shipper":23,"on_consignee":0,"shortage":0,"acc_shortage":0,"booking":17,"acc_booking":5247,"fulfillment":17,"acc_fulfillment":5247,"transfer_cost":0.0,"port_name":"LeHavre","position":{"lat":49.490002,"lng":0.1},"status":"surplus"},{"frame_index":105,"name":"ports_4","capacity":10000,"empty":1672,"full":1004,"on_shipper":27,"on_consignee":0,"shortage":0,"acc_shortage":0,"booking":15,"acc_booking":4378,"fulfillment":15,"acc_fulfillment":4378,"transfer_cost":0.0,"port_name":"Los Angeles","position":{"lat":34.052235,"lng":-118.243683},"status":"surplus"},{"frame_index":105,"name":"ports_5","capacity":10000,"empty":955,"full":302,"on_shipper":22,"on_consignee":0,"shortage":0,"acc_shortage":0,"booking":15,"acc_booking":4337,"fulfillment":15,"acc_fulfillment":4337,"transfer_cost":0.0,"port_name":"Manzanillo","position":{"lat":19.11695,"lng":-104.34214},"status":"surplus"},{"frame_index":105,"name":"ports_6","capacity":10000,"empty":325,"full":118,"on_shipper":7,"on_consignee":306,"shortage":0,"acc_shortage":0,"booking":5,"acc_booking":1351,"fulfillment":5,"acc_fulfillment":1351,"transfer_cost":0.0,"port_name":"Melbourne","position":{"lat":-37.840935,"lng":144.946457},"status":"surplus"},{"frame_index":105,"name":"ports_7","capacity":10000,"empty":1514,"full":216,"on_shipper":7,"on_consignee":0,"shortage":0,"acc_shortage":0,"booking":5,"acc_booking":1345,"fulfillment":5,"acc_fulfillment":1345,"transfer_cost":0.0,"port_name":"Montreal","position":{"lat":45.516136,"lng":-73.65683},"status":"surplus"},{"frame_index":105,"name":"ports_8","capacity":10000,"empty":5063,"full":78,"on_shipper":13,"on_consignee":0,"shortage":0,"acc_shortage":0,"booking":9,"acc_booking":2643,"fulfillment":9,"acc_fulfillment":2643,"transfer_cost":0.0,"port_name":"New York","position":{"lat":40.73061,"lng":-73.935242},"status":"surplus"},{"frame_index":105,"name":"ports_9","capacity":10000,"empty":1528,"full":160,"on_shipper":11,"on_consignee":0,"shortage":0,"acc_shortage":0,"booking":8,"acc_booking":2615,"fulfillment":8,"acc_fulfillment":2615,"transfer_cost":0.0,"port_name":"Oakland","position":{"lat":37.804363,"lng":-122.271111},"status":"surplus"},{"frame_index":105,"name":"ports_10","capacity":10000,"empty":498,"full":193,"on_shipper":8,"on_consignee":0,"shortage":0,"acc_shortage":0,"booking":5,"acc_booking":1343,"fulfillment":5,"acc_fulfillment":1343,"transfer_cost":0.0,"port_name":"Prince Rupert","position":{"lat":54.312519,"lng":-130.305405},"status":"surplus"},{"frame_index":105,"name":"ports_11","capacity":10000,"empty":1083,"full":769,"on_shipper":24,"on_consignee":718,"shortage":0,"acc_shortage":0,"booking":17,"acc_booking":5231,"fulfillment":17,"acc_fulfillment":5231,"transfer_cost":0.0,"port_name":"Pusan","position":{"lat":35.166668,"lng":129.066666},"status":"surplus"},{"frame_index":105,"name":"ports_12","capacity":10000,"empty":2259,"full":2133,"on_shipper":37,"on_consignee":10,"shortage":0,"acc_shortage":0,"booking":21,"acc_booking":6967,"fulfillment":21,"acc_fulfillment":6967,"transfer_cost":0.0,"port_name":"Qingdao","position":{"lat":36.066898,"lng":120.382698},"status":"surplus"},{"frame_index":105,"name":"ports_13","capacity":10000,"empty":229,"full":226,"on_shipper":6,"on_consignee":0,"shortage":0,"acc_shortage":0,"booking":3,"acc_booking":920,"fulfillment":3,"acc_fulfillment":920,"transfer_cost":0.0,"port_name":"San Antonio","position":{"lat":29.424349,"lng":-98.491142},"status":"surplus"},{"frame_index":105,"name":"ports_14","capacity":10000,"empty":161,"full":49,"on_shipper":6,"on_consignee":0,"shortage":0,"acc_shortage":0,"booking":4,"acc_booking":925,"fulfillment":4,"acc_fulfillment":925,"transfer_cost":0.0,"port_name":"Santos","position":{"lat":-23.96083,"lng":-46.33361},"status":"surplus"},{"frame_index":105,"name":"ports_15","capacity":10000,"empty":2564,"full":1276,"on_shipper":33,"on_consignee":0,"shortage":0,"acc_shortage":0,"booking":19,"acc_booking":6116,"fulfillment":19,"acc_fulfillment":6116,"transfer_cost":0.0,"port_name":"Seattle","position":{"lat":47.608013,"lng":-122.335167},"status":"surplus"},{"frame_index":105,"name":"ports_16","capacity":10000,"empty":2622,"full":805,"on_shipper":41,"on_consignee":0,"shortage":0,"acc_shortage":0,"booking":26,"acc_booking":8746,"fulfillment":26,"acc_fulfillment":8746,"transfer_cost":0.0,"port_name":"Shanghai","position":{"lat":31.224361,"lng":121.46917},"status":"surplus"},{"frame_index":105,"name":"ports_17","capacity":10000,"empty":1914,"full":286,"on_shipper":19,"on_consignee":0,"shortage":0,"acc_shortage":0,"booking":12,"acc_booking":3519,"fulfillment":12,"acc_fulfillment":3519,"transfer_cost":0.0,"port_name":"Singapore","position":{"lat":1.29027,"lng":103.851959},"status":"surplus"},{"frame_index":105,"name":"ports_18","capacity":10000,"empty":318,"full":465,"on_shipper":7,"on_consignee":0,"shortage":0,"acc_shortage":0,"booking":5,"acc_booking":1326,"fulfillment":5,"acc_fulfillment":1326,"transfer_cost":0.0,"port_name":"Sydney","position":{"lat":-33.865143,"lng":151.2099},"status":"surplus"},{"frame_index":105,"name":"ports_19","capacity":10000,"empty":724,"full":338,"on_shipper":8,"on_consignee":0,"shortage":0,"acc_shortage":0,"booking":6,"acc_booking":1793,"fulfillment":6,"acc_fulfillment":1793,"transfer_cost":0.0,"port_name":"Vancouver","position":{"lat":49.246292,"lng":-123.116226},"status":"surplus"},{"frame_index":105,"name":"ports_20","capacity":10000,"empty":1589,"full":1624,"on_shipper":28,"on_consignee":0,"shortage":0,"acc_shortage":0,"booking":21,"acc_booking":5983,"fulfillment":21,"acc_fulfillment":5983,"transfer_cost":0.0,"port_name":"Yantian","position":{"lat":26.8533,"lng":119.8575},"status":"surplus"},{"frame_index":105,"name":"ports_21","capacity":10000,"empty":2478,"full":1286,"on_shipper":13,"on_consignee":0,"shortage":0,"acc_shortage":0,"booking":10,"acc_booking":5804,"fulfillment":10,"acc_fulfillment":5804,"transfer_cost":0.0,"port_name":"Yokohama","position":{"lat":35.443707,"lng":139.638031},"status":"surplus"}]