[{"frame_index":995,"name":"ports_0","capacity":10000,"empty":4265,"full":576,"on_shipper":116,"on_consignee":0,"shortage":0,"acc_shortage":861,"booking":97,"acc_booking":128954,"fulfillment":97,"acc_fulfillment":128093,"transfer_cost":0.0,"port_name":"Bremerhaven","position":{"lat":53.549999,"lng":8.583333},"status":"surplus"},{"frame_index":995,"name":"ports_1","capacity":10000,"empty":381,"full":43,"on_shipper":12,"on_consignee":0,"shortage":0,"acc_shortage":113,"booking":6,"acc_booking":8571,"fulfillment":6,"acc_fulfillment":8458,"transfer_cost":0.0,"port_name":"Durban","position":{"lat":-29.8579,"lng":31.0292},"status":"surplus"},{"frame_index":995,"name":"ports_2","capacity":10000,"empty":376,"full":252,"on_shipper":8,"on_consignee":0,"shortage":0,"acc_shortage":298,"booking":6,"acc_booking":8536,"fulfillment":6,"acc_fulfillment":8238,"transfer_cost":0.0,"port_name":"Itagual","position":{"lat":-22.85222,"lng":-43.77528},"status":"surplus"},{"frame_index":995,"name":"ports_3","capacity":10000,"empty":4277,"full":121,"on_shipper":70,"on_consignee":1364,"shortage":0,"acc_shortage":0,"booking":35,"acc_booking":48813,"fulfillment":35,"acc_fulfillment":48813,"transfer_cost":310.0,"port_name":"LeHavre","position":{"lat":49.490002,"lng":0.1},"status":"surplus"},{"frame_index":995,"name":"ports_4","capacity":10000,"empty":795,"full":304,"on_shipper":61,"on_consignee":0,"shortage":0,"acc_shortage":290,"booking":31,"acc_booking":40880,"fulfillment":31,"acc_fulfillment":40590,"transfer_cost":0.0,"port_name":"Los Angeles","position":{"lat":34.052235,"lng":-118.243683},"status":"surplus"},{"frame_index":995,"name":"ports_5","capacity":10000,"empty":264,"full":74,"on_shipper":47,"on_consignee":0,"shortage":0,"acc_shortage":163,"booking":28,"acc_booking":40907,"fulfillment":28,"acc_fulfillment":40744,"transfer_cost":0.0,"port_name":"Manzanillo","position":{"lat":19.11695,"lng":-104.34214},"status":"surplus"},{"frame_index":995,"name":"ports_6","capacity":10000,"empty":300,"full":188,"on_shipper":19,"on_consignee":0,"shortage":0,"acc_shortage":2108,"booking":9,"acc_booking":12583,"fulfillment":9,"acc_fulfillment":10475,"transfer_cost":0.0,"port_name":"Melbourne","position":{"lat":-37.840935,"lng":144.946457},"status":"surplus"},{"frame_index":995,"name":"ports_7","capacity":10000,"empty":995,"full":498,"on_shipper":21,"on_consignee":0,"shortage":0,"acc_shortage":0,"booking":9,"acc_booking":12591,"fulfillment":9,"acc_fulfillment":12591,"transfer_cost":0.0,"port_name":"Montreal","position":{"lat":45.516136,"lng":-73.65683},"status":"surplus"},{"frame_index":995,"name":"ports_8","capacity":10000,"empty":1960,"full":753,"on_shipper":41,"on_consignee":0,"shortage":0,"acc_shortage":136,"booking":18,"acc_booking":24603,"fulfillment":18,"acc_fulfillment":24467,"transfer_cost":0.0,"port_name":"New York","position":{"lat":40.73061,"lng":-73.935242},"status":"surplus"},{"frame_index":995,"name":"ports_9","capacity":10000,"empty":1054,"full":592,"on_shipper":35,"on_consignee":0,"shortage":0,"acc_shortage":45,"booking":19,"acc_booking":24637,"fulfillment":19,"acc_fulfillment":24592,"transfer_cost":0.0,"port_name":"Oakland","position":{"lat":37.804363,"lng":-122.271111},"status":"surplus"},{"frame_index":995,"name":"ports_10","capacity":10000,"empty":951,"full":207,"on_shipper":13,"on_consignee":0,"shortage":0,"acc_shortage":314,"booking":10,"acc_booking":12595,"fulfillment":10,"acc_fulfillment":12281,"transfer_cost":0.0,"port_name":"Prince Rupert","position":{"lat":54.312519,"lng":-130.305405},"status":"surplus"},{"frame_index":995,"name":"ports_11","capacity":10000,"empty":1746,"full":1582,"on_shipper":71,"on_consignee":0,"shortage":0,"acc_shortage":204,"booking":35,"acc_booking":48764,"fulfillment":35,"acc_fulfillment":48560,"transfer_cost":0.0,"port_name":"Pusan","position":{"lat":35.166668,"lng":129.066666},"status":"surplus"},{"frame_index":995,"name":"ports_12","capacity":10000,"empty":2604,"full":2241,"on_shipper":68,"on_consignee":0,"shortage":0,"acc_shortage":0,"booking":49,"acc_booking":65205,"fulfillment":49,"acc_fulfillment":65205,"transfer_cost":0.0,"port_name":"Qingdao","position":{"lat":36.066898,"lng":120.382698},"status":"surplus"},{"frame_index":995,"name":"ports_13","capacity":10000,"empty":238,"full":154,"on_shipper":10,"on_consignee":0,"shortage":0,"acc_shortage":459,"booking":6,"acc_booking":8541,"fulfillment":6,"acc_fulfillment":8082,"transfer_cost":0.0,"port_name":"San Antonio","position":{"lat":29.424349,"lng":-98.491142},"status":"surplus"},{"frame_index":995,"name":"ports_14","capacity":10000,"empty":150,"full":87,"on_shipper":10,"on_consignee":0,"shortage":0,"acc_shortage":876,"booking":6,"acc_booking":8592,"fulfillment":6,"acc_fulfillment":7716,"transfer_cost":0.0,"port_name":"Santos","position":{"lat":-23.96083,"lng":-46.33361},"status":"surplus"},{"frame_index":995,"name":"ports_15","capacity":10000,"empty":0,"full":1260,"on_shipper":0,"on_consignee":0,"shortage":41,"acc_shortage":1338,"booking":41,"acc_booking":56938,"fulfillment":0,"acc_fulfillment":55600,"transfer_cost":0.0,"port_name":"Seattle","position":{"lat":47.608013,"lng":-122.335167},"status":"demand"},{"frame_index":995,"name":"ports_16","capacity":10000,"empty":1640,"full":1060,"on_shipper":95,"on_consignee":0,"shortage":0,"acc_shortage":817,"booking":58,"acc_booking":81248,"fulfillment":58,"acc_fulfillment":80431,"transfer_cost":0.0,"port_name":"Shanghai","position":{"lat":31.224361,"lng":121.46917},"status":"surplus"},{"frame_index":995,"name":"ports_17","capacity":10000,"empty":630,"full":379,"on_shipper":34,"on_consignee":0,"shortage":0,"acc_shortage":619,"booking":24,"acc_booking":32780,"fulfillment":24,"acc_fulfillment":32161,"transfer_cost":0.0,"port_name":"Singapore","position":{"lat":1.29027,"lng":103.851959},"status":"surplus"},{"frame_index":995,"name":"ports_18","capacity":10000,"empty":505,"full":361,"on_shipper":13,"on_consignee":0,"shortage":0,"acc_shortage":1374,"booking":8,"acc_booking":12592,"fulfillment":8,"acc_fulfillment":11218,"transfer_cost":0.0,"port_name":"Sydney","position":{"lat":-33.865143,"lng":151.2099},"status":"surplus"},{"frame_index":995,"name":"ports_19","capacity":10000,"empty":921,"full":549,"on_shipper":17,"on_consignee":0,"shortage":0,"acc_shortage":0,"booking":13,"acc_booking":16664,"fulfillment":13,"acc_fulfillment":16664,"transfer_cost":0.0,"port_name":"Vancouver","position":{"lat":49.246292,"lng":-123.116226},"status":"surplus"},{"frame_index":995,"name":"ports_20","capacity":10000,"empty":899,"full":607,"on_shipper":76,"on_consignee":0,"shortage":0,"acc_shortage":1425,"booking":39,"acc_booking":56645,"fulfillment":39,"acc_fulfillment":55220,"transfer_cost":0.0,"port_name":"Yantian","position":{"lat":26.8533,"lng":119.8575},"status":"surplus"},{"frame_index":995,"name":"ports_21","capacity":10000,"empty":0,"full":1201,"on_shipper":0,"on_consignee":0,"shortage":36,"acc_shortage":7666,"booking":36,"acc_booking":54051,"fulfillment":0,"acc_fulfillment":46385,"transfer_cost":0.0,"port_name":"Yokohama","position":{"lat":35.443707,"lng":139.638031},"status":"demand"}]