[{"frame_index":84,"name":"ports_0","capacity":10000,"empty":5473,"full":1665,"on_shipper":232,"on_consignee":16,"shortage":0,"acc_shortage":0,"booking":199,"acc_booking":11904,"fulfillment":199,"acc_fulfillment":11904,"transfer_cost":0.0,"port_name":"Bremerhaven","position":{"lat":53.549999,"lng":8.583333},"status":"surplus"},{"frame_index":84,"name":"ports_1","capacity":10000,"empty":276,"full":559,"on_shipper":15,"on_consignee":0,"shortage":0,"acc_shortage":0,"booking":11,"acc_booking":796,"fulfillment":11,"acc_fulfillment":796,"transfer_cost":0.0,"port_name":"Durban","position":{"lat":-29.8579,"lng":31.0292},"status":"surplus"},{"frame_index":84,"name":"ports_2","capacity":10000,"empty":291,"full":415,"on_shipper":14,"on_consignee":0,"shortage":0,"acc_shortage":0,"booking":11,"acc_booking":789,"fulfillment":11,"acc_fulfillment":789,"transfer_cost":0.0,"port_name":"Itagual","position":{"lat":-22.85222,"lng":-43.77528},"status":"surplus"},{"frame_index":84,"name":"ports_3","capacity":10000,"empty":1590,"full":1318,"on_shipper":100,"on_consignee":0,"shortage":0,"acc_shortage":0,"booking":66,"acc_booking":4560,"fulfillment":66,"acc_fulfillment":4560,"transfer_cost":0.0,"port_name":"LeHavre","position":{"lat":49.490002,"lng":0.1},"status":"surplus"},{"frame_index":84,"name":"ports_4","capacity":10000,"empty":2245,"full":359,"on_shipper":99,"on_consignee":0,"shortage":0,"acc_shortage":0,"booking":53,"acc_booking":3805,"fulfillment":53,"acc_fulfillment":3805,"transfer_cost":0.0,"port_name":"Los Angeles","position":{"lat":34.052235,"lng":-118.243683},"status":"surplus"},{"frame_index":84,"name":"ports_5","capacity":10000,"empty":2303,"full":345,"on_shipper":78,"on_consignee":0,"shortage":0,"acc_shortage":0,"booking":46,"acc_booking":3775,"fulfillment":46,"acc_fulfillment":3775,"transfer_cost":0.0,"port_name":"Manzanillo","position":{"lat":19.11695,"lng":-104.34214},"status":"surplus"},{"frame_index":84,"name":"ports_6","capacity":10000,"empty":506,"full":191,"on_shipper":26,"on_consignee":0,"shortage":0,"acc_shortage":0,"booking":17,"acc_booking":1170,"fulfillment":17,"acc_fulfillment":1170,"transfer_cost":0.0,"port_name":"Melbourne","position":{"lat":-37.840935,"lng":144.946457},"status":"surplus"},{"frame_index":84,"name":"ports_7","capacity":10000,"empty":1163,"full":22,"on_shipper":22,"on_consignee":530,"shortage":0,"acc_shortage":0,"booking":16,"acc_booking":1166,"fulfillment":16,"acc_fulfillment":1166,"transfer_cost":0.0,"port_name":"Montreal","position":{"lat":45.516136,"lng":-73.65683},"status":"surplus"},{"frame_index":84,"name":"ports_8","capacity":10000,"empty":1670,"full":1167,"on_shipper":33,"on_consignee":0,"shortage":0,"acc_shortage":0,"booking":33,"acc_booking":2291,"fulfillment":33,"acc_fulfillment":2291,"transfer_cost":0.0,"port_name":"New York","position":{"lat":40.73061,"lng":-73.935242},"status":"surplus"},{"frame_index":84,"name":"ports_9","capacity":10000,"empty":917,"full":1525,"on_shipper":47,"on_consignee":0,"shortage":0,"acc_shortage":0,"booking":31,"acc_booking":2259,"fulfillment":31,"acc_fulfillment":2259,"transfer_cost":0.0,"port_name":"Oakland","position":{"lat":37.804363,"lng":-122.271111},"status":"surplus"},{"frame_index":84,"name":"ports_10","capacity":10000,"empty":346,"full":0,"on_shipper":25,"on_consignee":328,"shortage":0,"acc_shortage":0,"booking":16,"acc_booking":1167,"fulfillment":16,"acc_fulfillment":1167,"transfer_cost":0.0,"port_name":"Prince Rupert","position":{"lat":54.312519,"lng":-130.305405},"status":"surplus"},{"frame_index":84,"name":"ports_11","capacity":10000,"empty":1710,"full":2428,"on_shipper":99,"on_consignee":0,"shortage":0,"acc_shortage":0,"booking":63,"acc_booking":4543,"fulfillment":63,"acc_fulfillment":4543,"transfer_cost":0.0,"port_name":"Pusan","position":{"lat":35.166668,"lng":129.066666},"status":"surplus"},{"frame_index":84,"name":"ports_12","capacity":10000,"empty":2767,"full":2077,"on_shipper":145,"on_consignee":0,"shortage":0,"acc_shortage":0,"booking":85,"acc_booking":6070,"fulfillment":85,"acc_fulfillment":6070,"transfer_cost":0.0,"port_name":"Qingdao","position":{"lat":36.066898,"lng":120.382698},"status":"surplus"},{"frame_index":84,"name":"ports_13","capacity":10000,"empty":352,"full":93,"on_shipper":16,"on_consignee":0,"shortage":0,"acc_shortage":0,"booking":12,"acc_booking":797,"fulfillment":12,"acc_fulfillment":797,"transfer_cost":0.0,"port_name":"San Antonio","position":{"lat":29.424349,"lng":-98.491142},"status":"surplus"},{"frame_index":84,"name":"ports_14","capacity":10000,"empty":236,"full":81,"on_shipper":14,"on_consignee":0,"shortage":0,"acc_shortage":0,"booking":11,"acc_booking":800,"fulfillment":11,"acc_fulfillment":800,"transfer_cost":0.0,"port_name":"Santos","position":{"lat":-23.96083,"lng":-46.33361},"status":"surplus"},{"frame_index":84,"name":"ports_15","capacity":10000,"empty":1922,"full":3486,"on_shipper":121,"on_consignee":0,"shortage":0,"acc_shortage":0,"booking":77,"acc_booking":5310,"fulfillment":77,"acc_fulfillment":5310,"transfer_cost":0.0,"port_name":"Seattle","position":{"lat":47.608013,"lng":-122.335167},"status":"surplus"},{"frame_index":84,"name":"ports_16","capacity":10000,"empty":2582,"full":2959,"on_shipper":153,"on_consignee":0,"shortage":0,"acc_shortage":0,"booking":91,"acc_booking":7637,"fulfillment":91,"acc_fulfillment":7637,"transfer_cost":0.0,"port_name":"Shanghai","position":{"lat":31.224361,"lng":121.46917},"status":"surplus"},{"frame_index":84,"name":"ports_17","capacity":10000,"empty":1958,"full":396,"on_shipper":60,"on_consignee":176,"shortage":0,"acc_shortage":0,"booking":43,"acc_booking":3054,"fulfillment":43,"acc_fulfillment":3054,"transfer_cost":0.0,"port_name":"Singapore","position":{"lat":1.29027,"lng":103.851959},"status":"surplus"},{"frame_index":84,"name":"ports_18","capacity":10000,"empty":493,"full":272,"on_shipper":25,"on_consignee":0,"shortage":0,"acc_shortage":0,"booking":15,"acc_booking":1151,"fulfillment":15,"acc_fulfillment":1151,"transfer_cost":0.0,"port_name":"Sydney","position":{"lat":-33.865143,"lng":151.2099},"status":"surplus"},{"frame_index":84,"name":"ports_19","capacity":10000,"empty":666,"full":352,"on_shipper":36,"on_consignee":0,"shortage":0,"acc_shortage":0,"booking":22,"acc_booking":1557,"fulfillment":22,"acc_fulfillment":1557,"transfer_cost":0.0,"port_name":"Vancouver","position":{"lat":49.246292,"lng":-123.116226},"status":"surplus"},{"frame_index":84,"name":"ports_20","capacity":10000,"empty":2158,"full":1742,"on_shipper":102,"on_consignee":89,"shortage":0,"acc_shortage":0,"booking":66,"acc_booking":5207,"fulfillment":66,"acc_fulfillment":5207,"transfer_cost":0.0,"port_name":"Yantian","position":{"lat":26.8533,"lng":119.8575},"status":"surplus"},{"frame_index":84,"name":"ports_21","capacity":10000,"empty":3145,"full":528,"on_shipper":104,"on_consignee":0,"shortage":0,"acc_shortage":0,"booking":73,"acc_booking":5137,"fulfillment":73,"acc_fulfillment":5137,"transfer_cost":0.0,"port_name":"Yokohama","position":{"lat":35.443707,"lng":139.638031},"status":"surplus"}]