[{"frame_index":115,"name":"ports_0","capacity":10000,"empty":5276,"full":2692,"on_shipper":129,"on_consignee":0,"shortage":0,"acc_shortage":0,"booking":65,"acc_booking":14341,"fulfillment":65,"acc_fulfillment":14341,"transfer_cost":0.0,"port_name":"Bremerhaven","position":{"lat":53.549999,"lng":8.583333},"status":"surplus"},{"frame_index":115,"name":"ports_1","capacity":10000,"empty":540,"full":160,"on_shipper":7,"on_consignee":0,"shortage":0,"acc_shortage":0,"booking":4,"acc_booking":965,"fulfillment":4,"acc_fulfillment":965,"transfer_cost":0.0,"port_name":"Durban","position":{"lat":-29.8579,"lng":31.0292},"status":"surplus"},{"frame_index":115,"name":"ports_2","capacity":10000,"empty":129,"full":586,"on_shipper":5,"on_consignee":0,"shortage":0,"acc_shortage":0,"booking":4,"acc_booking":951,"fulfillment":4,"acc_fulfillment":951,"transfer_cost":0.0,"port_name":"Itagual","position":{"lat":-22.85222,"lng":-43.77528},"status":"surplus"},{"frame_index":115,"name":"ports_3","capacity":10000,"empty":1989,"full":1141,"on_shipper":26,"on_consignee":0,"shortage":0,"acc_shortage":0,"booking":22,"acc_booking":5460,"fulfillment":22,"acc_fulfillment":5460,"transfer_cost":0.0,"port_name":"LeHavre","position":{"lat":49.490002,"lng":0.1},"status":"surplus"},{"frame_index":115,"name":"ports_4","capacity":10000,"empty":3591,"full":89,"on_shipper":22,"on_consignee":0,"shortage":0,"acc_shortage":0,"booking":18,"acc_booking":4557,"fulfillment":18,"acc_fulfillment":4557,"transfer_cost":0.0,"port_name":"Los Angeles","position":{"lat":34.052235,"lng":-118.243683},"status":"surplus"},{"frame_index":115,"name":"ports_5","capacity":10000,"empty":780,"full":472,"on_shipper":27,"on_consignee":0,"shortage":0,"acc_shortage":0,"booking":17,"acc_booking":4512,"fulfillment":17,"acc_fulfillment":4512,"transfer_cost":0.0,"port_name":"Manzanillo","position":{"lat":19.11695,"lng":-104.34214},"status":"surplus"},{"frame_index":115,"name":"ports_6","capacity":10000,"empty":574,"full":173,"on_shipper":9,"on_consignee":0,"shortage":0,"acc_shortage":0,"booking":6,"acc_booking":1408,"fulfillment":6,"acc_fulfillment":1408,"transfer_cost":0.0,"port_name":"Melbourne","position":{"lat":-37.840935,"lng":144.946457},"status":"surplus"},{"frame_index":115,"name":"ports_7","capacity":10000,"empty":1457,"full":270,"on_shipper":10,"on_consignee":0,"shortage":0,"acc_shortage":0,"booking":6,"acc_booking":1402,"fulfillment":6,"acc_fulfillment":1402,"transfer_cost":0.0,"port_name":"Montreal","position":{"lat":45.516136,"lng":-73.65683},"status":"surplus"},{"frame_index":115,"name":"ports_8","capacity":10000,"empty":1815,"full":58,"on_shipper":12,"on_consignee":0,"shortage":0,"acc_shortage":0,"booking":12,"acc_booking":2754,"fulfillment":12,"acc_fulfillment":2754,"transfer_cost":0.0,"port_name":"New York","position":{"lat":40.73061,"lng":-73.935242},"status":"surplus"},{"frame_index":115,"name":"ports_9","capacity":10000,"empty":1418,"full":257,"on_shipper":24,"on_consignee":0,"shortage":0,"acc_shortage":0,"booking":11,"acc_booking":2725,"fulfillment":11,"acc_fulfillment":2725,"transfer_cost":0.0,"port_name":"Oakland","position":{"lat":37.804363,"lng":-122.271111},"status":"surplus"},{"frame_index":115,"name":"ports_10","capacity":10000,"empty":441,"full":248,"on_shipper":10,"on_consignee":0,"shortage":0,"acc_shortage":0,"booking":6,"acc_booking":1400,"fulfillment":6,"acc_fulfillment":1400,"transfer_cost":0.0,"port_name":"Prince Rupert","position":{"lat":54.312519,"lng":-130.305405},"status":"surplus"},{"frame_index":115,"name":"ports_11","capacity":10000,"empty":1608,"full":934,"on_shipper":30,"on_consignee":0,"shortage":0,"acc_shortage":0,"booking":22,"acc_booking":5441,"fulfillment":22,"acc_fulfillment":5441,"transfer_cost":0.0,"port_name":"Pusan","position":{"lat":35.166668,"lng":129.066666},"status":"surplus"},{"frame_index":115,"name":"ports_12","capacity":10000,"empty":3156,"full":1249,"on_shipper":58,"on_consignee":0,"shortage":0,"acc_shortage":0,"booking":32,"acc_booking":7241,"fulfillment":32,"acc_fulfillment":7241,"transfer_cost":0.0,"port_name":"Qingdao","position":{"lat":36.066898,"lng":120.382698},"status":"surplus"},{"frame_index":115,"name":"ports_13","capacity":10000,"empty":445,"full":33,"on_shipper":7,"on_consignee":0,"shortage":0,"acc_shortage":0,"booking":4,"acc_booking":959,"fulfillment":4,"acc_fulfillment":959,"transfer_cost":0.0,"port_name":"San Antonio","position":{"lat":29.424349,"lng":-98.491142},"status":"surplus"},{"frame_index":115,"name":"ports_14","capacity":10000,"empty":160,"full":4,"on_shipper":9,"on_consignee":51,"shortage":0,"acc_shortage":0,"booking":4,"acc_booking":965,"fulfillment":4,"acc_fulfillment":965,"transfer_cost":0.0,"port_name":"Santos","position":{"lat":-23.96083,"lng":-46.33361},"status":"surplus"},{"frame_index":115,"name":"ports_15","capacity":10000,"empty":2321,"full":1502,"on_shipper":50,"on_consignee":0,"shortage":0,"acc_shortage":0,"booking":25,"acc_booking":6359,"fulfillment":25,"acc_fulfillment":6359,"transfer_cost":0.0,"port_name":"Seattle","position":{"lat":47.608013,"lng":-122.335167},"status":"surplus"},{"frame_index":115,"name":"ports_16","capacity":10000,"empty":2430,"full":735,"on_shipper":55,"on_consignee":37,"shortage":0,"acc_shortage":0,"booking":37,"acc_booking":9102,"fulfillment":37,"acc_fulfillment":9102,"transfer_cost":0.0,"port_name":"Shanghai","position":{"lat":31.224361,"lng":121.46917},"status":"surplus"},{"frame_index":115,"name":"ports_17","capacity":10000,"empty":2103,"full":110,"on_shipper":25,"on_consignee":204,"shortage":0,"acc_shortage":0,"booking":15,"acc_booking":3664,"fulfillment":15,"acc_fulfillment":3664,"transfer_cost":0.0,"port_name":"Singapore","position":{"lat":1.29027,"lng":103.851959},"status":"surplus"},{"frame_index":115,"name":"ports_18","capacity":10000,"empty":808,"full":35,"on_shipper":8,"on_consignee":0,"shortage":0,"acc_shortage":0,"booking":5,"acc_booking":1383,"fulfillment":5,"acc_fulfillment":1383,"transfer_cost":0.0,"port_name":"Sydney","position":{"lat":-33.865143,"lng":151.2099},"status":"surplus"},{"frame_index":115,"name":"ports_19","capacity":10000,"empty":649,"full":410,"on_shipper":11,"on_consignee":0,"shortage":0,"acc_shortage":0,"booking":7,"acc_booking":1868,"fulfillment":7,"acc_fulfillment":1868,"transfer_cost":0.0,"port_name":"Vancouver","position":{"lat":49.246292,"lng":-123.116226},"status":"surplus"},{"frame_index":115,"name":"ports_20","capacity":10000,"empty":2189,"full":301,"on_shipper":40,"on_consignee":0,"shortage":0,"acc_shortage":0,"booking":28,"acc_booking":6228,"fulfillment":28,"acc_fulfillment":6228,"transfer_cost":0.0,"port_name":"Yantian","position":{"lat":26.8533,"lng":119.8575},"status":"surplus"},{"frame_index":115,"name":"ports_21","capacity":10000,"empty":3609,"full":99,"on_shipper":25,"on_consignee":0,"shortage":0,"acc_shortage":0,"booking":17,"acc_booking":5975,"fulfillment":17,"acc_fulfillment":5975,"transfer_cost":0.0,"port_name":"Yokohama","position":{"lat":35.443707,"lng":139.638031},"status":"surplus"}]