[{"frame_index":828,"name":"ports_0","capacity":10000,"empty":2849,"full":5617,"on_shipper":409,"on_consignee":0,"shortage":0,"acc_shortage":522,"booking":270,"acc_booking":105380,"fulfillment":270,"acc_fulfillment":104858,"transfer_cost":0.0,"port_name":"Bremerhaven","position":{"lat":53.549999,"lng":8.583333},"status":"surplus"},{"frame_index":828,"name":"ports_1","capacity":10000,"empty":310,"full":83,"on_shipper":20,"on_consignee":0,"shortage":0,"acc_shortage":10,"booking":14,"acc_booking":7007,"fulfillment":14,"acc_fulfillment":6997,"transfer_cost":0.0,"port_name":"Durban","position":{"lat":-29.8579,"lng":31.0292},"status":"surplus"},{"frame_index":828,"name":"ports_2","capacity":10000,"empty":205,"full":365,"on_shipper":18,"on_consignee":0,"shortage":0,"acc_shortage":298,"booking":15,"acc_booking":6978,"fulfillment":15,"acc_fulfillment":6680,"transfer_cost":0.0,"port_name":"Itagual","position":{"lat":-22.85222,"lng":-43.77528},"status":"surplus"},{"frame_index":828,"name":"ports_3","capacity":10000,"empty":4597,"full":567,"on_shipper":110,"on_consignee":0,"shortage":0,"acc_shortage":0,"booking":89,"acc_booking":39887,"fulfillment":89,"acc_fulfillment":39887,"transfer_cost":0.0,"port_name":"LeHavre","position":{"lat":49.490002,"lng":0.1},"status":"surplus"},{"frame_index":828,"name":"ports_4","capacity":10000,"empty":1271,"full":838,"on_shipper":97,"on_consignee":0,"shortage":0,"acc_shortage":290,"booking":76,"acc_booking":33394,"fulfillment":76,"acc_fulfillment":33104,"transfer_cost":0.0,"port_name":"Los Angeles","position":{"lat":34.052235,"lng":-118.243683},"status":"surplus"},{"frame_index":828,"name":"ports_5","capacity":10000,"empty":2316,"full":844,"on_shipper":89,"on_consignee":0,"shortage":0,"acc_shortage":123,"booking":69,"acc_booking":33520,"fulfillment":69,"acc_fulfillment":33397,"transfer_cost":0.0,"port_name":"Manzanillo","position":{"lat":19.11695,"lng":-104.34214},"status":"surplus"},{"frame_index":828,"name":"ports_6","capacity":10000,"empty":200,"full":231,"on_shipper":39,"on_consignee":0,"shortage":0,"acc_shortage":1654,"booking":23,"acc_booking":10283,"fulfillment":23,"acc_fulfillment":8629,"transfer_cost":0.0,"port_name":"Melbourne","position":{"lat":-37.840935,"lng":144.946457},"status":"surplus"},{"frame_index":828,"name":"ports_7","capacity":10000,"empty":545,"full":0,"on_shipper":35,"on_consignee":467,"shortage":0,"acc_shortage":0,"booking":23,"acc_booking":10296,"fulfillment":23,"acc_fulfillment":10296,"transfer_cost":0.0,"port_name":"Montreal","position":{"lat":45.516136,"lng":-73.65683},"status":"surplus"},{"frame_index":828,"name":"ports_8","capacity":10000,"empty":3528,"full":201,"on_shipper":69,"on_consignee":0,"shortage":0,"acc_shortage":136,"booking":48,"acc_booking":20103,"fulfillment":48,"acc_fulfillment":19967,"transfer_cost":0.0,"port_name":"New York","position":{"lat":40.73061,"lng":-73.935242},"status":"surplus"},{"frame_index":828,"name":"ports_9","capacity":10000,"empty":888,"full":702,"on_shipper":84,"on_consignee":0,"shortage":0,"acc_shortage":45,"booking":37,"acc_booking":20133,"fulfillment":37,"acc_fulfillment":20088,"transfer_cost":0.0,"port_name":"Oakland","position":{"lat":37.804363,"lng":-122.271111},"status":"surplus"},{"frame_index":828,"name":"ports_10","capacity":10000,"empty":1071,"full":404,"on_shipper":25,"on_consignee":0,"shortage":0,"acc_shortage":314,"booking":20,"acc_booking":10304,"fulfillment":20,"acc_fulfillment":9990,"transfer_cost":0.0,"port_name":"Prince Rupert","position":{"lat":54.312519,"lng":-130.305405},"status":"surplus"},{"frame_index":828,"name":"ports_11","capacity":10000,"empty":2377,"full":590,"on_shipper":159,"on_consignee":515,"shortage":0,"acc_shortage":204,"booking":88,"acc_booking":39858,"fulfillment":88,"acc_fulfillment":39654,"transfer_cost":0.0,"port_name":"Pusan","position":{"lat":35.166668,"lng":129.066666},"status":"surplus"},{"frame_index":828,"name":"ports_12","capacity":10000,"empty":4046,"full":1716,"on_shipper":189,"on_consignee":0,"shortage":0,"acc_shortage":0,"booking":111,"acc_booking":53204,"fulfillment":111,"acc_fulfillment":53204,"transfer_cost":0.0,"port_name":"Qingdao","position":{"lat":36.066898,"lng":120.382698},"status":"surplus"},{"frame_index":828,"name":"ports_13","capacity":10000,"empty":633,"full":87,"on_shipper":20,"on_consignee":0,"shortage":0,"acc_shortage":449,"booking":15,"acc_booking":6988,"fulfillment":15,"acc_fulfillment":6539,"transfer_cost":0.0,"port_name":"San Antonio","position":{"lat":29.424349,"lng":-98.491142},"status":"surplus"},{"frame_index":828,"name":"ports_14","capacity":10000,"empty":0,"full":295,"on_shipper":0,"on_consignee":0,"shortage":14,"acc_shortage":804,"booking":14,"acc_booking":7018,"fulfillment":0,"acc_fulfillment":6214,"transfer_cost":0.0,"port_name":"Santos","position":{"lat":-23.96083,"lng":-46.33361},"status":"demand"},{"frame_index":828,"name":"ports_15","capacity":10000,"empty":1546,"full":1475,"on_shipper":149,"on_consignee":0,"shortage":0,"acc_shortage":0,"booking":103,"acc_booking":46534,"fulfillment":103,"acc_fulfillment":46534,"transfer_cost":0.0,"port_name":"Seattle","position":{"lat":47.608013,"lng":-122.335167},"status":"surplus"},{"frame_index":828,"name":"ports_16","capacity":10000,"empty":2669,"full":1605,"on_shipper":195,"on_consignee":0,"shortage":0,"acc_shortage":760,"booking":168,"acc_booking":66209,"fulfillment":168,"acc_fulfillment":65449,"transfer_cost":0.0,"port_name":"Shanghai","position":{"lat":31.224361,"lng":121.46917},"status":"surplus"},{"frame_index":828,"name":"ports_17","capacity":10000,"empty":534,"full":480,"on_shipper":80,"on_consignee":0,"shortage":0,"acc_shortage":283,"booking":58,"acc_booking":26794,"fulfillment":58,"acc_fulfillment":26511,"transfer_cost":0.0,"port_name":"Singapore","position":{"lat":1.29027,"lng":103.851959},"status":"surplus"},{"frame_index":828,"name":"ports_18","capacity":10000,"empty":986,"full":229,"on_shipper":35,"on_consignee":0,"shortage":0,"acc_shortage":1374,"booking":20,"acc_booking":10296,"fulfillment":20,"acc_fulfillment":8922,"transfer_cost":0.0,"port_name":"Sydney","position":{"lat":-33.865143,"lng":151.2099},"status":"surplus"},{"frame_index":828,"name":"ports_19","capacity":10000,"empty":1432,"full":200,"on_shipper":52,"on_consignee":0,"shortage":0,"acc_shortage":0,"booking":30,"acc_booking":13643,"fulfillment":30,"acc_fulfillment":13643,"transfer_cost":0.0,"port_name":"Vancouver","position":{"lat":49.246292,"lng":-123.116226},"status":"surplus"},{"frame_index":828,"name":"ports_20","capacity":10000,"empty":1227,"full":975,"on_shipper":119,"on_consignee":0,"shortage":0,"acc_shortage":942,"booking":101,"acc_booking":46234,"fulfillment":101,"acc_fulfillment":45292,"transfer_cost":0.0,"port_name":"Yantian","position":{"lat":26.8533,"lng":119.8575},"status":"surplus"},{"frame_index":828,"name":"ports_21","capacity":10000,"empty":191,"full":176,"on_shipper":144,"on_consignee":1386,"shortage":0,"acc_shortage":6236,"booking":105,"acc_booking":44012,"fulfillment":105,"acc_fulfillment":37776,"transfer_cost":0.0,"port_name":"Yokohama","position":{"lat":35.443707,"lng":139.638031},"status":"demand"}]