[{"frame_index":39,"name":"ports_0","capacity":10000,"empty":12493,"full":2279,"on_shipper":271,"on_consignee":0,"shortage":0,"acc_shortage":0,"booking":187,"acc_booking":3507,"fulfillment":187,"acc_fulfillment":3507,"transfer_cost":0.0,"port_name":"Bremerhaven","position":{"lat":53.549999,"lng":8.583333},"status":"surplus"},{"frame_index":39,"name":"ports_1","capacity":10000,"empty":773,"full":0,"on_shipper":16,"on_consignee":61,"shortage":0,"acc_shortage":0,"booking":12,"acc_booking":238,"fulfillment":12,"acc_fulfillment":238,"transfer_cost":0.0,"port_name":"Durban","position":{"lat":-29.8579,"lng":31.0292},"status":"surplus"},{"frame_index":39,"name":"ports_2","capacity":10000,"empty":793,"full":40,"on_shipper":18,"on_consignee":0,"shortage":0,"acc_shortage":0,"booking":14,"acc_booking":239,"fulfillment":14,"acc_fulfillment":239,"transfer_cost":0.0,"port_name":"Itagual","position":{"lat":-22.85222,"lng":-43.77528},"status":"surplus"},{"frame_index":39,"name":"ports_3","capacity":10000,"empty":3991,"full":509,"on_shipper":109,"on_consignee":0,"shortage":0,"acc_shortage":0,"booking":75,"acc_booking":1345,"fulfillment":75,"acc_fulfillment":1345,"transfer_cost":0.0,"port_name":"LeHavre","position":{"lat":49.490002,"lng":0.1},"status":"surplus"},{"frame_index":39,"name":"ports_4","capacity":10000,"empty":3879,"full":573,"on_shipper":83,"on_consignee":0,"shortage":0,"acc_shortage":0,"booking":61,"acc_booking":1121,"fulfillment":61,"acc_fulfillment":1121,"transfer_cost":0.0,"port_name":"Los Angeles","position":{"lat":34.052235,"lng":-118.243683},"status":"surplus"},{"frame_index":39,"name":"ports_5","capacity":10000,"empty":3862,"full":615,"on_shipper":79,"on_consignee":0,"shortage":0,"acc_shortage":0,"booking":69,"acc_booking":1138,"fulfillment":69,"acc_fulfillment":1138,"transfer_cost":0.0,"port_name":"Manzanillo","position":{"lat":19.11695,"lng":-104.34214},"status":"surplus"},{"frame_index":39,"name":"ports_6","capacity":10000,"empty":1152,"full":211,"on_shipper":23,"on_consignee":0,"shortage":0,"acc_shortage":0,"booking":19,"acc_booking":348,"fulfillment":19,"acc_fulfillment":348,"transfer_cost":0.0,"port_name":"Melbourne","position":{"lat":-37.840935,"lng":144.946457},"status":"surplus"},{"frame_index":39,"name":"ports_7","capacity":10000,"empty":1680,"full":131,"on_shipper":19,"on_consignee":0,"shortage":0,"acc_shortage":0,"booking":19,"acc_booking":346,"fulfillment":19,"acc_fulfillment":346,"transfer_cost":0.0,"port_name":"Montreal","position":{"lat":45.516136,"lng":-73.65683},"status":"surplus"},{"frame_index":39,"name":"ports_8","capacity":10000,"empty":2319,"full":0,"on_shipper":45,"on_consignee":204,"shortage":0,"acc_shortage":0,"booking":34,"acc_booking":681,"fulfillment":34,"acc_fulfillment":681,"transfer_cost":0.0,"port_name":"New York","position":{"lat":40.73061,"lng":-73.935242},"status":"surplus"},{"frame_index":39,"name":"ports_9","capacity":10000,"empty":2331,"full":628,"on_shipper":41,"on_consignee":0,"shortage":0,"acc_shortage":0,"booking":31,"acc_booking":669,"fulfillment":31,"acc_fulfillment":669,"transfer_cost":0.0,"port_name":"Oakland","position":{"lat":37.804363,"lng":-122.271111},"status":"surplus"},{"frame_index":39,"name":"ports_10","capacity":10000,"empty":1139,"full":335,"on_shipper":26,"on_consignee":0,"shortage":0,"acc_shortage":0,"booking":20,"acc_booking":361,"fulfillment":20,"acc_fulfillment":361,"transfer_cost":0.0,"port_name":"Prince Rupert","position":{"lat":54.312519,"lng":-130.305405},"status":"surplus"},{"frame_index":39,"name":"ports_11","capacity":10000,"empty":4694,"full":416,"on_shipper":89,"on_consignee":0,"shortage":0,"acc_shortage":0,"booking":70,"acc_booking":1327,"fulfillment":70,"acc_fulfillment":1327,"transfer_cost":0.0,"port_name":"Pusan","position":{"lat":35.166668,"lng":129.066666},"status":"surplus"},{"frame_index":39,"name":"ports_12","capacity":10000,"empty":6276,"full":1103,"on_shipper":125,"on_consignee":32,"shortage":0,"acc_shortage":0,"booking":96,"acc_booking":1786,"fulfillment":96,"acc_fulfillment":1786,"transfer_cost":0.0,"port_name":"Qingdao","position":{"lat":36.066898,"lng":120.382698},"status":"surplus"},{"frame_index":39,"name":"ports_13","capacity":10000,"empty":776,"full":20,"on_shipper":14,"on_consignee":0,"shortage":0,"acc_shortage":0,"booking":12,"acc_booking":238,"fulfillment":12,"acc_fulfillment":238,"transfer_cost":0.0,"port_name":"San Antonio","position":{"lat":29.424349,"lng":-98.491142},"status":"surplus"},{"frame_index":39,"name":"ports_14","capacity":10000,"empty":766,"full":219,"on_shipper":15,"on_consignee":0,"shortage":0,"acc_shortage":0,"booking":11,"acc_booking":234,"fulfillment":11,"acc_fulfillment":234,"transfer_cost":0.0,"port_name":"Santos","position":{"lat":-23.96083,"lng":-46.33361},"status":"surplus"},{"frame_index":39,"name":"ports_15","capacity":10000,"empty":5452,"full":241,"on_shipper":105,"on_consignee":0,"shortage":0,"acc_shortage":0,"booking":82,"acc_booking":1562,"fulfillment":82,"acc_fulfillment":1562,"transfer_cost":0.0,"port_name":"Seattle","position":{"lat":47.608013,"lng":-122.335167},"status":"surplus"},{"frame_index":39,"name":"ports_16","capacity":10000,"empty":7799,"full":608,"on_shipper":134,"on_consignee":0,"shortage":0,"acc_shortage":0,"booking":112,"acc_booking":2235,"fulfillment":112,"acc_fulfillment":2235,"transfer_cost":0.0,"port_name":"Shanghai","position":{"lat":31.224361,"lng":121.46917},"status":"surplus"},{"frame_index":39,"name":"ports_17","capacity":10000,"empty":3113,"full":307,"on_shipper":59,"on_consignee":0,"shortage":0,"acc_shortage":0,"booking":48,"acc_booking":903,"fulfillment":48,"acc_fulfillment":903,"transfer_cost":0.0,"port_name":"Singapore","position":{"lat":1.29027,"lng":103.851959},"status":"surplus"},{"frame_index":39,"name":"ports_18","capacity":10000,"empty":1151,"full":153,"on_shipper":23,"on_consignee":0,"shortage":0,"acc_shortage":0,"booking":19,"acc_booking":349,"fulfillment":19,"acc_fulfillment":349,"transfer_cost":0.0,"port_name":"Sydney","position":{"lat":-33.865143,"lng":151.2099},"status":"surplus"},{"frame_index":39,"name":"ports_19","capacity":10000,"empty":1561,"full":102,"on_shipper":35,"on_consignee":0,"shortage":0,"acc_shortage":0,"booking":26,"acc_booking":458,"fulfillment":26,"acc_fulfillment":458,"transfer_cost":0.0,"port_name":"Vancouver","position":{"lat":49.246292,"lng":-123.116226},"status":"surplus"},{"frame_index":39,"name":"ports_20","capacity":10000,"empty":5463,"full":596,"on_shipper":107,"on_consignee":40,"shortage":0,"acc_shortage":0,"booking":85,"acc_booking":1552,"fulfillment":85,"acc_fulfillment":1552,"transfer_cost":0.0,"port_name":"Yantian","position":{"lat":26.8533,"lng":119.8575},"status":"surplus"},{"frame_index":39,"name":"ports_21","capacity":10000,"empty":6643,"full":1241,"on_shipper":116,"on_consignee":0,"shortage":0,"acc_shortage":0,"booking":85,"acc_booking":1357,"fulfillment":85,"acc_fulfillment":1357,"transfer_cost":0.0,"port_name":"Yokohama","position":{"lat":35.443707,"lng":139.638031},"status":"surplus"}]