[{"frame_index":379,"name":"ports_0","capacity":10000,"empty":2735,"full":2042,"on_shipper":311,"on_consignee":0,"shortage":0,"acc_shortage":522,"booking":219,"acc_booking":47169,"fulfillment":219,"acc_fulfillment":46647,"transfer_cost":0.0,"port_name":"Bremerhaven","position":{"lat":53.549999,"lng":8.583333},"status":"surplus"},{"frame_index":379,"name":"ports_1","capacity":10000,"empty":194,"full":313,"on_shipper":21,"on_consignee":0,"shortage":0,"acc_shortage":0,"booking":16,"acc_booking":3153,"fulfillment":16,"acc_fulfillment":3153,"transfer_cost":0.0,"port_name":"Durban","position":{"lat":-29.8579,"lng":31.0292},"status":"surplus"},{"frame_index":379,"name":"ports_2","capacity":10000,"empty":859,"full":40,"on_shipper":28,"on_consignee":0,"shortage":0,"acc_shortage":233,"booking":16,"acc_booking":3136,"fulfillment":16,"acc_fulfillment":2903,"transfer_cost":0.0,"port_name":"Itagual","position":{"lat":-22.85222,"lng":-43.77528},"status":"surplus"},{"frame_index":379,"name":"ports_3","capacity":10000,"empty":1231,"full":1159,"on_shipper":131,"on_consignee":0,"shortage":0,"acc_shortage":0,"booking":91,"acc_booking":17927,"fulfillment":91,"acc_fulfillment":17927,"transfer_cost":0.0,"port_name":"LeHavre","position":{"lat":49.490002,"lng":0.1},"status":"surplus"},{"frame_index":379,"name":"ports_4","capacity":10000,"empty":3148,"full":237,"on_shipper":98,"on_consignee":0,"shortage":0,"acc_shortage":0,"booking":76,"acc_booking":14972,"fulfillment":76,"acc_fulfillment":14972,"transfer_cost":0.0,"port_name":"Los Angeles","position":{"lat":34.052235,"lng":-118.243683},"status":"surplus"},{"frame_index":379,"name":"ports_5","capacity":10000,"empty":1863,"full":621,"on_shipper":96,"on_consignee":0,"shortage":0,"acc_shortage":123,"booking":84,"acc_booking":15036,"fulfillment":84,"acc_fulfillment":14913,"transfer_cost":0.0,"port_name":"Manzanillo","position":{"lat":19.11695,"lng":-104.34214},"status":"surplus"},{"frame_index":379,"name":"ports_6","capacity":10000,"empty":59,"full":350,"on_shipper":38,"on_consignee":0,"shortage":0,"acc_shortage":340,"booking":23,"acc_booking":4609,"fulfillment":23,"acc_fulfillment":4269,"transfer_cost":0.0,"port_name":"Melbourne","position":{"lat":-37.840935,"lng":144.946457},"status":"demand"},{"frame_index":379,"name":"ports_7","capacity":10000,"empty":2467,"full":248,"on_shipper":23,"on_consignee":0,"shortage":0,"acc_shortage":0,"booking":23,"acc_booking":4618,"fulfillment":23,"acc_fulfillment":4618,"transfer_cost":0.0,"port_name":"Montreal","position":{"lat":45.516136,"lng":-73.65683},"status":"surplus"},{"frame_index":379,"name":"ports_8","capacity":10000,"empty":1454,"full":533,"on_shipper":89,"on_consignee":0,"shortage":0,"acc_shortage":0,"booking":44,"acc_booking":9006,"fulfillment":44,"acc_fulfillment":9006,"transfer_cost":0.0,"port_name":"New York","position":{"lat":40.73061,"lng":-73.935242},"status":"surplus"},{"frame_index":379,"name":"ports_9","capacity":10000,"empty":1689,"full":56,"on_shipper":83,"on_consignee":112,"shortage":0,"acc_shortage":0,"booking":39,"acc_booking":8972,"fulfillment":39,"acc_fulfillment":8972,"transfer_cost":0.0,"port_name":"Oakland","position":{"lat":37.804363,"lng":-122.271111},"status":"surplus"},{"frame_index":379,"name":"ports_10","capacity":10000,"empty":1096,"full":391,"on_shipper":28,"on_consignee":0,"shortage":0,"acc_shortage":0,"booking":20,"acc_booking":4607,"fulfillment":20,"acc_fulfillment":4607,"transfer_cost":0.0,"port_name":"Prince Rupert","position":{"lat":54.312519,"lng":-130.305405},"status":"surplus"},{"frame_index":379,"name":"ports_11","capacity":10000,"empty":1140,"full":1058,"on_shipper":124,"on_consignee":0,"shortage":0,"acc_shortage":0,"booking":87,"acc_booking":17861,"fulfillment":87,"acc_fulfillment":17861,"transfer_cost":0.0,"port_name":"Pusan","position":{"lat":35.166668,"lng":129.066666},"status":"surplus"},{"frame_index":379,"name":"ports_12","capacity":10000,"empty":483,"full":1872,"on_shipper":161,"on_consignee":0,"shortage":0,"acc_shortage":0,"booking":112,"acc_booking":23872,"fulfillment":112,"acc_fulfillment":23872,"transfer_cost":0.0,"port_name":"Qingdao","position":{"lat":36.066898,"lng":120.382698},"status":"demand"},{"frame_index":379,"name":"ports_13","capacity":10000,"empty":477,"full":54,"on_shipper":29,"on_consignee":0,"shortage":0,"acc_shortage":123,"booking":17,"acc_booking":3129,"fulfillment":17,"acc_fulfillment":3006,"transfer_cost":0.0,"port_name":"San Antonio","position":{"lat":29.424349,"lng":-98.491142},"status":"surplus"},{"frame_index":379,"name":"ports_14","capacity":10000,"empty":586,"full":295,"on_shipper":22,"on_consignee":0,"shortage":0,"acc_shortage":697,"booking":14,"acc_booking":3178,"fulfillment":14,"acc_fulfillment":2481,"transfer_cost":0.0,"port_name":"Santos","position":{"lat":-23.96083,"lng":-46.33361},"status":"surplus"},{"frame_index":379,"name":"ports_15","capacity":10000,"empty":4796,"full":1035,"on_shipper":128,"on_consignee":0,"shortage":0,"acc_shortage":0,"booking":104,"acc_booking":20854,"fulfillment":104,"acc_fulfillment":20854,"transfer_cost":0.0,"port_name":"Seattle","position":{"lat":47.608013,"lng":-122.335167},"status":"surplus"},{"frame_index":379,"name":"ports_16","capacity":10000,"empty":2966,"full":1145,"on_shipper":285,"on_consignee":0,"shortage":0,"acc_shortage":0,"booking":174,"acc_booking":29801,"fulfillment":174,"acc_fulfillment":29801,"transfer_cost":0.0,"port_name":"Shanghai","position":{"lat":31.224361,"lng":121.46917},"status":"surplus"},{"frame_index":379,"name":"ports_17","capacity":10000,"empty":3767,"full":318,"on_shipper":102,"on_consignee":0,"shortage":0,"acc_shortage":40,"booking":61,"acc_booking":12015,"fulfillment":61,"acc_fulfillment":11975,"transfer_cost":0.0,"port_name":"Singapore","position":{"lat":1.29027,"lng":103.851959},"status":"surplus"},{"frame_index":379,"name":"ports_18","capacity":10000,"empty":201,"full":177,"on_shipper":38,"on_consignee":0,"shortage":0,"acc_shortage":419,"booking":21,"acc_booking":4580,"fulfillment":21,"acc_fulfillment":4161,"transfer_cost":0.0,"port_name":"Sydney","position":{"lat":-33.865143,"lng":151.2099},"status":"surplus"},{"frame_index":379,"name":"ports_19","capacity":10000,"empty":825,"full":219,"on_shipper":40,"on_consignee":0,"shortage":0,"acc_shortage":0,"booking":30,"acc_booking":6131,"fulfillment":30,"acc_fulfillment":6131,"transfer_cost":0.0,"port_name":"Vancouver","position":{"lat":49.246292,"lng":-123.116226},"status":"surplus"},{"frame_index":379,"name":"ports_20","capacity":10000,"empty":1572,"full":1577,"on_shipper":165,"on_consignee":0,"shortage":0,"acc_shortage":0,"booking":99,"acc_booking":20629,"fulfillment":99,"acc_fulfillment":20629,"transfer_cost":0.0,"port_name":"Yantian","position":{"lat":26.8533,"lng":119.8575},"status":"surplus"},{"frame_index":379,"name":"ports_21","capacity":10000,"empty":1198,"full":472,"on_shipper":156,"on_consignee":0,"shortage":0,"acc_shortage":1887,"booking":111,"acc_booking":19627,"fulfillment":111,"acc_fulfillment":17740,"transfer_cost":0.0,"port_name":"Yokohama","position":{"lat":35.443707,"lng":139.638031},"status":"surplus"}]