[{"frame_index":850,"name":"ports_0","capacity":10000,"empty":4211,"full":745,"on_shipper":168,"on_consignee":0,"shortage":0,"acc_shortage":522,"booking":150,"acc_booking":109465,"fulfillment":150,"acc_fulfillment":108943,"transfer_cost":0.0,"port_name":"Bremerhaven","position":{"lat":53.549999,"lng":8.583333},"status":"surplus"},{"frame_index":850,"name":"ports_1","capacity":10000,"empty":240,"full":44,"on_shipper":17,"on_consignee":0,"shortage":0,"acc_shortage":10,"booking":9,"acc_booking":7279,"fulfillment":9,"acc_fulfillment":7269,"transfer_cost":0.0,"port_name":"Durban","position":{"lat":-29.8579,"lng":31.0292},"status":"surplus"},{"frame_index":850,"name":"ports_2","capacity":10000,"empty":627,"full":72,"on_shipper":9,"on_consignee":0,"shortage":0,"acc_shortage":298,"booking":9,"acc_booking":7246,"fulfillment":9,"acc_fulfillment":6948,"transfer_cost":0.0,"port_name":"Itagual","position":{"lat":-22.85222,"lng":-43.77528},"status":"surplus"},{"frame_index":850,"name":"ports_3","capacity":10000,"empty":5112,"full":757,"on_shipper":67,"on_consignee":0,"shortage":0,"acc_shortage":0,"booking":52,"acc_booking":41454,"fulfillment":52,"acc_fulfillment":41454,"transfer_cost":0.0,"port_name":"LeHavre","position":{"lat":49.490002,"lng":0.1},"status":"surplus"},{"frame_index":850,"name":"ports_4","capacity":10000,"empty":2320,"full":1269,"on_shipper":60,"on_consignee":0,"shortage":0,"acc_shortage":290,"booking":43,"acc_booking":34707,"fulfillment":43,"acc_fulfillment":34417,"transfer_cost":0.0,"port_name":"Los Angeles","position":{"lat":34.052235,"lng":-118.243683},"status":"surplus"},{"frame_index":850,"name":"ports_5","capacity":10000,"empty":1925,"full":875,"on_shipper":54,"on_consignee":0,"shortage":0,"acc_shortage":123,"booking":37,"acc_booking":34835,"fulfillment":37,"acc_fulfillment":34712,"transfer_cost":0.0,"port_name":"Manzanillo","position":{"lat":19.11695,"lng":-104.34214},"status":"surplus"},{"frame_index":850,"name":"ports_6","capacity":10000,"empty":350,"full":136,"on_shipper":20,"on_consignee":0,"shortage":0,"acc_shortage":1654,"booking":13,"acc_booking":10680,"fulfillment":13,"acc_fulfillment":9026,"transfer_cost":0.0,"port_name":"Melbourne","position":{"lat":-37.840935,"lng":144.946457},"status":"surplus"},{"frame_index":850,"name":"ports_7","capacity":10000,"empty":851,"full":39,"on_shipper":13,"on_consignee":0,"shortage":0,"acc_shortage":0,"booking":13,"acc_booking":10697,"fulfillment":13,"acc_fulfillment":10697,"transfer_cost":0.0,"port_name":"Montreal","position":{"lat":45.516136,"lng":-73.65683},"status":"surplus"},{"frame_index":850,"name":"ports_8","capacity":10000,"empty":3022,"full":0,"on_shipper":41,"on_consignee":1211,"shortage":0,"acc_shortage":136,"booking":28,"acc_booking":20891,"fulfillment":28,"acc_fulfillment":20755,"transfer_cost":282.0,"port_name":"New York","position":{"lat":40.73061,"lng":-73.935242},"status":"surplus"},{"frame_index":850,"name":"ports_9","capacity":10000,"empty":1094,"full":479,"on_shipper":30,"on_consignee":0,"shortage":0,"acc_shortage":45,"booking":23,"acc_booking":20914,"fulfillment":23,"acc_fulfillment":20869,"transfer_cost":0.0,"port_name":"Oakland","position":{"lat":37.804363,"lng":-122.271111},"status":"surplus"},{"frame_index":850,"name":"ports_10","capacity":10000,"empty":776,"full":47,"on_shipper":12,"on_consignee":0,"shortage":0,"acc_shortage":314,"booking":11,"acc_booking":10719,"fulfillment":11,"acc_fulfillment":10405,"transfer_cost":0.0,"port_name":"Prince Rupert","position":{"lat":54.312519,"lng":-130.305405},"status":"surplus"},{"frame_index":850,"name":"ports_11","capacity":10000,"empty":1490,"full":1802,"on_shipper":74,"on_consignee":0,"shortage":0,"acc_shortage":204,"booking":51,"acc_booking":41409,"fulfillment":51,"acc_fulfillment":41205,"transfer_cost":0.0,"port_name":"Pusan","position":{"lat":35.166668,"lng":129.066666},"status":"surplus"},{"frame_index":850,"name":"ports_12","capacity":10000,"empty":2295,"full":2206,"on_shipper":121,"on_consignee":544,"shortage":0,"acc_shortage":0,"booking":66,"acc_booking":55321,"fulfillment":66,"acc_fulfillment":55321,"transfer_cost":195.0,"port_name":"Qingdao","position":{"lat":36.066898,"lng":120.382698},"status":"surplus"},{"frame_index":850,"name":"ports_13","capacity":10000,"empty":493,"full":21,"on_shipper":13,"on_consignee":0,"shortage":0,"acc_shortage":449,"booking":9,"acc_booking":7254,"fulfillment":9,"acc_fulfillment":6805,"transfer_cost":0.0,"port_name":"San Antonio","position":{"lat":29.424349,"lng":-98.491142},"status":"surplus"},{"frame_index":850,"name":"ports_14","capacity":10000,"empty":354,"full":247,"on_shipper":16,"on_consignee":0,"shortage":0,"acc_shortage":819,"booking":8,"acc_booking":7296,"fulfillment":8,"acc_fulfillment":6477,"transfer_cost":0.0,"port_name":"Santos","position":{"lat":-23.96083,"lng":-46.33361},"status":"surplus"},{"frame_index":850,"name":"ports_15","capacity":10000,"empty":715,"full":2076,"on_shipper":82,"on_consignee":0,"shortage":0,"acc_shortage":0,"booking":62,"acc_booking":48361,"fulfillment":62,"acc_fulfillment":48361,"transfer_cost":0.0,"port_name":"Seattle","position":{"lat":47.608013,"lng":-122.335167},"status":"surplus"},{"frame_index":850,"name":"ports_16","capacity":10000,"empty":1204,"full":2229,"on_shipper":132,"on_consignee":0,"shortage":0,"acc_shortage":760,"booking":79,"acc_booking":68814,"fulfillment":79,"acc_fulfillment":68054,"transfer_cost":0.0,"port_name":"Shanghai","position":{"lat":31.224361,"lng":121.46917},"status":"surplus"},{"frame_index":850,"name":"ports_17","capacity":10000,"empty":1056,"full":573,"on_shipper":53,"on_consignee":477,"shortage":0,"acc_shortage":283,"booking":35,"acc_booking":27839,"fulfillment":35,"acc_fulfillment":27556,"transfer_cost":150.0,"port_name":"Singapore","position":{"lat":1.29027,"lng":103.851959},"status":"surplus"},{"frame_index":850,"name":"ports_18","capacity":10000,"empty":577,"full":652,"on_shipper":21,"on_consignee":0,"shortage":0,"acc_shortage":1374,"booking":13,"acc_booking":10705,"fulfillment":13,"acc_fulfillment":9331,"transfer_cost":0.0,"port_name":"Sydney","position":{"lat":-33.865143,"lng":151.2099},"status":"surplus"},{"frame_index":850,"name":"ports_19","capacity":10000,"empty":1088,"full":394,"on_shipper":28,"on_consignee":0,"shortage":0,"acc_shortage":0,"booking":18,"acc_booking":14166,"fulfillment":18,"acc_fulfillment":14166,"transfer_cost":0.0,"port_name":"Vancouver","position":{"lat":49.246292,"lng":-123.116226},"status":"surplus"},{"frame_index":850,"name":"ports_20","capacity":10000,"empty":735,"full":1365,"on_shipper":93,"on_consignee":181,"shortage":0,"acc_shortage":942,"booking":61,"acc_booking":48067,"fulfillment":61,"acc_fulfillment":47125,"transfer_cost":1.0,"port_name":"Yantian","position":{"lat":26.8533,"lng":119.8575},"status":"surplus"},{"frame_index":850,"name":"ports_21","capacity":10000,"empty":282,"full":1387,"on_shipper":58,"on_consignee":0,"shortage":0,"acc_shortage":6404,"booking":58,"acc_booking":45866,"fulfillment":58,"acc_fulfillment":39462,"transfer_cost":0.0,"port_name":"Yokohama","position":{"lat":35.443707,"lng":139.638031},"status":"balance"}]