[{"frame_index":1029,"name":"ports_0","capacity":10000,"empty":5668,"full":417,"on_shipper":98,"on_consignee":0,"shortage":0,"acc_shortage":861,"booking":84,"acc_booking":130937,"fulfillment":84,"acc_fulfillment":130076,"transfer_cost":0.0,"port_name":"Bremerhaven","position":{"lat":53.549999,"lng":8.583333},"status":"surplus"},{"frame_index":1029,"name":"ports_1","capacity":10000,"empty":243,"full":186,"on_shipper":7,"on_consignee":0,"shortage":0,"acc_shortage":113,"booking":5,"acc_booking":8709,"fulfillment":5,"acc_fulfillment":8596,"transfer_cost":0.0,"port_name":"Durban","position":{"lat":-29.8579,"lng":31.0292},"status":"surplus"},{"frame_index":1029,"name":"ports_2","capacity":10000,"empty":234,"full":395,"on_shipper":7,"on_consignee":0,"shortage":0,"acc_shortage":298,"booking":5,"acc_booking":8678,"fulfillment":5,"acc_fulfillment":8380,"transfer_cost":0.0,"port_name":"Itagual","position":{"lat":-22.85222,"lng":-43.77528},"status":"surplus"},{"frame_index":1029,"name":"ports_3","capacity":10000,"empty":6380,"full":410,"on_shipper":35,"on_consignee":0,"shortage":0,"acc_shortage":0,"booking":30,"acc_booking":49567,"fulfillment":30,"acc_fulfillment":49567,"transfer_cost":0.0,"port_name":"LeHavre","position":{"lat":49.490002,"lng":0.1},"status":"surplus"},{"frame_index":1029,"name":"ports_4","capacity":10000,"empty":2689,"full":298,"on_shipper":42,"on_consignee":0,"shortage":0,"acc_shortage":290,"booking":25,"acc_booking":41510,"fulfillment":25,"acc_fulfillment":41220,"transfer_cost":0.0,"port_name":"Los Angeles","position":{"lat":34.052235,"lng":-118.243683},"status":"surplus"},{"frame_index":1029,"name":"ports_5","capacity":10000,"empty":2029,"full":110,"on_shipper":44,"on_consignee":0,"shortage":0,"acc_shortage":194,"booking":28,"acc_booking":41530,"fulfillment":28,"acc_fulfillment":41336,"transfer_cost":0.0,"port_name":"Manzanillo","position":{"lat":19.11695,"lng":-104.34214},"status":"surplus"},{"frame_index":1029,"name":"ports_6","capacity":10000,"empty":322,"full":156,"on_shipper":12,"on_consignee":0,"shortage":0,"acc_shortage":2108,"booking":8,"acc_booking":12784,"fulfillment":8,"acc_fulfillment":10676,"transfer_cost":0.0,"port_name":"Melbourne","position":{"lat":-37.840935,"lng":144.946457},"status":"surplus"},{"frame_index":1029,"name":"ports_7","capacity":10000,"empty":1690,"full":36,"on_shipper":12,"on_consignee":0,"shortage":0,"acc_shortage":0,"booking":8,"acc_booking":12791,"fulfillment":8,"acc_fulfillment":12791,"transfer_cost":0.0,"port_name":"Montreal","position":{"lat":45.516136,"lng":-73.65683},"status":"surplus"},{"frame_index":1029,"name":"ports_8","capacity":10000,"empty":5346,"full":58,"on_shipper":25,"on_consignee":0,"shortage":0,"acc_shortage":136,"booking":15,"acc_booking":24989,"fulfillment":15,"acc_fulfillment":24853,"transfer_cost":0.0,"port_name":"New York","position":{"lat":40.73061,"lng":-73.935242},"status":"surplus"},{"frame_index":1029,"name":"ports_9","capacity":10000,"empty":1701,"full":129,"on_shipper":16,"on_consignee":0,"shortage":0,"acc_shortage":45,"booking":13,"acc_booking":25021,"fulfillment":13,"acc_fulfillment":24976,"transfer_cost":0.0,"port_name":"Oakland","position":{"lat":37.804363,"lng":-122.271111},"status":"surplus"},{"frame_index":1029,"name":"ports_10","capacity":10000,"empty":1525,"full":87,"on_shipper":11,"on_consignee":0,"shortage":0,"acc_shortage":314,"booking":8,"acc_booking":12800,"fulfillment":8,"acc_fulfillment":12486,"transfer_cost":0.0,"port_name":"Prince Rupert","position":{"lat":54.312519,"lng":-130.305405},"status":"surplus"},{"frame_index":1029,"name":"ports_11","capacity":10000,"empty":2665,"full":1153,"on_shipper":45,"on_consignee":0,"shortage":0,"acc_shortage":204,"booking":30,"acc_booking":49515,"fulfillment":30,"acc_fulfillment":49311,"transfer_cost":0.0,"port_name":"Pusan","position":{"lat":35.166668,"lng":129.066666},"status":"surplus"},{"frame_index":1029,"name":"ports_12","capacity":10000,"empty":4121,"full":1718,"on_shipper":78,"on_consignee":525,"shortage":0,"acc_shortage":0,"booking":42,"acc_booking":66215,"fulfillment":42,"acc_fulfillment":66215,"transfer_cost":0.0,"port_name":"Qingdao","position":{"lat":36.066898,"lng":120.382698},"status":"surplus"},{"frame_index":1029,"name":"ports_13","capacity":10000,"empty":252,"full":103,"on_shipper":9,"on_consignee":0,"shortage":0,"acc_shortage":459,"booking":5,"acc_booking":8680,"fulfillment":5,"acc_fulfillment":8221,"transfer_cost":0.0,"port_name":"San Antonio","position":{"lat":29.424349,"lng":-98.491142},"status":"surplus"},{"frame_index":1029,"name":"ports_14","capacity":10000,"empty":11,"full":229,"on_shipper":7,"on_consignee":0,"shortage":0,"acc_shortage":876,"booking":5,"acc_booking":8731,"fulfillment":5,"acc_fulfillment":7855,"transfer_cost":0.0,"port_name":"Santos","position":{"lat":-23.96083,"lng":-46.33361},"status":"balance"},{"frame_index":1029,"name":"ports_15","capacity":10000,"empty":2979,"full":265,"on_shipper":38,"on_consignee":0,"shortage":0,"acc_shortage":1489,"booking":33,"acc_booking":57802,"fulfillment":33,"acc_fulfillment":56313,"transfer_cost":0.0,"port_name":"Seattle","position":{"lat":47.608013,"lng":-122.335167},"status":"surplus"},{"frame_index":1029,"name":"ports_16","capacity":10000,"empty":3071,"full":1180,"on_shipper":90,"on_consignee":109,"shortage":0,"acc_shortage":817,"booking":55,"acc_booking":82471,"fulfillment":55,"acc_fulfillment":81654,"transfer_cost":0.0,"port_name":"Shanghai","position":{"lat":31.224361,"lng":121.46917},"status":"surplus"},{"frame_index":1029,"name":"ports_17","capacity":10000,"empty":906,"full":344,"on_shipper":26,"on_consignee":0,"shortage":0,"acc_shortage":619,"booking":19,"acc_booking":33290,"fulfillment":19,"acc_fulfillment":32671,"transfer_cost":0.0,"port_name":"Singapore","position":{"lat":1.29027,"lng":103.851959},"status":"surplus"},{"frame_index":1029,"name":"ports_18","capacity":10000,"empty":917,"full":57,"on_shipper":10,"on_consignee":0,"shortage":0,"acc_shortage":1374,"booking":7,"acc_booking":12792,"fulfillment":7,"acc_fulfillment":11418,"transfer_cost":0.0,"port_name":"Sydney","position":{"lat":-33.865143,"lng":151.2099},"status":"surplus"},{"frame_index":1029,"name":"ports_19","capacity":10000,"empty":1635,"full":67,"on_shipper":13,"on_consignee":0,"shortage":0,"acc_shortage":0,"booking":10,"acc_booking":16924,"fulfillment":10,"acc_fulfillment":16924,"transfer_cost":0.0,"port_name":"Vancouver","position":{"lat":49.246292,"lng":-123.116226},"status":"surplus"},{"frame_index":1029,"name":"ports_20","capacity":10000,"empty":911,"full":843,"on_shipper":49,"on_consignee":0,"shortage":0,"acc_shortage":1425,"booking":31,"acc_booking":57516,"fulfillment":31,"acc_fulfillment":56091,"transfer_cost":0.0,"port_name":"Yantian","position":{"lat":26.8533,"lng":119.8575},"status":"surplus"},{"frame_index":1029,"name":"ports_21","capacity":10000,"empty":734,"full":331,"on_shipper":30,"on_consignee":0,"shortage":0,"acc_shortage":7747,"booking":29,"acc_booking":54668,"fulfillment":29,"acc_fulfillment":46921,"transfer_cost":0.0,"port_name":"Yokohama","position":{"lat":35.443707,"lng":139.638031},"status":"surplus"}]