[{"frame_index":939,"name":"ports_0","capacity":10000,"empty":3991,"full":2251,"on_shipper":266,"on_consignee":0,"shortage":0,"acc_shortage":522,"booking":212,"acc_booking":119777,"fulfillment":212,"acc_fulfillment":119255,"transfer_cost":0.0,"port_name":"Bremerhaven","position":{"lat":53.549999,"lng":8.583333},"status":"surplus"},{"frame_index":939,"name":"ports_1","capacity":10000,"empty":451,"full":148,"on_shipper":21,"on_consignee":0,"shortage":0,"acc_shortage":113,"booking":17,"acc_booking":7968,"fulfillment":17,"acc_fulfillment":7855,"transfer_cost":0.0,"port_name":"Durban","position":{"lat":-29.8579,"lng":31.0292},"status":"surplus"},{"frame_index":939,"name":"ports_2","capacity":10000,"empty":703,"full":111,"on_shipper":23,"on_consignee":0,"shortage":0,"acc_shortage":298,"booking":15,"acc_booking":7925,"fulfillment":15,"acc_fulfillment":7627,"transfer_cost":0.0,"port_name":"Itagual","position":{"lat":-22.85222,"lng":-43.77528},"status":"surplus"},{"frame_index":939,"name":"ports_3","capacity":10000,"empty":1129,"full":2369,"on_shipper":132,"on_consignee":0,"shortage":0,"acc_shortage":0,"booking":95,"acc_booking":45328,"fulfillment":95,"acc_fulfillment":45328,"transfer_cost":0.0,"port_name":"LeHavre","position":{"lat":49.490002,"lng":0.1},"status":"surplus"},{"frame_index":939,"name":"ports_4","capacity":10000,"empty":2734,"full":788,"on_shipper":89,"on_consignee":0,"shortage":0,"acc_shortage":290,"booking":80,"acc_booking":37969,"fulfillment":80,"acc_fulfillment":37679,"transfer_cost":0.0,"port_name":"Los Angeles","position":{"lat":34.052235,"lng":-118.243683},"status":"surplus"},{"frame_index":939,"name":"ports_5","capacity":10000,"empty":1285,"full":228,"on_shipper":103,"on_consignee":0,"shortage":0,"acc_shortage":163,"booking":83,"acc_booking":38047,"fulfillment":83,"acc_fulfillment":37884,"transfer_cost":0.0,"port_name":"Manzanillo","position":{"lat":19.11695,"lng":-104.34214},"status":"surplus"},{"frame_index":939,"name":"ports_6","capacity":10000,"empty":371,"full":230,"on_shipper":39,"on_consignee":0,"shortage":0,"acc_shortage":1855,"booking":24,"acc_booking":11687,"fulfillment":24,"acc_fulfillment":9832,"transfer_cost":0.0,"port_name":"Melbourne","position":{"lat":-37.840935,"lng":144.946457},"status":"surplus"},{"frame_index":939,"name":"ports_7","capacity":10000,"empty":1178,"full":398,"on_shipper":24,"on_consignee":0,"shortage":0,"acc_shortage":0,"booking":24,"acc_booking":11698,"fulfillment":24,"acc_fulfillment":11698,"transfer_cost":0.0,"port_name":"Montreal","position":{"lat":45.516136,"lng":-73.65683},"status":"surplus"},{"frame_index":939,"name":"ports_8","capacity":10000,"empty":423,"full":17,"on_shipper":92,"on_consignee":1237,"shortage":0,"acc_shortage":136,"booking":46,"acc_booking":22851,"fulfillment":46,"acc_fulfillment":22715,"transfer_cost":0.0,"port_name":"New York","position":{"lat":40.73061,"lng":-73.935242},"status":"surplus"},{"frame_index":939,"name":"ports_9","capacity":10000,"empty":1604,"full":214,"on_shipper":57,"on_consignee":0,"shortage":0,"acc_shortage":45,"booking":45,"acc_booking":22875,"fulfillment":45,"acc_fulfillment":22830,"transfer_cost":0.0,"port_name":"Oakland","position":{"lat":37.804363,"lng":-122.271111},"status":"surplus"},{"frame_index":939,"name":"ports_10","capacity":10000,"empty":1659,"full":149,"on_shipper":31,"on_consignee":0,"shortage":0,"acc_shortage":314,"booking":28,"acc_booking":11726,"fulfillment":28,"acc_fulfillment":11412,"transfer_cost":0.0,"port_name":"Prince Rupert","position":{"lat":54.312519,"lng":-130.305405},"status":"surplus"},{"frame_index":939,"name":"ports_11","capacity":10000,"empty":2948,"full":530,"on_shipper":136,"on_consignee":0,"shortage":0,"acc_shortage":204,"booking":93,"acc_booking":45274,"fulfillment":93,"acc_fulfillment":45070,"transfer_cost":0.0,"port_name":"Pusan","position":{"lat":35.166668,"lng":129.066666},"status":"surplus"},{"frame_index":939,"name":"ports_12","capacity":10000,"empty":4849,"full":771,"on_shipper":207,"on_consignee":324,"shortage":0,"acc_shortage":0,"booking":132,"acc_booking":60507,"fulfillment":132,"acc_fulfillment":60507,"transfer_cost":0.0,"port_name":"Qingdao","position":{"lat":36.066898,"lng":120.382698},"status":"surplus"},{"frame_index":939,"name":"ports_13","capacity":10000,"empty":338,"full":48,"on_shipper":27,"on_consignee":0,"shortage":0,"acc_shortage":449,"booking":15,"acc_booking":7934,"fulfillment":15,"acc_fulfillment":7485,"transfer_cost":0.0,"port_name":"San Antonio","position":{"lat":29.424349,"lng":-98.491142},"status":"surplus"},{"frame_index":939,"name":"ports_14","capacity":10000,"empty":22,"full":283,"on_shipper":31,"on_consignee":0,"shortage":0,"acc_shortage":819,"booking":18,"acc_booking":7989,"fulfillment":18,"acc_fulfillment":7170,"transfer_cost":0.0,"port_name":"Santos","position":{"lat":-23.96083,"lng":-46.33361},"status":"demand"},{"frame_index":939,"name":"ports_15","capacity":10000,"empty":326,"full":1893,"on_shipper":157,"on_consignee":0,"shortage":0,"acc_shortage":0,"booking":117,"acc_booking":52876,"fulfillment":117,"acc_fulfillment":52876,"transfer_cost":0.0,"port_name":"Seattle","position":{"lat":47.608013,"lng":-122.335167},"status":"demand"},{"frame_index":939,"name":"ports_16","capacity":10000,"empty":1235,"full":2692,"on_shipper":263,"on_consignee":19,"shortage":0,"acc_shortage":817,"booking":145,"acc_booking":75338,"fulfillment":145,"acc_fulfillment":74521,"transfer_cost":0.0,"port_name":"Shanghai","position":{"lat":31.224361,"lng":121.46917},"status":"surplus"},{"frame_index":939,"name":"ports_17","capacity":10000,"empty":840,"full":598,"on_shipper":90,"on_consignee":209,"shortage":0,"acc_shortage":283,"booking":63,"acc_booking":30444,"fulfillment":63,"acc_fulfillment":30161,"transfer_cost":0.0,"port_name":"Singapore","position":{"lat":1.29027,"lng":103.851959},"status":"surplus"},{"frame_index":939,"name":"ports_18","capacity":10000,"empty":665,"full":496,"on_shipper":45,"on_consignee":0,"shortage":0,"acc_shortage":1374,"booking":23,"acc_booking":11705,"fulfillment":23,"acc_fulfillment":10331,"transfer_cost":0.0,"port_name":"Sydney","position":{"lat":-33.865143,"lng":151.2099},"status":"surplus"},{"frame_index":939,"name":"ports_19","capacity":10000,"empty":943,"full":680,"on_shipper":60,"on_consignee":0,"shortage":0,"acc_shortage":0,"booking":32,"acc_booking":15484,"fulfillment":32,"acc_fulfillment":15484,"transfer_cost":0.0,"port_name":"Vancouver","position":{"lat":49.246292,"lng":-123.116226},"status":"surplus"},{"frame_index":939,"name":"ports_20","capacity":10000,"empty":892,"full":2722,"on_shipper":139,"on_consignee":2,"shortage":0,"acc_shortage":1292,"booking":115,"acc_booking":52550,"fulfillment":115,"acc_fulfillment":51258,"transfer_cost":1.0,"port_name":"Yantian","position":{"lat":26.8533,"lng":119.8575},"status":"surplus"},{"frame_index":939,"name":"ports_21","capacity":10000,"empty":740,"full":775,"on_shipper":197,"on_consignee":0,"shortage":0,"acc_shortage":7235,"booking":121,"acc_booking":50050,"fulfillment":121,"acc_fulfillment":42815,"transfer_cost":0.0,"port_name":"Yokohama","position":{"lat":35.443707,"lng":139.638031},"status":"surplus"}]