[{"frame_index":484,"name":"ports_0","capacity":10000,"empty":3082,"full":2070,"on_shipper":84,"on_consignee":0,"shortage":0,"acc_shortage":522,"booking":56,"acc_booking":60217,"fulfillment":56,"acc_fulfillment":59695,"transfer_cost":0.0,"port_name":"Bremerhaven","position":{"lat":53.549999,"lng":8.583333},"status":"surplus"},{"frame_index":484,"name":"ports_1","capacity":10000,"empty":115,"full":296,"on_shipper":8,"on_consignee":0,"shortage":0,"acc_shortage":0,"booking":4,"acc_booking":4036,"fulfillment":4,"acc_fulfillment":4036,"transfer_cost":0.0,"port_name":"Durban","position":{"lat":-29.8579,"lng":31.0292},"status":"surplus"},{"frame_index":484,"name":"ports_2","capacity":10000,"empty":831,"full":154,"on_shipper":8,"on_consignee":0,"shortage":0,"acc_shortage":233,"booking":4,"acc_booking":4010,"fulfillment":4,"acc_fulfillment":3777,"transfer_cost":0.0,"port_name":"Itagual","position":{"lat":-22.85222,"lng":-43.77528},"status":"surplus"},{"frame_index":484,"name":"ports_3","capacity":10000,"empty":1599,"full":501,"on_shipper":33,"on_consignee":0,"shortage":0,"acc_shortage":0,"booking":21,"acc_booking":22889,"fulfillment":21,"acc_fulfillment":22889,"transfer_cost":0.0,"port_name":"LeHavre","position":{"lat":49.490002,"lng":0.1},"status":"surplus"},{"frame_index":484,"name":"ports_4","capacity":10000,"empty":3108,"full":512,"on_shipper":33,"on_consignee":0,"shortage":0,"acc_shortage":0,"booking":18,"acc_booking":19134,"fulfillment":18,"acc_fulfillment":19134,"transfer_cost":0.0,"port_name":"Los Angeles","position":{"lat":34.052235,"lng":-118.243683},"status":"surplus"},{"frame_index":484,"name":"ports_5","capacity":10000,"empty":2113,"full":199,"on_shipper":27,"on_consignee":0,"shortage":0,"acc_shortage":123,"booking":16,"acc_booking":19206,"fulfillment":16,"acc_fulfillment":19083,"transfer_cost":0.0,"port_name":"Manzanillo","position":{"lat":19.11695,"lng":-104.34214},"status":"surplus"},{"frame_index":484,"name":"ports_6","capacity":10000,"empty":289,"full":239,"on_shipper":12,"on_consignee":0,"shortage":0,"acc_shortage":837,"booking":6,"acc_booking":5896,"fulfillment":6,"acc_fulfillment":5059,"transfer_cost":0.0,"port_name":"Melbourne","position":{"lat":-37.840935,"lng":144.946457},"status":"surplus"},{"frame_index":484,"name":"ports_7","capacity":10000,"empty":2212,"full":0,"on_shipper":11,"on_consignee":27,"shortage":0,"acc_shortage":0,"booking":6,"acc_booking":5899,"fulfillment":6,"acc_fulfillment":5899,"transfer_cost":4.0,"port_name":"Montreal","position":{"lat":45.516136,"lng":-73.65683},"status":"surplus"},{"frame_index":484,"name":"ports_8","capacity":10000,"empty":2139,"full":223,"on_shipper":11,"on_consignee":0,"shortage":0,"acc_shortage":0,"booking":11,"acc_booking":11513,"fulfillment":11,"acc_fulfillment":11513,"transfer_cost":0.0,"port_name":"New York","position":{"lat":40.73061,"lng":-73.935242},"status":"surplus"},{"frame_index":484,"name":"ports_9","capacity":10000,"empty":2389,"full":421,"on_shipper":24,"on_consignee":0,"shortage":0,"acc_shortage":45,"booking":12,"acc_booking":11522,"fulfillment":12,"acc_fulfillment":11477,"transfer_cost":0.0,"port_name":"Oakland","position":{"lat":37.804363,"lng":-122.271111},"status":"surplus"},{"frame_index":484,"name":"ports_10","capacity":10000,"empty":133,"full":345,"on_shipper":14,"on_consignee":0,"shortage":0,"acc_shortage":0,"booking":7,"acc_booking":5904,"fulfillment":7,"acc_fulfillment":5904,"transfer_cost":0.0,"port_name":"Prince Rupert","position":{"lat":54.312519,"lng":-130.305405},"status":"surplus"},{"frame_index":484,"name":"ports_11","capacity":10000,"empty":3513,"full":414,"on_shipper":35,"on_consignee":0,"shortage":0,"acc_shortage":204,"booking":22,"acc_booking":22826,"fulfillment":22,"acc_fulfillment":22622,"transfer_cost":0.0,"port_name":"Pusan","position":{"lat":35.166668,"lng":129.066666},"status":"surplus"},{"frame_index":484,"name":"ports_12","capacity":10000,"empty":4306,"full":854,"on_shipper":57,"on_consignee":670,"shortage":0,"acc_shortage":0,"booking":26,"acc_booking":30508,"fulfillment":26,"acc_fulfillment":30508,"transfer_cost":10.0,"port_name":"Qingdao","position":{"lat":36.066898,"lng":120.382698},"status":"surplus"},{"frame_index":484,"name":"ports_13","capacity":10000,"empty":645,"full":17,"on_shipper":9,"on_consignee":0,"shortage":0,"acc_shortage":286,"booking":4,"acc_booking":4001,"fulfillment":4,"acc_fulfillment":3715,"transfer_cost":0.0,"port_name":"San Antonio","position":{"lat":29.424349,"lng":-98.491142},"status":"surplus"},{"frame_index":484,"name":"ports_14","capacity":10000,"empty":214,"full":207,"on_shipper":9,"on_consignee":0,"shortage":0,"acc_shortage":697,"booking":4,"acc_booking":4042,"fulfillment":4,"acc_fulfillment":3345,"transfer_cost":0.0,"port_name":"Santos","position":{"lat":-23.96083,"lng":-46.33361},"status":"surplus"},{"frame_index":484,"name":"ports_15","capacity":10000,"empty":4456,"full":116,"on_shipper":38,"on_consignee":199,"shortage":0,"acc_shortage":0,"booking":26,"acc_booking":26652,"fulfillment":26,"acc_fulfillment":26652,"transfer_cost":0.0,"port_name":"Seattle","position":{"lat":47.608013,"lng":-122.335167},"status":"surplus"},{"frame_index":484,"name":"ports_16","capacity":10000,"empty":1348,"full":1236,"on_shipper":63,"on_consignee":0,"shortage":0,"acc_shortage":0,"booking":41,"acc_booking":38014,"fulfillment":41,"acc_fulfillment":38014,"transfer_cost":0.0,"port_name":"Shanghai","position":{"lat":31.224361,"lng":121.46917},"status":"surplus"},{"frame_index":484,"name":"ports_17","capacity":10000,"empty":3097,"full":298,"on_shipper":22,"on_consignee":112,"shortage":0,"acc_shortage":40,"booking":15,"acc_booking":15352,"fulfillment":15,"acc_fulfillment":15312,"transfer_cost":105.0,"port_name":"Singapore","position":{"lat":1.29027,"lng":103.851959},"status":"surplus"},{"frame_index":484,"name":"ports_18","capacity":10000,"empty":600,"full":217,"on_shipper":12,"on_consignee":0,"shortage":0,"acc_shortage":774,"booking":6,"acc_booking":5864,"fulfillment":6,"acc_fulfillment":5090,"transfer_cost":0.0,"port_name":"Sydney","position":{"lat":-33.865143,"lng":151.2099},"status":"surplus"},{"frame_index":484,"name":"ports_19","capacity":10000,"empty":666,"full":226,"on_shipper":19,"on_consignee":222,"shortage":0,"acc_shortage":0,"booking":7,"acc_booking":7833,"fulfillment":7,"acc_fulfillment":7833,"transfer_cost":0.0,"port_name":"Vancouver","position":{"lat":49.246292,"lng":-123.116226},"status":"surplus"},{"frame_index":484,"name":"ports_20","capacity":10000,"empty":1845,"full":534,"on_shipper":41,"on_consignee":161,"shortage":0,"acc_shortage":350,"booking":23,"acc_booking":26410,"fulfillment":23,"acc_fulfillment":26060,"transfer_cost":9.0,"port_name":"Yantian","position":{"lat":26.8533,"lng":119.8575},"status":"surplus"},{"frame_index":484,"name":"ports_21","capacity":10000,"empty":1772,"full":494,"on_shipper":46,"on_consignee":0,"shortage":0,"acc_shortage":2740,"booking":18,"acc_booking":25111,"fulfillment":18,"acc_fulfillment":22371,"transfer_cost":0.0,"port_name":"Yokohama","position":{"lat":35.443707,"lng":139.638031},"status":"surplus"}]