[{"frame_index":180,"name":"ports_0","capacity":10000,"empty":4910,"full":5026,"on_shipper":303,"on_consignee":0,"shortage":0,"acc_shortage":0,"booking":265,"acc_booking":23558,"fulfillment":265,"acc_fulfillment":23558,"transfer_cost":0.0,"port_name":"Bremerhaven","position":{"lat":53.549999,"lng":8.583333},"status":"surplus"},{"frame_index":180,"name":"ports_1","capacity":10000,"empty":509,"full":380,"on_shipper":28,"on_consignee":0,"shortage":0,"acc_shortage":0,"booking":17,"acc_booking":1580,"fulfillment":17,"acc_fulfillment":1580,"transfer_cost":0.0,"port_name":"Durban","position":{"lat":-29.8579,"lng":31.0292},"status":"surplus"},{"frame_index":180,"name":"ports_2","capacity":10000,"empty":333,"full":370,"on_shipper":17,"on_consignee":0,"shortage":0,"acc_shortage":233,"booking":17,"acc_booking":1566,"fulfillment":17,"acc_fulfillment":1333,"transfer_cost":0.0,"port_name":"Itagual","position":{"lat":-22.85222,"lng":-43.77528},"status":"surplus"},{"frame_index":180,"name":"ports_3","capacity":10000,"empty":3318,"full":846,"on_shipper":117,"on_consignee":0,"shortage":0,"acc_shortage":0,"booking":89,"acc_booking":8950,"fulfillment":89,"acc_fulfillment":8950,"transfer_cost":0.0,"port_name":"LeHavre","position":{"lat":49.490002,"lng":0.1},"status":"surplus"},{"frame_index":180,"name":"ports_4","capacity":10000,"empty":3017,"full":286,"on_shipper":101,"on_consignee":39,"shortage":0,"acc_shortage":0,"booking":75,"acc_booking":7485,"fulfillment":75,"acc_fulfillment":7485,"transfer_cost":0.0,"port_name":"Los Angeles","position":{"lat":34.052235,"lng":-118.243683},"status":"surplus"},{"frame_index":180,"name":"ports_5","capacity":10000,"empty":475,"full":0,"on_shipper":97,"on_consignee":921,"shortage":0,"acc_shortage":0,"booking":71,"acc_booking":7475,"fulfillment":71,"acc_fulfillment":7475,"transfer_cost":476.0,"port_name":"Manzanillo","position":{"lat":19.11695,"lng":-104.34214},"status":"surplus"},{"frame_index":180,"name":"ports_6","capacity":10000,"empty":347,"full":176,"on_shipper":34,"on_consignee":0,"shortage":0,"acc_shortage":0,"booking":22,"acc_booking":2302,"fulfillment":22,"acc_fulfillment":2302,"transfer_cost":0.0,"port_name":"Melbourne","position":{"lat":-37.840935,"lng":144.946457},"status":"surplus"},{"frame_index":180,"name":"ports_7","capacity":10000,"empty":2569,"full":31,"on_shipper":30,"on_consignee":0,"shortage":0,"acc_shortage":0,"booking":23,"acc_booking":2300,"fulfillment":23,"acc_fulfillment":2300,"transfer_cost":0.0,"port_name":"Montreal","position":{"lat":45.516136,"lng":-73.65683},"status":"surplus"},{"frame_index":180,"name":"ports_8","capacity":10000,"empty":3807,"full":596,"on_shipper":46,"on_consignee":0,"shortage":0,"acc_shortage":0,"booking":46,"acc_booking":4502,"fulfillment":46,"acc_fulfillment":4502,"transfer_cost":0.0,"port_name":"New York","position":{"lat":40.73061,"lng":-73.935242},"status":"surplus"},{"frame_index":180,"name":"ports_9","capacity":10000,"empty":753,"full":1614,"on_shipper":49,"on_consignee":0,"shortage":0,"acc_shortage":0,"booking":43,"acc_booking":4485,"fulfillment":43,"acc_fulfillment":4485,"transfer_cost":0.0,"port_name":"Oakland","position":{"lat":37.804363,"lng":-122.271111},"status":"surplus"},{"frame_index":180,"name":"ports_10","capacity":10000,"empty":894,"full":170,"on_shipper":29,"on_consignee":0,"shortage":0,"acc_shortage":0,"booking":22,"acc_booking":2290,"fulfillment":22,"acc_fulfillment":2290,"transfer_cost":0.0,"port_name":"Prince Rupert","position":{"lat":54.312519,"lng":-130.305405},"status":"surplus"},{"frame_index":180,"name":"ports_11","capacity":10000,"empty":1969,"full":326,"on_shipper":124,"on_consignee":0,"shortage":0,"acc_shortage":0,"booking":91,"acc_booking":8925,"fulfillment":91,"acc_fulfillment":8925,"transfer_cost":0.0,"port_name":"Pusan","position":{"lat":35.166668,"lng":129.066666},"status":"surplus"},{"frame_index":180,"name":"ports_12","capacity":10000,"empty":1704,"full":2067,"on_shipper":144,"on_consignee":0,"shortage":0,"acc_shortage":0,"booking":111,"acc_booking":11891,"fulfillment":111,"acc_fulfillment":11891,"transfer_cost":0.0,"port_name":"Qingdao","position":{"lat":36.066898,"lng":120.382698},"status":"surplus"},{"frame_index":180,"name":"ports_13","capacity":10000,"empty":415,"full":37,"on_shipper":19,"on_consignee":0,"shortage":0,"acc_shortage":55,"booking":16,"acc_booking":1567,"fulfillment":16,"acc_fulfillment":1512,"transfer_cost":0.0,"port_name":"San Antonio","position":{"lat":29.424349,"lng":-98.491142},"status":"surplus"},{"frame_index":180,"name":"ports_14","capacity":10000,"empty":0,"full":224,"on_shipper":0,"on_consignee":0,"shortage":14,"acc_shortage":407,"booking":14,"acc_booking":1583,"fulfillment":0,"acc_fulfillment":1176,"transfer_cost":0.0,"port_name":"Santos","position":{"lat":-23.96083,"lng":-46.33361},"status":"demand"},{"frame_index":180,"name":"ports_15","capacity":10000,"empty":2686,"full":819,"on_shipper":147,"on_consignee":148,"shortage":0,"acc_shortage":0,"booking":104,"acc_booking":10416,"fulfillment":104,"acc_fulfillment":10416,"transfer_cost":0.0,"port_name":"Seattle","position":{"lat":47.608013,"lng":-122.335167},"status":"surplus"},{"frame_index":180,"name":"ports_16","capacity":10000,"empty":2201,"full":1109,"on_shipper":175,"on_consignee":176,"shortage":0,"acc_shortage":0,"booking":125,"acc_booking":14850,"fulfillment":125,"acc_fulfillment":14850,"transfer_cost":0.0,"port_name":"Shanghai","position":{"lat":31.224361,"lng":121.46917},"status":"surplus"},{"frame_index":180,"name":"ports_17","capacity":10000,"empty":468,"full":326,"on_shipper":81,"on_consignee":72,"shortage":0,"acc_shortage":0,"booking":62,"acc_booking":6010,"fulfillment":62,"acc_fulfillment":6010,"transfer_cost":0.0,"port_name":"Singapore","position":{"lat":1.29027,"lng":103.851959},"status":"surplus"},{"frame_index":180,"name":"ports_18","capacity":10000,"empty":279,"full":359,"on_shipper":22,"on_consignee":0,"shortage":0,"acc_shortage":0,"booking":22,"acc_booking":2278,"fulfillment":22,"acc_fulfillment":2278,"transfer_cost":0.0,"port_name":"Sydney","position":{"lat":-33.865143,"lng":151.2099},"status":"surplus"},{"frame_index":180,"name":"ports_19","capacity":10000,"empty":693,"full":231,"on_shipper":41,"on_consignee":0,"shortage":0,"acc_shortage":0,"booking":32,"acc_booking":3046,"fulfillment":32,"acc_fulfillment":3046,"transfer_cost":0.0,"port_name":"Vancouver","position":{"lat":49.246292,"lng":-123.116226},"status":"surplus"},{"frame_index":180,"name":"ports_20","capacity":10000,"empty":1438,"full":1364,"on_shipper":156,"on_consignee":65,"shortage":0,"acc_shortage":0,"booking":106,"acc_booking":10236,"fulfillment":106,"acc_fulfillment":10236,"transfer_cost":0.0,"port_name":"Yantian","position":{"lat":26.8533,"lng":119.8575},"status":"surplus"},{"frame_index":180,"name":"ports_21","capacity":10000,"empty":1005,"full":2228,"on_shipper":140,"on_consignee":142,"shortage":0,"acc_shortage":0,"booking":111,"acc_booking":9918,"fulfillment":111,"acc_fulfillment":9918,"transfer_cost":227.0,"port_name":"Yokohama","position":{"lat":35.443707,"lng":139.638031},"status":"surplus"}]