[{"frame_index":22,"name":"ports_0","capacity":10000,"empty":14679,"full":437,"on_shipper":88,"on_consignee":0,"shortage":0,"acc_shortage":0,"booking":40,"acc_booking":1321,"fulfillment":40,"acc_fulfillment":1321,"transfer_cost":0.0,"port_name":"Bremerhaven","position":{"lat":53.549999,"lng":8.583333},"status":"surplus"},{"frame_index":22,"name":"ports_1","capacity":10000,"empty":918,"full":14,"on_shipper":4,"on_consignee":0,"shortage":0,"acc_shortage":0,"booking":3,"acc_booking":93,"fulfillment":3,"acc_fulfillment":93,"transfer_cost":0.0,"port_name":"Durban","position":{"lat":-29.8579,"lng":31.0292},"status":"surplus"},{"frame_index":22,"name":"ports_2","capacity":10000,"empty":907,"full":48,"on_shipper":6,"on_consignee":0,"shortage":0,"acc_shortage":0,"booking":3,"acc_booking":93,"fulfillment":3,"acc_fulfillment":93,"transfer_cost":0.0,"port_name":"Itagual","position":{"lat":-22.85222,"lng":-43.77528},"status":"surplus"},{"frame_index":22,"name":"ports_3","capacity":10000,"empty":5482,"full":375,"on_shipper":33,"on_consignee":0,"shortage":0,"acc_shortage":0,"booking":15,"acc_booking":518,"fulfillment":15,"acc_fulfillment":518,"transfer_cost":0.0,"port_name":"LeHavre","position":{"lat":49.490002,"lng":0.1},"status":"surplus"},{"frame_index":22,"name":"ports_4","capacity":10000,"empty":4568,"full":349,"on_shipper":21,"on_consignee":0,"shortage":0,"acc_shortage":0,"booking":13,"acc_booking":432,"fulfillment":13,"acc_fulfillment":432,"transfer_cost":0.0,"port_name":"Los Angeles","position":{"lat":34.052235,"lng":-118.243683},"status":"surplus"},{"frame_index":22,"name":"ports_5","capacity":10000,"empty":4565,"full":328,"on_shipper":16,"on_consignee":0,"shortage":0,"acc_shortage":0,"booking":12,"acc_booking":435,"fulfillment":12,"acc_fulfillment":435,"transfer_cost":0.0,"port_name":"Manzanillo","position":{"lat":19.11695,"lng":-104.34214},"status":"surplus"},{"frame_index":22,"name":"ports_6","capacity":10000,"empty":1364,"full":130,"on_shipper":6,"on_consignee":0,"shortage":0,"acc_shortage":0,"booking":4,"acc_booking":136,"fulfillment":4,"acc_fulfillment":136,"transfer_cost":0.0,"port_name":"Melbourne","position":{"lat":-37.840935,"lng":144.946457},"status":"surplus"},{"frame_index":22,"name":"ports_7","capacity":10000,"empty":1366,"full":127,"on_shipper":7,"on_consignee":0,"shortage":0,"acc_shortage":0,"booking":4,"acc_booking":134,"fulfillment":4,"acc_fulfillment":134,"transfer_cost":0.0,"port_name":"Montreal","position":{"lat":45.516136,"lng":-73.65683},"status":"surplus"},{"frame_index":22,"name":"ports_8","capacity":10000,"empty":2737,"full":251,"on_shipper":12,"on_consignee":0,"shortage":0,"acc_shortage":0,"booking":8,"acc_booking":263,"fulfillment":8,"acc_fulfillment":263,"transfer_cost":0.0,"port_name":"New York","position":{"lat":40.73061,"lng":-73.935242},"status":"surplus"},{"frame_index":22,"name":"ports_9","capacity":10000,"empty":2738,"full":248,"on_shipper":14,"on_consignee":0,"shortage":0,"acc_shortage":0,"booking":8,"acc_booking":262,"fulfillment":8,"acc_fulfillment":262,"transfer_cost":0.0,"port_name":"Oakland","position":{"lat":37.804363,"lng":-122.271111},"status":"surplus"},{"frame_index":22,"name":"ports_10","capacity":10000,"empty":1358,"full":135,"on_shipper":7,"on_consignee":0,"shortage":0,"acc_shortage":0,"booking":5,"acc_booking":142,"fulfillment":5,"acc_fulfillment":142,"transfer_cost":0.0,"port_name":"Prince Rupert","position":{"lat":54.312519,"lng":-130.305405},"status":"surplus"},{"frame_index":22,"name":"ports_11","capacity":10000,"empty":5478,"full":422,"on_shipper":30,"on_consignee":0,"shortage":0,"acc_shortage":0,"booking":16,"acc_booking":522,"fulfillment":16,"acc_fulfillment":522,"transfer_cost":0.0,"port_name":"Pusan","position":{"lat":35.166668,"lng":129.066666},"status":"surplus"},{"frame_index":22,"name":"ports_12","capacity":10000,"empty":7312,"full":386,"on_shipper":40,"on_consignee":0,"shortage":0,"acc_shortage":0,"booking":18,"acc_booking":688,"fulfillment":18,"acc_fulfillment":688,"transfer_cost":0.0,"port_name":"Qingdao","position":{"lat":36.066898,"lng":120.382698},"status":"surplus"},{"frame_index":22,"name":"ports_13","capacity":10000,"empty":907,"full":89,"on_shipper":4,"on_consignee":0,"shortage":0,"acc_shortage":0,"booking":3,"acc_booking":93,"fulfillment":3,"acc_fulfillment":93,"transfer_cost":0.0,"port_name":"San Antonio","position":{"lat":29.424349,"lng":-98.491142},"status":"surplus"},{"frame_index":22,"name":"ports_14","capacity":10000,"empty":905,"full":90,"on_shipper":5,"on_consignee":0,"shortage":0,"acc_shortage":0,"booking":3,"acc_booking":95,"fulfillment":3,"acc_fulfillment":95,"transfer_cost":0.0,"port_name":"Santos","position":{"lat":-23.96083,"lng":-46.33361},"status":"surplus"},{"frame_index":22,"name":"ports_15","capacity":10000,"empty":6405,"full":452,"on_shipper":24,"on_consignee":0,"shortage":0,"acc_shortage":0,"booking":17,"acc_booking":595,"fulfillment":17,"acc_fulfillment":595,"transfer_cost":0.0,"port_name":"Seattle","position":{"lat":47.608013,"lng":-122.335167},"status":"surplus"},{"frame_index":22,"name":"ports_16","capacity":10000,"empty":9133,"full":501,"on_shipper":40,"on_consignee":0,"shortage":0,"acc_shortage":0,"booking":26,"acc_booking":867,"fulfillment":26,"acc_fulfillment":867,"transfer_cost":0.0,"port_name":"Shanghai","position":{"lat":31.224361,"lng":121.46917},"status":"surplus"},{"frame_index":22,"name":"ports_17","capacity":10000,"empty":3652,"full":157,"on_shipper":16,"on_consignee":4,"shortage":0,"acc_shortage":0,"booking":10,"acc_booking":348,"fulfillment":10,"acc_fulfillment":348,"transfer_cost":0.0,"port_name":"Singapore","position":{"lat":1.29027,"lng":103.851959},"status":"surplus"},{"frame_index":22,"name":"ports_18","capacity":10000,"empty":1364,"full":127,"on_shipper":9,"on_consignee":0,"shortage":0,"acc_shortage":0,"booking":5,"acc_booking":136,"fulfillment":5,"acc_fulfillment":136,"transfer_cost":0.0,"port_name":"Sydney","position":{"lat":-33.865143,"lng":151.2099},"status":"surplus"},{"frame_index":22,"name":"ports_19","capacity":10000,"empty":1823,"full":140,"on_shipper":10,"on_consignee":0,"shortage":0,"acc_shortage":0,"booking":6,"acc_booking":177,"fulfillment":6,"acc_fulfillment":177,"transfer_cost":0.0,"port_name":"Vancouver","position":{"lat":49.246292,"lng":-123.116226},"status":"surplus"},{"frame_index":22,"name":"ports_20","capacity":10000,"empty":6394,"full":439,"on_shipper":36,"on_consignee":0,"shortage":0,"acc_shortage":0,"booking":18,"acc_booking":609,"fulfillment":18,"acc_fulfillment":609,"transfer_cost":0.0,"port_name":"Yantian","position":{"lat":26.8533,"lng":119.8575},"status":"surplus"},{"frame_index":22,"name":"ports_21","capacity":10000,"empty":7550,"full":436,"on_shipper":14,"on_consignee":0,"shortage":0,"acc_shortage":0,"booking":8,"acc_booking":450,"fulfillment":8,"acc_fulfillment":450,"transfer_cost":0.0,"port_name":"Yokohama","position":{"lat":35.443707,"lng":139.638031},"status":"surplus"}]