[{"frame_index":189,"name":"ports_0","capacity":10000,"empty":3064,"full":1485,"on_shipper":185,"on_consignee":1014,"shortage":0,"acc_shortage":0,"booking":87,"acc_booking":25480,"fulfillment":87,"acc_fulfillment":25480,"transfer_cost":76.0,"port_name":"Bremerhaven","position":{"lat":53.549999,"lng":8.583333},"status":"surplus"},{"frame_index":189,"name":"ports_1","capacity":10000,"empty":389,"full":522,"on_shipper":6,"on_consignee":0,"shortage":0,"acc_shortage":0,"booking":6,"acc_booking":1700,"fulfillment":6,"acc_fulfillment":1700,"transfer_cost":0.0,"port_name":"Durban","position":{"lat":-29.8579,"lng":31.0292},"status":"surplus"},{"frame_index":189,"name":"ports_2","capacity":10000,"empty":655,"full":47,"on_shipper":10,"on_consignee":0,"shortage":0,"acc_shortage":233,"booking":6,"acc_booking":1689,"fulfillment":6,"acc_fulfillment":1456,"transfer_cost":0.0,"port_name":"Itagual","position":{"lat":-22.85222,"lng":-43.77528},"status":"surplus"},{"frame_index":189,"name":"ports_3","capacity":10000,"empty":2608,"full":1636,"on_shipper":37,"on_consignee":0,"shortage":0,"acc_shortage":0,"booking":33,"acc_booking":9660,"fulfillment":33,"acc_fulfillment":9660,"transfer_cost":0.0,"port_name":"LeHavre","position":{"lat":49.490002,"lng":0.1},"status":"surplus"},{"frame_index":189,"name":"ports_4","capacity":10000,"empty":2470,"full":940,"on_shipper":33,"on_consignee":0,"shortage":0,"acc_shortage":0,"booking":27,"acc_booking":8071,"fulfillment":27,"acc_fulfillment":8071,"transfer_cost":0.0,"port_name":"Los Angeles","position":{"lat":34.052235,"lng":-118.243683},"status":"surplus"},{"frame_index":189,"name":"ports_5","capacity":10000,"empty":550,"full":177,"on_shipper":35,"on_consignee":0,"shortage":0,"acc_shortage":0,"booking":26,"acc_booking":8090,"fulfillment":26,"acc_fulfillment":8090,"transfer_cost":0.0,"port_name":"Manzanillo","position":{"lat":19.11695,"lng":-104.34214},"status":"surplus"},{"frame_index":189,"name":"ports_6","capacity":10000,"empty":168,"full":372,"on_shipper":17,"on_consignee":0,"shortage":0,"acc_shortage":0,"booking":9,"acc_booking":2481,"fulfillment":9,"acc_fulfillment":2481,"transfer_cost":0.0,"port_name":"Melbourne","position":{"lat":-37.840935,"lng":144.946457},"status":"surplus"},{"frame_index":189,"name":"ports_7","capacity":10000,"empty":2389,"full":232,"on_shipper":9,"on_consignee":0,"shortage":0,"acc_shortage":0,"booking":9,"acc_booking":2480,"fulfillment":9,"acc_fulfillment":2480,"transfer_cost":0.0,"port_name":"Montreal","position":{"lat":45.516136,"lng":-73.65683},"status":"surplus"},{"frame_index":189,"name":"ports_8","capacity":10000,"empty":3447,"full":986,"on_shipper":16,"on_consignee":0,"shortage":0,"acc_shortage":0,"booking":16,"acc_booking":4862,"fulfillment":16,"acc_fulfillment":4862,"transfer_cost":0.0,"port_name":"New York","position":{"lat":40.73061,"lng":-73.935242},"status":"surplus"},{"frame_index":189,"name":"ports_9","capacity":10000,"empty":389,"full":1997,"on_shipper":30,"on_consignee":0,"shortage":0,"acc_shortage":0,"booking":18,"acc_booking":4849,"fulfillment":18,"acc_fulfillment":4849,"transfer_cost":0.0,"port_name":"Oakland","position":{"lat":37.804363,"lng":-122.271111},"status":"surplus"},{"frame_index":189,"name":"ports_10","capacity":10000,"empty":720,"full":357,"on_shipper":16,"on_consignee":0,"shortage":0,"acc_shortage":0,"booking":8,"acc_booking":2464,"fulfillment":8,"acc_fulfillment":2464,"transfer_cost":0.0,"port_name":"Prince Rupert","position":{"lat":54.312519,"lng":-130.305405},"status":"surplus"},{"frame_index":189,"name":"ports_11","capacity":10000,"empty":1811,"full":777,"on_shipper":44,"on_consignee":0,"shortage":0,"acc_shortage":0,"booking":33,"acc_booking":9629,"fulfillment":33,"acc_fulfillment":9629,"transfer_cost":0.0,"port_name":"Pusan","position":{"lat":35.166668,"lng":129.066666},"status":"surplus"},{"frame_index":189,"name":"ports_12","capacity":10000,"empty":764,"full":3071,"on_shipper":80,"on_consignee":0,"shortage":0,"acc_shortage":0,"booking":45,"acc_booking":12831,"fulfillment":45,"acc_fulfillment":12831,"transfer_cost":0.0,"port_name":"Qingdao","position":{"lat":36.066898,"lng":120.382698},"status":"surplus"},{"frame_index":189,"name":"ports_13","capacity":10000,"empty":459,"full":95,"on_shipper":11,"on_consignee":0,"shortage":0,"acc_shortage":55,"booking":7,"acc_booking":1688,"fulfillment":7,"acc_fulfillment":1633,"transfer_cost":0.0,"port_name":"San Antonio","position":{"lat":29.424349,"lng":-98.491142},"status":"surplus"},{"frame_index":189,"name":"ports_14","capacity":10000,"empty":0,"full":224,"on_shipper":0,"on_consignee":0,"shortage":7,"acc_shortage":528,"booking":7,"acc_booking":1704,"fulfillment":0,"acc_fulfillment":1176,"transfer_cost":0.0,"port_name":"Santos","position":{"lat":-23.96083,"lng":-46.33361},"status":"balance"},{"frame_index":189,"name":"ports_15","capacity":10000,"empty":2002,"full":1725,"on_shipper":73,"on_consignee":0,"shortage":0,"acc_shortage":0,"booking":40,"acc_booking":11248,"fulfillment":40,"acc_fulfillment":11248,"transfer_cost":0.0,"port_name":"Seattle","position":{"lat":47.608013,"lng":-122.335167},"status":"surplus"},{"frame_index":189,"name":"ports_16","capacity":10000,"empty":1936,"full":1117,"on_shipper":110,"on_consignee":12,"shortage":0,"acc_shortage":0,"booking":61,"acc_booking":15935,"fulfillment":61,"acc_fulfillment":15935,"transfer_cost":0.0,"port_name":"Shanghai","position":{"lat":31.224361,"lng":121.46917},"status":"surplus"},{"frame_index":189,"name":"ports_17","capacity":10000,"empty":215,"full":640,"on_shipper":42,"on_consignee":0,"shortage":0,"acc_shortage":0,"booking":23,"acc_booking":6481,"fulfillment":23,"acc_fulfillment":6481,"transfer_cost":0.0,"port_name":"Singapore","position":{"lat":1.29027,"lng":103.851959},"status":"surplus"},{"frame_index":189,"name":"ports_18","capacity":10000,"empty":170,"full":157,"on_shipper":19,"on_consignee":0,"shortage":0,"acc_shortage":0,"booking":8,"acc_booking":2453,"fulfillment":8,"acc_fulfillment":2453,"transfer_cost":0.0,"port_name":"Sydney","position":{"lat":-33.865143,"lng":151.2099},"status":"surplus"},{"frame_index":189,"name":"ports_19","capacity":10000,"empty":457,"full":10,"on_shipper":21,"on_consignee":477,"shortage":0,"acc_shortage":0,"booking":11,"acc_booking":3282,"fulfillment":11,"acc_fulfillment":3282,"transfer_cost":0.0,"port_name":"Vancouver","position":{"lat":49.246292,"lng":-123.116226},"status":"surplus"},{"frame_index":189,"name":"ports_20","capacity":10000,"empty":880,"full":1378,"on_shipper":58,"on_consignee":283,"shortage":0,"acc_shortage":0,"booking":38,"acc_booking":11065,"fulfillment":38,"acc_fulfillment":11065,"transfer_cost":0.0,"port_name":"Yantian","position":{"lat":26.8533,"lng":119.8575},"status":"surplus"},{"frame_index":189,"name":"ports_21","capacity":10000,"empty":311,"full":3147,"on_shipper":57,"on_consignee":0,"shortage":0,"acc_shortage":0,"booking":33,"acc_booking":10754,"fulfillment":33,"acc_fulfillment":10754,"transfer_cost":0.0,"port_name":"Yokohama","position":{"lat":35.443707,"lng":139.638031},"status":"surplus"}]