[{"frame_index":810,"name":"ports_0","capacity":10000,"empty":2551,"full":3694,"on_shipper":161,"on_consignee":0,"shortage":0,"acc_shortage":522,"booking":133,"acc_booking":102367,"fulfillment":133,"acc_fulfillment":101845,"transfer_cost":0.0,"port_name":"Bremerhaven","position":{"lat":53.549999,"lng":8.583333},"status":"surplus"},{"frame_index":810,"name":"ports_1","capacity":10000,"empty":309,"full":103,"on_shipper":15,"on_consignee":0,"shortage":0,"acc_shortage":10,"booking":9,"acc_booking":6809,"fulfillment":9,"acc_fulfillment":6799,"transfer_cost":0.0,"port_name":"Durban","position":{"lat":-29.8579,"lng":31.0292},"status":"surplus"},{"frame_index":810,"name":"ports_2","capacity":10000,"empty":398,"full":179,"on_shipper":11,"on_consignee":0,"shortage":0,"acc_shortage":298,"booking":9,"acc_booking":6785,"fulfillment":9,"acc_fulfillment":6487,"transfer_cost":0.0,"port_name":"Itagual","position":{"lat":-22.85222,"lng":-43.77528},"status":"surplus"},{"frame_index":810,"name":"ports_3","capacity":10000,"empty":3646,"full":371,"on_shipper":77,"on_consignee":0,"shortage":0,"acc_shortage":0,"booking":50,"acc_booking":38750,"fulfillment":50,"acc_fulfillment":38750,"transfer_cost":0.0,"port_name":"LeHavre","position":{"lat":49.490002,"lng":0.1},"status":"surplus"},{"frame_index":810,"name":"ports_4","capacity":10000,"empty":981,"full":800,"on_shipper":54,"on_consignee":0,"shortage":0,"acc_shortage":290,"booking":42,"acc_booking":32440,"fulfillment":42,"acc_fulfillment":32150,"transfer_cost":0.0,"port_name":"Los Angeles","position":{"lat":34.052235,"lng":-118.243683},"status":"surplus"},{"frame_index":810,"name":"ports_5","capacity":10000,"empty":2780,"full":30,"on_shipper":63,"on_consignee":0,"shortage":0,"acc_shortage":123,"booking":46,"acc_booking":32553,"fulfillment":46,"acc_fulfillment":32430,"transfer_cost":0.0,"port_name":"Manzanillo","position":{"lat":19.11695,"lng":-104.34214},"status":"surplus"},{"frame_index":810,"name":"ports_6","capacity":10000,"empty":120,"full":309,"on_shipper":22,"on_consignee":0,"shortage":0,"acc_shortage":1572,"booking":13,"acc_booking":9991,"fulfillment":13,"acc_fulfillment":8419,"transfer_cost":0.0,"port_name":"Melbourne","position":{"lat":-37.840935,"lng":144.946457},"status":"surplus"},{"frame_index":810,"name":"ports_7","capacity":10000,"empty":839,"full":199,"on_shipper":20,"on_consignee":0,"shortage":0,"acc_shortage":0,"booking":13,"acc_booking":10002,"fulfillment":13,"acc_fulfillment":10002,"transfer_cost":0.0,"port_name":"Montreal","position":{"lat":45.516136,"lng":-73.65683},"status":"surplus"},{"frame_index":810,"name":"ports_8","capacity":10000,"empty":2222,"full":257,"on_shipper":51,"on_consignee":0,"shortage":0,"acc_shortage":136,"booking":25,"acc_booking":19529,"fulfillment":25,"acc_fulfillment":19393,"transfer_cost":0.0,"port_name":"New York","position":{"lat":40.73061,"lng":-73.935242},"status":"surplus"},{"frame_index":810,"name":"ports_9","capacity":10000,"empty":1447,"full":183,"on_shipper":44,"on_consignee":0,"shortage":0,"acc_shortage":45,"booking":27,"acc_booking":19574,"fulfillment":27,"acc_fulfillment":19529,"transfer_cost":0.0,"port_name":"Oakland","position":{"lat":37.804363,"lng":-122.271111},"status":"surplus"},{"frame_index":810,"name":"ports_10","capacity":10000,"empty":1361,"full":116,"on_shipper":23,"on_consignee":0,"shortage":0,"acc_shortage":314,"booking":15,"acc_booking":10014,"fulfillment":15,"acc_fulfillment":9700,"transfer_cost":0.0,"port_name":"Prince Rupert","position":{"lat":54.312519,"lng":-130.305405},"status":"surplus"},{"frame_index":810,"name":"ports_11","capacity":10000,"empty":3527,"full":430,"on_shipper":59,"on_consignee":0,"shortage":0,"acc_shortage":204,"booking":50,"acc_booking":38708,"fulfillment":50,"acc_fulfillment":38504,"transfer_cost":0.0,"port_name":"Pusan","position":{"lat":35.166668,"lng":129.066666},"status":"surplus"},{"frame_index":810,"name":"ports_12","capacity":10000,"empty":4199,"full":544,"on_shipper":121,"on_consignee":0,"shortage":0,"acc_shortage":0,"booking":64,"acc_booking":51730,"fulfillment":64,"acc_fulfillment":51730,"transfer_cost":0.0,"port_name":"Qingdao","position":{"lat":36.066898,"lng":120.382698},"status":"surplus"},{"frame_index":810,"name":"ports_13","capacity":10000,"empty":658,"full":108,"on_shipper":8,"on_consignee":0,"shortage":0,"acc_shortage":449,"booking":8,"acc_booking":6791,"fulfillment":8,"acc_fulfillment":6342,"transfer_cost":0.0,"port_name":"San Antonio","position":{"lat":29.424349,"lng":-98.491142},"status":"surplus"},{"frame_index":810,"name":"ports_14","capacity":10000,"empty":142,"full":139,"on_shipper":14,"on_consignee":0,"shortage":0,"acc_shortage":762,"booking":10,"acc_booking":6834,"fulfillment":10,"acc_fulfillment":6072,"transfer_cost":0.0,"port_name":"Santos","position":{"lat":-23.96083,"lng":-46.33361},"status":"surplus"},{"frame_index":810,"name":"ports_15","capacity":10000,"empty":2180,"full":403,"on_shipper":87,"on_consignee":0,"shortage":0,"acc_shortage":0,"booking":59,"acc_booking":45199,"fulfillment":59,"acc_fulfillment":45199,"transfer_cost":0.0,"port_name":"Seattle","position":{"lat":47.608013,"lng":-122.335167},"status":"surplus"},{"frame_index":810,"name":"ports_16","capacity":10000,"empty":3032,"full":621,"on_shipper":118,"on_consignee":0,"shortage":0,"acc_shortage":760,"booking":93,"acc_booking":64334,"fulfillment":93,"acc_fulfillment":63574,"transfer_cost":0.0,"port_name":"Shanghai","position":{"lat":31.224361,"lng":121.46917},"status":"surplus"},{"frame_index":810,"name":"ports_17","capacity":10000,"empty":1456,"full":175,"on_shipper":52,"on_consignee":60,"shortage":0,"acc_shortage":283,"booking":33,"acc_booking":26037,"fulfillment":33,"acc_fulfillment":25754,"transfer_cost":17.0,"port_name":"Singapore","position":{"lat":1.29027,"lng":103.851959},"status":"surplus"},{"frame_index":810,"name":"ports_18","capacity":10000,"empty":976,"full":22,"on_shipper":14,"on_consignee":0,"shortage":0,"acc_shortage":1374,"booking":14,"acc_booking":10006,"fulfillment":14,"acc_fulfillment":8632,"transfer_cost":0.0,"port_name":"Sydney","position":{"lat":-33.865143,"lng":151.2099},"status":"surplus"},{"frame_index":810,"name":"ports_19","capacity":10000,"empty":1389,"full":324,"on_shipper":22,"on_consignee":23,"shortage":0,"acc_shortage":0,"booking":17,"acc_booking":13258,"fulfillment":17,"acc_fulfillment":13258,"transfer_cost":0.0,"port_name":"Vancouver","position":{"lat":49.246292,"lng":-123.116226},"status":"surplus"},{"frame_index":810,"name":"ports_20","capacity":10000,"empty":2157,"full":333,"on_shipper":85,"on_consignee":0,"shortage":0,"acc_shortage":942,"booking":63,"acc_booking":44921,"fulfillment":63,"acc_fulfillment":43979,"transfer_cost":0.0,"port_name":"Yantian","position":{"lat":26.8533,"lng":119.8575},"status":"surplus"},{"frame_index":810,"name":"ports_21","capacity":10000,"empty":1307,"full":594,"on_shipper":99,"on_consignee":0,"shortage":0,"acc_shortage":6236,"booking":55,"acc_booking":42694,"fulfillment":55,"acc_fulfillment":36458,"transfer_cost":0.0,"port_name":"Yokohama","position":{"lat":35.443707,"lng":139.638031},"status":"surplus"}]