[{"frame_index":157,"name":"ports_0","capacity":10000,"empty":4533,"full":3352,"on_shipper":470,"on_consignee":0,"shortage":0,"acc_shortage":0,"booking":259,"acc_booking":19302,"fulfillment":259,"acc_fulfillment":19302,"transfer_cost":0.0,"port_name":"Bremerhaven","position":{"lat":53.549999,"lng":8.583333},"status":"surplus"},{"frame_index":157,"name":"ports_1","capacity":10000,"empty":789,"full":106,"on_shipper":22,"on_consignee":0,"shortage":0,"acc_shortage":0,"booking":13,"acc_booking":1300,"fulfillment":13,"acc_fulfillment":1300,"transfer_cost":0.0,"port_name":"Durban","position":{"lat":-29.8579,"lng":31.0292},"status":"surplus"},{"frame_index":157,"name":"ports_2","capacity":10000,"empty":0,"full":720,"on_shipper":0,"on_consignee":0,"shortage":15,"acc_shortage":206,"booking":15,"acc_booking":1286,"fulfillment":0,"acc_fulfillment":1080,"transfer_cost":0.0,"port_name":"Itagual","position":{"lat":-22.85222,"lng":-43.77528},"status":"demand"},{"frame_index":157,"name":"ports_3","capacity":10000,"empty":1077,"full":1516,"on_shipper":141,"on_consignee":0,"shortage":0,"acc_shortage":0,"booking":82,"acc_booking":7371,"fulfillment":82,"acc_fulfillment":7371,"transfer_cost":0.0,"port_name":"LeHavre","position":{"lat":49.490002,"lng":0.1},"status":"surplus"},{"frame_index":157,"name":"ports_4","capacity":10000,"empty":1995,"full":1565,"on_shipper":142,"on_consignee":0,"shortage":0,"acc_shortage":0,"booking":70,"acc_booking":6153,"fulfillment":70,"acc_fulfillment":6153,"transfer_cost":0.0,"port_name":"Los Angeles","position":{"lat":34.052235,"lng":-118.243683},"status":"surplus"},{"frame_index":157,"name":"ports_5","capacity":10000,"empty":2003,"full":607,"on_shipper":119,"on_consignee":0,"shortage":0,"acc_shortage":0,"booking":79,"acc_booking":6138,"fulfillment":79,"acc_fulfillment":6138,"transfer_cost":0.0,"port_name":"Manzanillo","position":{"lat":19.11695,"lng":-104.34214},"status":"surplus"},{"frame_index":157,"name":"ports_6","capacity":10000,"empty":542,"full":138,"on_shipper":30,"on_consignee":0,"shortage":0,"acc_shortage":0,"booking":21,"acc_booking":1897,"fulfillment":21,"acc_fulfillment":1897,"transfer_cost":0.0,"port_name":"Melbourne","position":{"lat":-37.840935,"lng":144.946457},"status":"surplus"},{"frame_index":157,"name":"ports_7","capacity":10000,"empty":2430,"full":251,"on_shipper":34,"on_consignee":0,"shortage":0,"acc_shortage":0,"booking":21,"acc_booking":1893,"fulfillment":21,"acc_fulfillment":1893,"transfer_cost":0.0,"port_name":"Montreal","position":{"lat":45.516136,"lng":-73.65683},"status":"surplus"},{"frame_index":157,"name":"ports_8","capacity":10000,"empty":867,"full":953,"on_shipper":65,"on_consignee":0,"shortage":0,"acc_shortage":0,"booking":44,"acc_booking":3702,"fulfillment":44,"acc_fulfillment":3702,"transfer_cost":0.0,"port_name":"New York","position":{"lat":40.73061,"lng":-73.935242},"status":"surplus"},{"frame_index":157,"name":"ports_9","capacity":10000,"empty":1553,"full":794,"on_shipper":69,"on_consignee":0,"shortage":0,"acc_shortage":0,"booking":41,"acc_booking":3685,"fulfillment":41,"acc_fulfillment":3685,"transfer_cost":0.0,"port_name":"Oakland","position":{"lat":37.804363,"lng":-122.271111},"status":"surplus"},{"frame_index":157,"name":"ports_10","capacity":10000,"empty":940,"full":158,"on_shipper":40,"on_consignee":0,"shortage":0,"acc_shortage":0,"booking":22,"acc_booking":1896,"fulfillment":22,"acc_fulfillment":1896,"transfer_cost":0.0,"port_name":"Prince Rupert","position":{"lat":54.312519,"lng":-130.305405},"status":"surplus"},{"frame_index":157,"name":"ports_11","capacity":10000,"empty":1777,"full":677,"on_shipper":123,"on_consignee":75,"shortage":0,"acc_shortage":0,"booking":83,"acc_booking":7331,"fulfillment":83,"acc_fulfillment":7331,"transfer_cost":0.0,"port_name":"Pusan","position":{"lat":35.166668,"lng":129.066666},"status":"surplus"},{"frame_index":157,"name":"ports_12","capacity":10000,"empty":3331,"full":867,"on_shipper":148,"on_consignee":16,"shortage":0,"acc_shortage":0,"booking":99,"acc_booking":9789,"fulfillment":99,"acc_fulfillment":9789,"transfer_cost":0.0,"port_name":"Qingdao","position":{"lat":36.066898,"lng":120.382698},"status":"surplus"},{"frame_index":157,"name":"ports_13","capacity":10000,"empty":109,"full":352,"on_shipper":24,"on_consignee":0,"shortage":0,"acc_shortage":0,"booking":14,"acc_booking":1295,"fulfillment":14,"acc_fulfillment":1295,"transfer_cost":0.0,"port_name":"San Antonio","position":{"lat":29.424349,"lng":-98.491142},"status":"balance"},{"frame_index":157,"name":"ports_14","capacity":10000,"empty":0,"full":224,"on_shipper":0,"on_consignee":0,"shortage":16,"acc_shortage":131,"booking":16,"acc_booking":1307,"fulfillment":0,"acc_fulfillment":1176,"transfer_cost":0.0,"port_name":"Santos","position":{"lat":-23.96083,"lng":-46.33361},"status":"demand"},{"frame_index":157,"name":"ports_15","capacity":10000,"empty":2846,"full":1160,"on_shipper":113,"on_consignee":0,"shortage":0,"acc_shortage":0,"booking":97,"acc_booking":8560,"fulfillment":97,"acc_fulfillment":8560,"transfer_cost":0.0,"port_name":"Seattle","position":{"lat":47.608013,"lng":-122.335167},"status":"surplus"},{"frame_index":157,"name":"ports_16","capacity":10000,"empty":2337,"full":1398,"on_shipper":217,"on_consignee":0,"shortage":0,"acc_shortage":0,"booking":136,"acc_booking":12298,"fulfillment":136,"acc_fulfillment":12298,"transfer_cost":0.0,"port_name":"Shanghai","position":{"lat":31.224361,"lng":121.46917},"status":"surplus"},{"frame_index":157,"name":"ports_17","capacity":10000,"empty":1084,"full":483,"on_shipper":82,"on_consignee":0,"shortage":0,"acc_shortage":0,"booking":56,"acc_booking":4946,"fulfillment":56,"acc_fulfillment":4946,"transfer_cost":0.0,"port_name":"Singapore","position":{"lat":1.29027,"lng":103.851959},"status":"surplus"},{"frame_index":157,"name":"ports_18","capacity":10000,"empty":560,"full":255,"on_shipper":29,"on_consignee":0,"shortage":0,"acc_shortage":0,"booking":20,"acc_booking":1874,"fulfillment":20,"acc_fulfillment":1874,"transfer_cost":0.0,"port_name":"Sydney","position":{"lat":-33.865143,"lng":151.2099},"status":"surplus"},{"frame_index":157,"name":"ports_19","capacity":10000,"empty":1010,"full":500,"on_shipper":62,"on_consignee":0,"shortage":0,"acc_shortage":0,"booking":27,"acc_booking":2510,"fulfillment":27,"acc_fulfillment":2510,"transfer_cost":0.0,"port_name":"Vancouver","position":{"lat":49.246292,"lng":-123.116226},"status":"surplus"},{"frame_index":157,"name":"ports_20","capacity":10000,"empty":1659,"full":830,"on_shipper":144,"on_consignee":0,"shortage":0,"acc_shortage":0,"booking":100,"acc_booking":8418,"fulfillment":100,"acc_fulfillment":8418,"transfer_cost":0.0,"port_name":"Yantian","position":{"lat":26.8533,"lng":119.8575},"status":"surplus"},{"frame_index":157,"name":"ports_21","capacity":10000,"empty":2652,"full":862,"on_shipper":162,"on_consignee":0,"shortage":0,"acc_shortage":0,"booking":99,"acc_booking":8044,"fulfillment":99,"acc_fulfillment":8044,"transfer_cost":0.0,"port_name":"Yokohama","position":{"lat":35.443707,"lng":139.638031},"status":"surplus"}]