[{"frame_index":203,"name":"ports_0","capacity":10000,"empty":2321,"full":2501,"on_shipper":121,"on_consignee":492,"shortage":0,"acc_shortage":0,"booking":92,"acc_booking":27238,"fulfillment":92,"acc_fulfillment":27238,"transfer_cost":0.0,"port_name":"Bremerhaven","position":{"lat":53.549999,"lng":8.583333},"status":"surplus"},{"frame_index":203,"name":"ports_1","capacity":10000,"empty":724,"full":152,"on_shipper":9,"on_consignee":0,"shortage":0,"acc_shortage":0,"booking":5,"acc_booking":1818,"fulfillment":5,"acc_fulfillment":1818,"transfer_cost":0.0,"port_name":"Durban","position":{"lat":-29.8579,"lng":31.0292},"status":"surplus"},{"frame_index":203,"name":"ports_2","capacity":10000,"empty":662,"full":113,"on_shipper":9,"on_consignee":0,"shortage":0,"acc_shortage":233,"booking":6,"acc_booking":1809,"fulfillment":6,"acc_fulfillment":1576,"transfer_cost":0.0,"port_name":"Itagual","position":{"lat":-22.85222,"lng":-43.77528},"status":"surplus"},{"frame_index":203,"name":"ports_3","capacity":10000,"empty":2677,"full":1775,"on_shipper":44,"on_consignee":0,"shortage":0,"acc_shortage":0,"booking":30,"acc_booking":10339,"fulfillment":30,"acc_fulfillment":10339,"transfer_cost":0.0,"port_name":"LeHavre","position":{"lat":49.490002,"lng":0.1},"status":"surplus"},{"frame_index":203,"name":"ports_4","capacity":10000,"empty":3129,"full":267,"on_shipper":32,"on_consignee":0,"shortage":0,"acc_shortage":0,"booking":26,"acc_booking":8637,"fulfillment":26,"acc_fulfillment":8637,"transfer_cost":0.0,"port_name":"Los Angeles","position":{"lat":34.052235,"lng":-118.243683},"status":"surplus"},{"frame_index":203,"name":"ports_5","capacity":10000,"empty":144,"full":117,"on_shipper":33,"on_consignee":0,"shortage":0,"acc_shortage":0,"booking":24,"acc_booking":8669,"fulfillment":24,"acc_fulfillment":8669,"transfer_cost":0.0,"port_name":"Manzanillo","position":{"lat":19.11695,"lng":-104.34214},"status":"balance"},{"frame_index":203,"name":"ports_6","capacity":10000,"empty":224,"full":307,"on_shipper":11,"on_consignee":0,"shortage":0,"acc_shortage":0,"booking":8,"acc_booking":2654,"fulfillment":8,"acc_fulfillment":2654,"transfer_cost":0.0,"port_name":"Melbourne","position":{"lat":-37.840935,"lng":144.946457},"status":"surplus"},{"frame_index":203,"name":"ports_7","capacity":10000,"empty":1996,"full":12,"on_shipper":8,"on_consignee":419,"shortage":0,"acc_shortage":0,"booking":8,"acc_booking":2654,"fulfillment":8,"acc_fulfillment":2654,"transfer_cost":0.0,"port_name":"Montreal","position":{"lat":45.516136,"lng":-73.65683},"status":"surplus"},{"frame_index":203,"name":"ports_8","capacity":10000,"empty":3111,"full":1321,"on_shipper":17,"on_consignee":0,"shortage":0,"acc_shortage":0,"booking":17,"acc_booking":5198,"fulfillment":17,"acc_fulfillment":5198,"transfer_cost":0.0,"port_name":"New York","position":{"lat":40.73061,"lng":-73.935242},"status":"surplus"},{"frame_index":203,"name":"ports_9","capacity":10000,"empty":1019,"full":163,"on_shipper":24,"on_consignee":0,"shortage":0,"acc_shortage":0,"booking":14,"acc_booking":5181,"fulfillment":14,"acc_fulfillment":5181,"transfer_cost":0.0,"port_name":"Oakland","position":{"lat":37.804363,"lng":-122.271111},"status":"surplus"},{"frame_index":203,"name":"ports_10","capacity":10000,"empty":545,"full":535,"on_shipper":13,"on_consignee":0,"shortage":0,"acc_shortage":0,"booking":8,"acc_booking":2639,"fulfillment":8,"acc_fulfillment":2639,"transfer_cost":0.0,"port_name":"Prince Rupert","position":{"lat":54.312519,"lng":-130.305405},"status":"surplus"},{"frame_index":203,"name":"ports_11","capacity":10000,"empty":1128,"full":1461,"on_shipper":43,"on_consignee":0,"shortage":0,"acc_shortage":0,"booking":29,"acc_booking":10312,"fulfillment":29,"acc_fulfillment":10312,"transfer_cost":0.0,"port_name":"Pusan","position":{"lat":35.166668,"lng":129.066666},"status":"surplus"},{"frame_index":203,"name":"ports_12","capacity":10000,"empty":820,"full":1586,"on_shipper":62,"on_consignee":783,"shortage":0,"acc_shortage":0,"booking":39,"acc_booking":13751,"fulfillment":39,"acc_fulfillment":13751,"transfer_cost":127.0,"port_name":"Qingdao","position":{"lat":36.066898,"lng":120.382698},"status":"surplus"},{"frame_index":203,"name":"ports_13","capacity":10000,"empty":388,"full":108,"on_shipper":8,"on_consignee":0,"shortage":0,"acc_shortage":55,"booking":6,"acc_booking":1805,"fulfillment":6,"acc_fulfillment":1750,"transfer_cost":0.0,"port_name":"San Antonio","position":{"lat":29.424349,"lng":-98.491142},"status":"surplus"},{"frame_index":203,"name":"ports_14","capacity":10000,"empty":0,"full":224,"on_shipper":0,"on_consignee":0,"shortage":6,"acc_shortage":648,"booking":6,"acc_booking":1824,"fulfillment":0,"acc_fulfillment":1176,"transfer_cost":0.0,"port_name":"Santos","position":{"lat":-23.96083,"lng":-46.33361},"status":"balance"},{"frame_index":203,"name":"ports_15","capacity":10000,"empty":2463,"full":357,"on_shipper":49,"on_consignee":0,"shortage":0,"acc_shortage":0,"booking":34,"acc_booking":12031,"fulfillment":34,"acc_fulfillment":12031,"transfer_cost":0.0,"port_name":"Seattle","position":{"lat":47.608013,"lng":-122.335167},"status":"surplus"},{"frame_index":203,"name":"ports_16","capacity":10000,"empty":935,"full":1641,"on_shipper":74,"on_consignee":85,"shortage":0,"acc_shortage":0,"booking":48,"acc_booking":17102,"fulfillment":48,"acc_fulfillment":17102,"transfer_cost":0.0,"port_name":"Shanghai","position":{"lat":31.224361,"lng":121.46917},"status":"surplus"},{"frame_index":203,"name":"ports_17","capacity":10000,"empty":202,"full":536,"on_shipper":24,"on_consignee":140,"shortage":0,"acc_shortage":40,"booking":21,"acc_booking":6934,"fulfillment":21,"acc_fulfillment":6894,"transfer_cost":0.0,"port_name":"Singapore","position":{"lat":1.29027,"lng":103.851959},"status":"surplus"},{"frame_index":203,"name":"ports_18","capacity":10000,"empty":44,"full":127,"on_shipper":11,"on_consignee":98,"shortage":0,"acc_shortage":0,"booking":8,"acc_booking":2626,"fulfillment":8,"acc_fulfillment":2626,"transfer_cost":0.0,"port_name":"Sydney","position":{"lat":-33.865143,"lng":151.2099},"status":"balance"},{"frame_index":203,"name":"ports_19","capacity":10000,"empty":893,"full":28,"on_shipper":14,"on_consignee":99,"shortage":0,"acc_shortage":0,"booking":10,"acc_booking":3519,"fulfillment":10,"acc_fulfillment":3519,"transfer_cost":0.0,"port_name":"Vancouver","position":{"lat":49.246292,"lng":-123.116226},"status":"surplus"},{"frame_index":203,"name":"ports_20","capacity":10000,"empty":1634,"full":553,"on_shipper":59,"on_consignee":0,"shortage":0,"acc_shortage":0,"booking":34,"acc_booking":11844,"fulfillment":34,"acc_fulfillment":11844,"transfer_cost":0.0,"port_name":"Yantian","position":{"lat":26.8533,"lng":119.8575},"status":"surplus"},{"frame_index":203,"name":"ports_21","capacity":10000,"empty":0,"full":3515,"on_shipper":0,"on_consignee":0,"shortage":33,"acc_shortage":447,"booking":33,"acc_booking":11512,"fulfillment":0,"acc_fulfillment":11065,"transfer_cost":0.0,"port_name":"Yokohama","position":{"lat":35.443707,"lng":139.638031},"status":"demand"}]