[{"frame_index":786,"name":"ports_0","capacity":10000,"empty":2267,"full":5028,"on_shipper":69,"on_consignee":0,"shortage":0,"acc_shortage":522,"booking":54,"acc_booking":100622,"fulfillment":54,"acc_fulfillment":100100,"transfer_cost":0.0,"port_name":"Bremerhaven","position":{"lat":53.549999,"lng":8.583333},"status":"surplus"},{"frame_index":786,"name":"ports_1","capacity":10000,"empty":182,"full":81,"on_shipper":5,"on_consignee":0,"shortage":0,"acc_shortage":10,"booking":3,"acc_booking":6686,"fulfillment":3,"acc_fulfillment":6676,"transfer_cost":0.0,"port_name":"Durban","position":{"lat":-29.8579,"lng":31.0292},"status":"surplus"},{"frame_index":786,"name":"ports_2","capacity":10000,"empty":519,"full":64,"on_shipper":5,"on_consignee":0,"shortage":0,"acc_shortage":298,"booking":4,"acc_booking":6664,"fulfillment":4,"acc_fulfillment":6366,"transfer_cost":0.0,"port_name":"Itagual","position":{"lat":-22.85222,"lng":-43.77528},"status":"surplus"},{"frame_index":786,"name":"ports_3","capacity":10000,"empty":1311,"full":2335,"on_shipper":28,"on_consignee":0,"shortage":0,"acc_shortage":0,"booking":18,"acc_booking":38086,"fulfillment":18,"acc_fulfillment":38086,"transfer_cost":0.0,"port_name":"LeHavre","position":{"lat":49.490002,"lng":0.1},"status":"surplus"},{"frame_index":786,"name":"ports_4","capacity":10000,"empty":1543,"full":275,"on_shipper":17,"on_consignee":0,"shortage":0,"acc_shortage":290,"booking":16,"acc_booking":31878,"fulfillment":16,"acc_fulfillment":31588,"transfer_cost":0.0,"port_name":"Los Angeles","position":{"lat":34.052235,"lng":-118.243683},"status":"surplus"},{"frame_index":786,"name":"ports_5","capacity":10000,"empty":1418,"full":987,"on_shipper":25,"on_consignee":0,"shortage":0,"acc_shortage":123,"booking":17,"acc_booking":31999,"fulfillment":17,"acc_fulfillment":31876,"transfer_cost":0.0,"port_name":"Manzanillo","position":{"lat":19.11695,"lng":-104.34214},"status":"surplus"},{"frame_index":786,"name":"ports_6","capacity":10000,"empty":297,"full":147,"on_shipper":7,"on_consignee":0,"shortage":0,"acc_shortage":1572,"booking":5,"acc_booking":9814,"fulfillment":5,"acc_fulfillment":8242,"transfer_cost":0.0,"port_name":"Melbourne","position":{"lat":-37.840935,"lng":144.946457},"status":"surplus"},{"frame_index":786,"name":"ports_7","capacity":10000,"empty":1018,"full":33,"on_shipper":7,"on_consignee":0,"shortage":0,"acc_shortage":0,"booking":5,"acc_booking":9823,"fulfillment":5,"acc_fulfillment":9823,"transfer_cost":0.0,"port_name":"Montreal","position":{"lat":45.516136,"lng":-73.65683},"status":"surplus"},{"frame_index":786,"name":"ports_8","capacity":10000,"empty":4085,"full":157,"on_shipper":15,"on_consignee":0,"shortage":0,"acc_shortage":136,"booking":10,"acc_booking":19190,"fulfillment":10,"acc_fulfillment":19054,"transfer_cost":0.0,"port_name":"New York","position":{"lat":40.73061,"lng":-73.935242},"status":"surplus"},{"frame_index":786,"name":"ports_9","capacity":10000,"empty":99,"full":842,"on_shipper":15,"on_consignee":0,"shortage":0,"acc_shortage":45,"booking":11,"acc_booking":19231,"fulfillment":11,"acc_fulfillment":19186,"transfer_cost":0.0,"port_name":"Oakland","position":{"lat":37.804363,"lng":-122.271111},"status":"balance"},{"frame_index":786,"name":"ports_10","capacity":10000,"empty":998,"full":212,"on_shipper":7,"on_consignee":0,"shortage":0,"acc_shortage":314,"booking":5,"acc_booking":9835,"fulfillment":5,"acc_fulfillment":9521,"transfer_cost":0.0,"port_name":"Prince Rupert","position":{"lat":54.312519,"lng":-130.305405},"status":"surplus"},{"frame_index":786,"name":"ports_11","capacity":10000,"empty":3168,"full":226,"on_shipper":23,"on_consignee":0,"shortage":0,"acc_shortage":204,"booking":18,"acc_booking":38036,"fulfillment":18,"acc_fulfillment":37832,"transfer_cost":0.0,"port_name":"Pusan","position":{"lat":35.166668,"lng":129.066666},"status":"surplus"},{"frame_index":786,"name":"ports_12","capacity":10000,"empty":2943,"full":1242,"on_shipper":37,"on_consignee":230,"shortage":0,"acc_shortage":0,"booking":24,"acc_booking":50833,"fulfillment":24,"acc_fulfillment":50833,"transfer_cost":0.0,"port_name":"Qingdao","position":{"lat":36.066898,"lng":120.382698},"status":"surplus"},{"frame_index":786,"name":"ports_13","capacity":10000,"empty":60,"full":19,"on_shipper":5,"on_consignee":0,"shortage":0,"acc_shortage":449,"booking":3,"acc_booking":6672,"fulfillment":3,"acc_fulfillment":6223,"transfer_cost":0.0,"port_name":"San Antonio","position":{"lat":29.424349,"lng":-98.491142},"status":"balance"},{"frame_index":786,"name":"ports_14","capacity":10000,"empty":265,"full":26,"on_shipper":4,"on_consignee":0,"shortage":0,"acc_shortage":762,"booking":3,"acc_booking":6711,"fulfillment":3,"acc_fulfillment":5949,"transfer_cost":0.0,"port_name":"Santos","position":{"lat":-23.96083,"lng":-46.33361},"status":"surplus"},{"frame_index":786,"name":"ports_15","capacity":10000,"empty":1399,"full":435,"on_shipper":38,"on_consignee":0,"shortage":0,"acc_shortage":0,"booking":22,"acc_booking":44423,"fulfillment":22,"acc_fulfillment":44423,"transfer_cost":0.0,"port_name":"Seattle","position":{"lat":47.608013,"lng":-122.335167},"status":"surplus"},{"frame_index":786,"name":"ports_16","capacity":10000,"empty":2210,"full":893,"on_shipper":49,"on_consignee":0,"shortage":0,"acc_shortage":760,"booking":34,"acc_booking":63213,"fulfillment":34,"acc_fulfillment":62453,"transfer_cost":0.0,"port_name":"Shanghai","position":{"lat":31.224361,"lng":121.46917},"status":"surplus"},{"frame_index":786,"name":"ports_17","capacity":10000,"empty":1558,"full":88,"on_shipper":17,"on_consignee":0,"shortage":0,"acc_shortage":283,"booking":12,"acc_booking":25590,"fulfillment":12,"acc_fulfillment":25307,"transfer_cost":0.0,"port_name":"Singapore","position":{"lat":1.29027,"lng":103.851959},"status":"surplus"},{"frame_index":786,"name":"ports_18","capacity":10000,"empty":0,"full":411,"on_shipper":0,"on_consignee":0,"shortage":5,"acc_shortage":1345,"booking":5,"acc_booking":9827,"fulfillment":0,"acc_fulfillment":8482,"transfer_cost":0.0,"port_name":"Sydney","position":{"lat":-33.865143,"lng":151.2099},"status":"balance"},{"frame_index":786,"name":"ports_19","capacity":10000,"empty":915,"full":444,"on_shipper":11,"on_consignee":0,"shortage":0,"acc_shortage":0,"booking":6,"acc_booking":13024,"fulfillment":6,"acc_fulfillment":13024,"transfer_cost":0.0,"port_name":"Vancouver","position":{"lat":49.246292,"lng":-123.116226},"status":"surplus"},{"frame_index":786,"name":"ports_20","capacity":10000,"empty":1035,"full":255,"on_shipper":36,"on_consignee":33,"shortage":0,"acc_shortage":942,"booking":23,"acc_booking":44122,"fulfillment":23,"acc_fulfillment":43180,"transfer_cost":0.0,"port_name":"Yantian","position":{"lat":26.8533,"lng":119.8575},"status":"surplus"},{"frame_index":786,"name":"ports_21","capacity":10000,"empty":0,"full":383,"on_shipper":0,"on_consignee":0,"shortage":15,"acc_shortage":6106,"booking":15,"acc_booking":42067,"fulfillment":0,"acc_fulfillment":35961,"transfer_cost":0.0,"port_name":"Yokohama","position":{"lat":35.443707,"lng":139.638031},"status":"demand"}]