[{"frame_index":628,"name":"ports_0","capacity":10000,"empty":3498,"full":3530,"on_shipper":251,"on_consignee":0,"shortage":0,"acc_shortage":522,"booking":226,"acc_booking":80998,"fulfillment":226,"acc_fulfillment":80476,"transfer_cost":0.0,"port_name":"Bremerhaven","position":{"lat":53.549999,"lng":8.583333},"status":"surplus"},{"frame_index":628,"name":"ports_1","capacity":10000,"empty":206,"full":374,"on_shipper":23,"on_consignee":0,"shortage":0,"acc_shortage":0,"booking":15,"acc_booking":5379,"fulfillment":15,"acc_fulfillment":5379,"transfer_cost":0.0,"port_name":"Durban","position":{"lat":-29.8579,"lng":31.0292},"status":"surplus"},{"frame_index":628,"name":"ports_2","capacity":10000,"empty":170,"full":54,"on_shipper":16,"on_consignee":0,"shortage":0,"acc_shortage":233,"booking":16,"acc_booking":5358,"fulfillment":16,"acc_fulfillment":5125,"transfer_cost":0.0,"port_name":"Itagual","position":{"lat":-22.85222,"lng":-43.77528},"status":"surplus"},{"frame_index":628,"name":"ports_3","capacity":10000,"empty":746,"full":1614,"on_shipper":128,"on_consignee":0,"shortage":0,"acc_shortage":0,"booking":89,"acc_booking":30642,"fulfillment":89,"acc_fulfillment":30642,"transfer_cost":0.0,"port_name":"LeHavre","position":{"lat":49.490002,"lng":0.1},"status":"surplus"},{"frame_index":628,"name":"ports_4","capacity":10000,"empty":389,"full":1437,"on_shipper":97,"on_consignee":0,"shortage":0,"acc_shortage":0,"booking":73,"acc_booking":25640,"fulfillment":73,"acc_fulfillment":25640,"transfer_cost":0.0,"port_name":"Los Angeles","position":{"lat":34.052235,"lng":-118.243683},"status":"balance"},{"frame_index":628,"name":"ports_5","capacity":10000,"empty":1767,"full":839,"on_shipper":89,"on_consignee":0,"shortage":0,"acc_shortage":123,"booking":76,"acc_booking":25680,"fulfillment":76,"acc_fulfillment":25557,"transfer_cost":0.0,"port_name":"Manzanillo","position":{"lat":19.11695,"lng":-104.34214},"status":"surplus"},{"frame_index":628,"name":"ports_6","capacity":10000,"empty":566,"full":24,"on_shipper":38,"on_consignee":0,"shortage":0,"acc_shortage":1336,"booking":22,"acc_booking":7889,"fulfillment":22,"acc_fulfillment":6553,"transfer_cost":0.0,"port_name":"Melbourne","position":{"lat":-37.840935,"lng":144.946457},"status":"surplus"},{"frame_index":628,"name":"ports_7","capacity":10000,"empty":1128,"full":361,"on_shipper":22,"on_consignee":0,"shortage":0,"acc_shortage":0,"booking":22,"acc_booking":7896,"fulfillment":22,"acc_fulfillment":7896,"transfer_cost":0.0,"port_name":"Montreal","position":{"lat":45.516136,"lng":-73.65683},"status":"surplus"},{"frame_index":628,"name":"ports_8","capacity":10000,"empty":1840,"full":1003,"on_shipper":79,"on_consignee":0,"shortage":0,"acc_shortage":0,"booking":47,"acc_booking":15436,"fulfillment":47,"acc_fulfillment":15436,"transfer_cost":0.0,"port_name":"New York","position":{"lat":40.73061,"lng":-73.935242},"status":"surplus"},{"frame_index":628,"name":"ports_9","capacity":10000,"empty":176,"full":1272,"on_shipper":57,"on_consignee":0,"shortage":0,"acc_shortage":45,"booking":41,"acc_booking":15503,"fulfillment":41,"acc_fulfillment":15458,"transfer_cost":0.0,"port_name":"Oakland","position":{"lat":37.804363,"lng":-122.271111},"status":"balance"},{"frame_index":628,"name":"ports_10","capacity":10000,"empty":1429,"full":346,"on_shipper":30,"on_consignee":0,"shortage":0,"acc_shortage":314,"booking":20,"acc_booking":7912,"fulfillment":20,"acc_fulfillment":7598,"transfer_cost":0.0,"port_name":"Prince Rupert","position":{"lat":54.312519,"lng":-130.305405},"status":"surplus"},{"frame_index":628,"name":"ports_11","capacity":10000,"empty":3285,"full":763,"on_shipper":121,"on_consignee":120,"shortage":0,"acc_shortage":204,"booking":91,"acc_booking":30587,"fulfillment":91,"acc_fulfillment":30383,"transfer_cost":13.0,"port_name":"Pusan","position":{"lat":35.166668,"lng":129.066666},"status":"surplus"},{"frame_index":628,"name":"ports_12","capacity":10000,"empty":2275,"full":1429,"on_shipper":201,"on_consignee":0,"shortage":0,"acc_shortage":0,"booking":129,"acc_booking":40846,"fulfillment":129,"acc_fulfillment":40846,"transfer_cost":0.0,"port_name":"Qingdao","position":{"lat":36.066898,"lng":120.382698},"status":"surplus"},{"frame_index":628,"name":"ports_13","capacity":10000,"empty":478,"full":37,"on_shipper":18,"on_consignee":0,"shortage":0,"acc_shortage":325,"booking":16,"acc_booking":5359,"fulfillment":16,"acc_fulfillment":5034,"transfer_cost":0.0,"port_name":"San Antonio","position":{"lat":29.424349,"lng":-98.491142},"status":"surplus"},{"frame_index":628,"name":"ports_14","capacity":10000,"empty":1023,"full":382,"on_shipper":25,"on_consignee":0,"shortage":0,"acc_shortage":762,"booking":13,"acc_booking":5403,"fulfillment":13,"acc_fulfillment":4641,"transfer_cost":0.0,"port_name":"Santos","position":{"lat":-23.96083,"lng":-46.33361},"status":"surplus"},{"frame_index":628,"name":"ports_15","capacity":10000,"empty":1663,"full":2798,"on_shipper":157,"on_consignee":0,"shortage":0,"acc_shortage":0,"booking":101,"acc_booking":35687,"fulfillment":101,"acc_fulfillment":35687,"transfer_cost":0.0,"port_name":"Seattle","position":{"lat":47.608013,"lng":-122.335167},"status":"surplus"},{"frame_index":628,"name":"ports_16","capacity":10000,"empty":358,"full":2047,"on_shipper":199,"on_consignee":12,"shortage":0,"acc_shortage":470,"booking":158,"acc_booking":50849,"fulfillment":158,"acc_fulfillment":50379,"transfer_cost":0.0,"port_name":"Shanghai","position":{"lat":31.224361,"lng":121.46917},"status":"demand"},{"frame_index":628,"name":"ports_17","capacity":10000,"empty":0,"full":567,"on_shipper":68,"on_consignee":0,"shortage":17,"acc_shortage":99,"booking":58,"acc_booking":20575,"fulfillment":41,"acc_fulfillment":20476,"transfer_cost":0.0,"port_name":"Singapore","position":{"lat":1.29027,"lng":103.851959},"status":"demand"},{"frame_index":628,"name":"ports_18","capacity":10000,"empty":261,"full":303,"on_shipper":35,"on_consignee":0,"shortage":0,"acc_shortage":957,"booking":24,"acc_booking":7868,"fulfillment":24,"acc_fulfillment":6911,"transfer_cost":0.0,"port_name":"Sydney","position":{"lat":-33.865143,"lng":151.2099},"status":"surplus"},{"frame_index":628,"name":"ports_19","capacity":10000,"empty":910,"full":446,"on_shipper":44,"on_consignee":0,"shortage":0,"acc_shortage":0,"booking":31,"acc_booking":10485,"fulfillment":31,"acc_fulfillment":10485,"transfer_cost":0.0,"port_name":"Vancouver","position":{"lat":49.246292,"lng":-123.116226},"status":"surplus"},{"frame_index":628,"name":"ports_20","capacity":10000,"empty":970,"full":995,"on_shipper":115,"on_consignee":23,"shortage":0,"acc_shortage":395,"booking":91,"acc_booking":35429,"fulfillment":91,"acc_fulfillment":35034,"transfer_cost":797.0,"port_name":"Yantian","position":{"lat":26.8533,"lng":119.8575},"status":"surplus"},{"frame_index":628,"name":"ports_21","capacity":10000,"empty":1019,"full":1433,"on_shipper":152,"on_consignee":0,"shortage":0,"acc_shortage":3563,"booking":107,"acc_booking":33884,"fulfillment":107,"acc_fulfillment":30321,"transfer_cost":0.0,"port_name":"Yokohama","position":{"lat":35.443707,"lng":139.638031},"status":"surplus"}]