[{"frame_index":259,"name":"ports_0","capacity":10000,"empty":4818,"full":1489,"on_shipper":158,"on_consignee":0,"shortage":0,"acc_shortage":0,"booking":99,"acc_booking":31621,"fulfillment":99,"acc_fulfillment":31621,"transfer_cost":0.0,"port_name":"Bremerhaven","position":{"lat":53.549999,"lng":8.583333},"status":"surplus"},{"frame_index":259,"name":"ports_1","capacity":10000,"empty":740,"full":188,"on_shipper":9,"on_consignee":0,"shortage":0,"acc_shortage":0,"booking":7,"acc_booking":2128,"fulfillment":7,"acc_fulfillment":2128,"transfer_cost":0.0,"port_name":"Durban","position":{"lat":-29.8579,"lng":31.0292},"status":"surplus"},{"frame_index":259,"name":"ports_2","capacity":10000,"empty":919,"full":21,"on_shipper":13,"on_consignee":0,"shortage":0,"acc_shortage":233,"booking":7,"acc_booking":2110,"fulfillment":7,"acc_fulfillment":1877,"transfer_cost":0.0,"port_name":"Itagual","position":{"lat":-22.85222,"lng":-43.77528},"status":"surplus"},{"frame_index":259,"name":"ports_3","capacity":10000,"empty":1773,"full":932,"on_shipper":50,"on_consignee":0,"shortage":0,"acc_shortage":0,"booking":38,"acc_booking":12017,"fulfillment":38,"acc_fulfillment":12017,"transfer_cost":0.0,"port_name":"LeHavre","position":{"lat":49.490002,"lng":0.1},"status":"surplus"},{"frame_index":259,"name":"ports_4","capacity":10000,"empty":462,"full":1508,"on_shipper":55,"on_consignee":0,"shortage":0,"acc_shortage":0,"booking":31,"acc_booking":10045,"fulfillment":31,"acc_fulfillment":10045,"transfer_cost":0.0,"port_name":"Los Angeles","position":{"lat":34.052235,"lng":-118.243683},"status":"surplus"},{"frame_index":259,"name":"ports_5","capacity":10000,"empty":991,"full":269,"on_shipper":54,"on_consignee":0,"shortage":0,"acc_shortage":0,"booking":33,"acc_booking":10066,"fulfillment":33,"acc_fulfillment":10066,"transfer_cost":0.0,"port_name":"Manzanillo","position":{"lat":19.11695,"lng":-104.34214},"status":"surplus"},{"frame_index":259,"name":"ports_6","capacity":10000,"empty":103,"full":276,"on_shipper":14,"on_consignee":0,"shortage":0,"acc_shortage":0,"booking":10,"acc_booking":3093,"fulfillment":10,"acc_fulfillment":3093,"transfer_cost":0.0,"port_name":"Melbourne","position":{"lat":-37.840935,"lng":144.946457},"status":"surplus"},{"frame_index":259,"name":"ports_7","capacity":10000,"empty":2224,"full":9,"on_shipper":20,"on_consignee":58,"shortage":0,"acc_shortage":0,"booking":10,"acc_booking":3098,"fulfillment":10,"acc_fulfillment":3098,"transfer_cost":0.0,"port_name":"Montreal","position":{"lat":45.516136,"lng":-73.65683},"status":"surplus"},{"frame_index":259,"name":"ports_8","capacity":10000,"empty":4412,"full":518,"on_shipper":30,"on_consignee":0,"shortage":0,"acc_shortage":0,"booking":20,"acc_booking":6049,"fulfillment":20,"acc_fulfillment":6049,"transfer_cost":0.0,"port_name":"New York","position":{"lat":40.73061,"lng":-73.935242},"status":"surplus"},{"frame_index":259,"name":"ports_9","capacity":10000,"empty":1179,"full":738,"on_shipper":34,"on_consignee":0,"shortage":0,"acc_shortage":0,"booking":18,"acc_booking":6022,"fulfillment":18,"acc_fulfillment":6022,"transfer_cost":0.0,"port_name":"Oakland","position":{"lat":37.804363,"lng":-122.271111},"status":"surplus"},{"frame_index":259,"name":"ports_10","capacity":10000,"empty":1507,"full":110,"on_shipper":12,"on_consignee":0,"shortage":0,"acc_shortage":0,"booking":9,"acc_booking":3082,"fulfillment":9,"acc_fulfillment":3082,"transfer_cost":0.0,"port_name":"Prince Rupert","position":{"lat":54.312519,"lng":-130.305405},"status":"surplus"},{"frame_index":259,"name":"ports_11","capacity":10000,"empty":1712,"full":781,"on_shipper":54,"on_consignee":0,"shortage":0,"acc_shortage":0,"booking":39,"acc_booking":11985,"fulfillment":39,"acc_fulfillment":11985,"transfer_cost":0.0,"port_name":"Pusan","position":{"lat":35.166668,"lng":129.066666},"status":"surplus"},{"frame_index":259,"name":"ports_12","capacity":10000,"empty":1001,"full":1427,"on_shipper":66,"on_consignee":0,"shortage":0,"acc_shortage":0,"booking":55,"acc_booking":15988,"fulfillment":55,"acc_fulfillment":15988,"transfer_cost":0.0,"port_name":"Qingdao","position":{"lat":36.066898,"lng":120.382698},"status":"surplus"},{"frame_index":259,"name":"ports_13","capacity":10000,"empty":505,"full":153,"on_shipper":8,"on_consignee":0,"shortage":0,"acc_shortage":55,"booking":7,"acc_booking":2108,"fulfillment":7,"acc_fulfillment":2053,"transfer_cost":0.0,"port_name":"San Antonio","position":{"lat":29.424349,"lng":-98.491142},"status":"surplus"},{"frame_index":259,"name":"ports_14","capacity":10000,"empty":1245,"full":35,"on_shipper":9,"on_consignee":0,"shortage":0,"acc_shortage":697,"booking":7,"acc_booking":2131,"fulfillment":7,"acc_fulfillment":1434,"transfer_cost":0.0,"port_name":"Santos","position":{"lat":-23.96083,"lng":-46.33361},"status":"surplus"},{"frame_index":259,"name":"ports_15","capacity":10000,"empty":4604,"full":691,"on_shipper":50,"on_consignee":0,"shortage":0,"acc_shortage":0,"booking":44,"acc_booking":13988,"fulfillment":44,"acc_fulfillment":13988,"transfer_cost":0.0,"port_name":"Seattle","position":{"lat":47.608013,"lng":-122.335167},"status":"surplus"},{"frame_index":259,"name":"ports_16","capacity":10000,"empty":3431,"full":453,"on_shipper":91,"on_consignee":435,"shortage":0,"acc_shortage":0,"booking":71,"acc_booking":19949,"fulfillment":71,"acc_fulfillment":19949,"transfer_cost":0.0,"port_name":"Shanghai","position":{"lat":31.224361,"lng":121.46917},"status":"surplus"},{"frame_index":259,"name":"ports_17","capacity":10000,"empty":2465,"full":219,"on_shipper":44,"on_consignee":0,"shortage":0,"acc_shortage":40,"booking":25,"acc_booking":8061,"fulfillment":25,"acc_fulfillment":8021,"transfer_cost":0.0,"port_name":"Singapore","position":{"lat":1.29027,"lng":103.851959},"status":"surplus"},{"frame_index":259,"name":"ports_18","capacity":10000,"empty":330,"full":85,"on_shipper":18,"on_consignee":0,"shortage":0,"acc_shortage":5,"booking":10,"acc_booking":3074,"fulfillment":10,"acc_fulfillment":3069,"transfer_cost":0.0,"port_name":"Sydney","position":{"lat":-33.865143,"lng":151.2099},"status":"surplus"},{"frame_index":259,"name":"ports_19","capacity":10000,"empty":949,"full":393,"on_shipper":21,"on_consignee":0,"shortage":0,"acc_shortage":0,"booking":13,"acc_booking":4111,"fulfillment":13,"acc_fulfillment":4111,"transfer_cost":0.0,"port_name":"Vancouver","position":{"lat":49.246292,"lng":-123.116226},"status":"surplus"},{"frame_index":259,"name":"ports_20","capacity":10000,"empty":2468,"full":1252,"on_shipper":69,"on_consignee":0,"shortage":0,"acc_shortage":0,"booking":43,"acc_booking":13806,"fulfillment":43,"acc_fulfillment":13806,"transfer_cost":0.0,"port_name":"Yantian","position":{"lat":26.8533,"lng":119.8575},"status":"surplus"},{"frame_index":259,"name":"ports_21","capacity":10000,"empty":1413,"full":719,"on_shipper":66,"on_consignee":0,"shortage":0,"acc_shortage":492,"booking":37,"acc_booking":13087,"fulfillment":37,"acc_fulfillment":12595,"transfer_cost":0.0,"port_name":"Yokohama","position":{"lat":35.443707,"lng":139.638031},"status":"surplus"}]