[{"frame_index":1100,"name":"ports_0","capacity":10000,"empty":0,"full":4034,"on_shipper":0,"on_consignee":0,"shortage":35,"acc_shortage":2631,"booking":35,"acc_booking":142616,"fulfillment":0,"acc_fulfillment":139985,"transfer_cost":0.0,"port_name":"Bremerhaven","position":{"lat":53.549999,"lng":8.583333},"status":"demand"},{"frame_index":1100,"name":"ports_1","capacity":10000,"empty":317,"full":229,"on_shipper":6,"on_consignee":0,"shortage":0,"acc_shortage":113,"booking":3,"acc_booking":9476,"fulfillment":3,"acc_fulfillment":9363,"transfer_cost":0.0,"port_name":"Durban","position":{"lat":-29.8579,"lng":31.0292},"status":"surplus"},{"frame_index":1100,"name":"ports_2","capacity":10000,"empty":718,"full":397,"on_shipper":5,"on_consignee":0,"shortage":0,"acc_shortage":298,"booking":3,"acc_booking":9439,"fulfillment":3,"acc_fulfillment":9141,"transfer_cost":0.0,"port_name":"Itagual","position":{"lat":-22.85222,"lng":-43.77528},"status":"surplus"},{"frame_index":1100,"name":"ports_3","capacity":10000,"empty":5316,"full":1255,"on_shipper":25,"on_consignee":198,"shortage":0,"acc_shortage":0,"booking":16,"acc_booking":53934,"fulfillment":16,"acc_fulfillment":53934,"transfer_cost":0.0,"port_name":"LeHavre","position":{"lat":49.490002,"lng":0.1},"status":"surplus"},{"frame_index":1100,"name":"ports_4","capacity":10000,"empty":363,"full":67,"on_shipper":17,"on_consignee":518,"shortage":0,"acc_shortage":290,"booking":13,"acc_booking":45170,"fulfillment":13,"acc_fulfillment":44880,"transfer_cost":1452.0,"port_name":"Los Angeles","position":{"lat":34.052235,"lng":-118.243683},"status":"surplus"},{"frame_index":1100,"name":"ports_5","capacity":10000,"empty":413,"full":726,"on_shipper":19,"on_consignee":0,"shortage":0,"acc_shortage":194,"booking":11,"acc_booking":45243,"fulfillment":11,"acc_fulfillment":45049,"transfer_cost":0.0,"port_name":"Manzanillo","position":{"lat":19.11695,"lng":-104.34214},"status":"surplus"},{"frame_index":1100,"name":"ports_6","capacity":10000,"empty":0,"full":318,"on_shipper":1,"on_consignee":274,"shortage":3,"acc_shortage":2377,"booking":4,"acc_booking":13906,"fulfillment":1,"acc_fulfillment":11529,"transfer_cost":0.0,"port_name":"Melbourne","position":{"lat":-37.840935,"lng":144.946457},"status":"balance"},{"frame_index":1100,"name":"ports_7","capacity":10000,"empty":1331,"full":164,"on_shipper":4,"on_consignee":0,"shortage":0,"acc_shortage":0,"booking":4,"acc_booking":13906,"fulfillment":4,"acc_fulfillment":13906,"transfer_cost":0.0,"port_name":"Montreal","position":{"lat":45.516136,"lng":-73.65683},"status":"surplus"},{"frame_index":1100,"name":"ports_8","capacity":10000,"empty":812,"full":0,"on_shipper":8,"on_consignee":2575,"shortage":0,"acc_shortage":136,"booking":8,"acc_booking":27201,"fulfillment":8,"acc_fulfillment":27065,"transfer_cost":3247.0,"port_name":"New York","position":{"lat":40.73061,"lng":-73.935242},"status":"surplus"},{"frame_index":1100,"name":"ports_9","capacity":10000,"empty":820,"full":1406,"on_shipper":12,"on_consignee":0,"shortage":0,"acc_shortage":45,"booking":9,"acc_booking":27254,"fulfillment":9,"acc_fulfillment":27209,"transfer_cost":0.0,"port_name":"Oakland","position":{"lat":37.804363,"lng":-122.271111},"status":"surplus"},{"frame_index":1100,"name":"ports_10","capacity":10000,"empty":1238,"full":455,"on_shipper":6,"on_consignee":0,"shortage":0,"acc_shortage":314,"booking":4,"acc_booking":13890,"fulfillment":4,"acc_fulfillment":13576,"transfer_cost":0.0,"port_name":"Prince Rupert","position":{"lat":54.312519,"lng":-130.305405},"status":"surplus"},{"frame_index":1100,"name":"ports_11","capacity":10000,"empty":1609,"full":1114,"on_shipper":28,"on_consignee":0,"shortage":0,"acc_shortage":204,"booking":16,"acc_booking":53899,"fulfillment":16,"acc_fulfillment":53695,"transfer_cost":0.0,"port_name":"Pusan","position":{"lat":35.166668,"lng":129.066666},"status":"surplus"},{"frame_index":1100,"name":"ports_12","capacity":10000,"empty":2569,"full":2043,"on_shipper":28,"on_consignee":0,"shortage":0,"acc_shortage":0,"booking":19,"acc_booking":71962,"fulfillment":19,"acc_fulfillment":71962,"transfer_cost":0.0,"port_name":"Qingdao","position":{"lat":36.066898,"lng":120.382698},"status":"surplus"},{"frame_index":1100,"name":"ports_13","capacity":10000,"empty":171,"full":379,"on_shipper":5,"on_consignee":0,"shortage":0,"acc_shortage":459,"booking":3,"acc_booking":9439,"fulfillment":3,"acc_fulfillment":8980,"transfer_cost":0.0,"port_name":"San Antonio","position":{"lat":29.424349,"lng":-98.491142},"status":"surplus"},{"frame_index":1100,"name":"ports_14","capacity":10000,"empty":128,"full":188,"on_shipper":6,"on_consignee":0,"shortage":0,"acc_shortage":1294,"booking":3,"acc_booking":9497,"fulfillment":3,"acc_fulfillment":8203,"transfer_cost":0.0,"port_name":"Santos","position":{"lat":-23.96083,"lng":-46.33361},"status":"surplus"},{"frame_index":1100,"name":"ports_15","capacity":10000,"empty":440,"full":2046,"on_shipper":31,"on_consignee":212,"shortage":0,"acc_shortage":1985,"booking":19,"acc_booking":62896,"fulfillment":19,"acc_fulfillment":60911,"transfer_cost":0.0,"port_name":"Seattle","position":{"lat":47.608013,"lng":-122.335167},"status":"surplus"},{"frame_index":1100,"name":"ports_16","capacity":10000,"empty":1660,"full":2139,"on_shipper":40,"on_consignee":0,"shortage":0,"acc_shortage":817,"booking":22,"acc_booking":89681,"fulfillment":22,"acc_fulfillment":88864,"transfer_cost":0.0,"port_name":"Shanghai","position":{"lat":31.224361,"lng":121.46917},"status":"surplus"},{"frame_index":1100,"name":"ports_17","capacity":10000,"empty":1185,"full":1065,"on_shipper":15,"on_consignee":2,"shortage":0,"acc_shortage":619,"booking":11,"acc_booking":36217,"fulfillment":11,"acc_fulfillment":35598,"transfer_cost":0.0,"port_name":"Singapore","position":{"lat":1.29027,"lng":103.851959},"status":"surplus"},{"frame_index":1100,"name":"ports_18","capacity":10000,"empty":462,"full":106,"on_shipper":4,"on_consignee":0,"shortage":0,"acc_shortage":1374,"booking":4,"acc_booking":13896,"fulfillment":4,"acc_fulfillment":12522,"transfer_cost":0.0,"port_name":"Sydney","position":{"lat":-33.865143,"lng":151.2099},"status":"surplus"},{"frame_index":1100,"name":"ports_19","capacity":10000,"empty":499,"full":986,"on_shipper":11,"on_consignee":0,"shortage":0,"acc_shortage":0,"booking":5,"acc_booking":18411,"fulfillment":5,"acc_fulfillment":18411,"transfer_cost":0.0,"port_name":"Vancouver","position":{"lat":49.246292,"lng":-123.116226},"status":"surplus"},{"frame_index":1100,"name":"ports_20","capacity":10000,"empty":1152,"full":1440,"on_shipper":25,"on_consignee":0,"shortage":0,"acc_shortage":2447,"booking":19,"acc_booking":62712,"fulfillment":19,"acc_fulfillment":60265,"transfer_cost":0.0,"port_name":"Yantian","position":{"lat":26.8533,"lng":119.8575},"status":"surplus"},{"frame_index":1100,"name":"ports_21","capacity":10000,"empty":785,"full":1247,"on_shipper":20,"on_consignee":0,"shortage":0,"acc_shortage":10285,"booking":12,"acc_booking":59727,"fulfillment":12,"acc_fulfillment":49442,"transfer_cost":0.0,"port_name":"Yokohama","position":{"lat":35.443707,"lng":139.638031},"status":"surplus"}]