[{"frame_index":327,"name":"ports_0","capacity":10000,"empty":3309,"full":2464,"on_shipper":82,"on_consignee":0,"shortage":0,"acc_shortage":522,"booking":63,"acc_booking":42225,"fulfillment":63,"acc_fulfillment":41703,"transfer_cost":0.0,"port_name":"Bremerhaven","position":{"lat":53.549999,"lng":8.583333},"status":"surplus"},{"frame_index":327,"name":"ports_1","capacity":10000,"empty":441,"full":227,"on_shipper":8,"on_consignee":0,"shortage":0,"acc_shortage":0,"booking":6,"acc_booking":2811,"fulfillment":6,"acc_fulfillment":2811,"transfer_cost":0.0,"port_name":"Durban","position":{"lat":-29.8579,"lng":31.0292},"status":"surplus"},{"frame_index":327,"name":"ports_2","capacity":10000,"empty":442,"full":522,"on_shipper":7,"on_consignee":0,"shortage":0,"acc_shortage":233,"booking":5,"acc_booking":2792,"fulfillment":5,"acc_fulfillment":2559,"transfer_cost":0.0,"port_name":"Itagual","position":{"lat":-22.85222,"lng":-43.77528},"status":"surplus"},{"frame_index":327,"name":"ports_3","capacity":10000,"empty":1513,"full":725,"on_shipper":31,"on_consignee":0,"shortage":0,"acc_shortage":0,"booking":29,"acc_booking":16014,"fulfillment":29,"acc_fulfillment":16014,"transfer_cost":0.0,"port_name":"LeHavre","position":{"lat":49.490002,"lng":0.1},"status":"surplus"},{"frame_index":327,"name":"ports_4","capacity":10000,"empty":1106,"full":1118,"on_shipper":32,"on_consignee":0,"shortage":0,"acc_shortage":0,"booking":25,"acc_booking":13376,"fulfillment":25,"acc_fulfillment":13376,"transfer_cost":0.0,"port_name":"Los Angeles","position":{"lat":34.052235,"lng":-118.243683},"status":"surplus"},{"frame_index":327,"name":"ports_5","capacity":10000,"empty":1756,"full":43,"on_shipper":25,"on_consignee":0,"shortage":0,"acc_shortage":123,"booking":21,"acc_booking":13408,"fulfillment":21,"acc_fulfillment":13285,"transfer_cost":0.0,"port_name":"Manzanillo","position":{"lat":19.11695,"lng":-104.34214},"status":"surplus"},{"frame_index":327,"name":"ports_6","capacity":10000,"empty":145,"full":138,"on_shipper":10,"on_consignee":0,"shortage":0,"acc_shortage":340,"booking":8,"acc_booking":4111,"fulfillment":8,"acc_fulfillment":3771,"transfer_cost":0.0,"port_name":"Melbourne","position":{"lat":-37.840935,"lng":144.946457},"status":"surplus"},{"frame_index":327,"name":"ports_7","capacity":10000,"empty":1763,"full":108,"on_shipper":12,"on_consignee":0,"shortage":0,"acc_shortage":0,"booking":8,"acc_booking":4118,"fulfillment":8,"acc_fulfillment":4118,"transfer_cost":0.0,"port_name":"Montreal","position":{"lat":45.516136,"lng":-73.65683},"status":"surplus"},{"frame_index":327,"name":"ports_8","capacity":10000,"empty":394,"full":885,"on_shipper":22,"on_consignee":0,"shortage":0,"acc_shortage":0,"booking":14,"acc_booking":8044,"fulfillment":14,"acc_fulfillment":8044,"transfer_cost":0.0,"port_name":"New York","position":{"lat":40.73061,"lng":-73.935242},"status":"surplus"},{"frame_index":327,"name":"ports_9","capacity":10000,"empty":937,"full":791,"on_shipper":17,"on_consignee":0,"shortage":0,"acc_shortage":0,"booking":14,"acc_booking":8009,"fulfillment":14,"acc_fulfillment":8009,"transfer_cost":0.0,"port_name":"Oakland","position":{"lat":37.804363,"lng":-122.271111},"status":"surplus"},{"frame_index":327,"name":"ports_10","capacity":10000,"empty":482,"full":1136,"on_shipper":11,"on_consignee":0,"shortage":0,"acc_shortage":0,"booking":9,"acc_booking":4107,"fulfillment":9,"acc_fulfillment":4107,"transfer_cost":0.0,"port_name":"Prince Rupert","position":{"lat":54.312519,"lng":-130.305405},"status":"surplus"},{"frame_index":327,"name":"ports_11","capacity":10000,"empty":1771,"full":470,"on_shipper":35,"on_consignee":0,"shortage":0,"acc_shortage":0,"booking":28,"acc_booking":15956,"fulfillment":28,"acc_fulfillment":15956,"transfer_cost":0.0,"port_name":"Pusan","position":{"lat":35.166668,"lng":129.066666},"status":"surplus"},{"frame_index":327,"name":"ports_12","capacity":10000,"empty":2204,"full":1043,"on_shipper":45,"on_consignee":0,"shortage":0,"acc_shortage":0,"booking":34,"acc_booking":21321,"fulfillment":34,"acc_fulfillment":21321,"transfer_cost":0.0,"port_name":"Qingdao","position":{"lat":36.066898,"lng":120.382698},"status":"surplus"},{"frame_index":327,"name":"ports_13","capacity":10000,"empty":669,"full":104,"on_shipper":6,"on_consignee":0,"shortage":0,"acc_shortage":123,"booking":5,"acc_booking":2791,"fulfillment":5,"acc_fulfillment":2668,"transfer_cost":0.0,"port_name":"San Antonio","position":{"lat":29.424349,"lng":-98.491142},"status":"surplus"},{"frame_index":327,"name":"ports_14","capacity":10000,"empty":707,"full":76,"on_shipper":7,"on_consignee":0,"shortage":0,"acc_shortage":697,"booking":5,"acc_booking":2843,"fulfillment":5,"acc_fulfillment":2146,"transfer_cost":0.0,"port_name":"Santos","position":{"lat":-23.96083,"lng":-46.33361},"status":"surplus"},{"frame_index":327,"name":"ports_15","capacity":10000,"empty":4683,"full":351,"on_shipper":47,"on_consignee":0,"shortage":0,"acc_shortage":0,"booking":34,"acc_booking":18610,"fulfillment":34,"acc_fulfillment":18610,"transfer_cost":0.0,"port_name":"Seattle","position":{"lat":47.608013,"lng":-122.335167},"status":"surplus"},{"frame_index":327,"name":"ports_16","capacity":10000,"empty":988,"full":834,"on_shipper":58,"on_consignee":0,"shortage":0,"acc_shortage":0,"booking":52,"acc_booking":26576,"fulfillment":52,"acc_fulfillment":26576,"transfer_cost":0.0,"port_name":"Shanghai","position":{"lat":31.224361,"lng":121.46917},"status":"surplus"},{"frame_index":327,"name":"ports_17","capacity":10000,"empty":2323,"full":606,"on_shipper":25,"on_consignee":0,"shortage":0,"acc_shortage":40,"booking":20,"acc_booking":10729,"fulfillment":20,"acc_fulfillment":10689,"transfer_cost":0.0,"port_name":"Singapore","position":{"lat":1.29027,"lng":103.851959},"status":"surplus"},{"frame_index":327,"name":"ports_18","capacity":10000,"empty":317,"full":55,"on_shipper":8,"on_consignee":0,"shortage":0,"acc_shortage":377,"booking":8,"acc_booking":4085,"fulfillment":8,"acc_fulfillment":3708,"transfer_cost":0.0,"port_name":"Sydney","position":{"lat":-33.865143,"lng":151.2099},"status":"surplus"},{"frame_index":327,"name":"ports_19","capacity":10000,"empty":257,"full":546,"on_shipper":16,"on_consignee":0,"shortage":0,"acc_shortage":0,"booking":11,"acc_booking":5467,"fulfillment":11,"acc_fulfillment":5467,"transfer_cost":0.0,"port_name":"Vancouver","position":{"lat":49.246292,"lng":-123.116226},"status":"surplus"},{"frame_index":327,"name":"ports_20","capacity":10000,"empty":686,"full":563,"on_shipper":41,"on_consignee":0,"shortage":0,"acc_shortage":0,"booking":35,"acc_booking":18414,"fulfillment":35,"acc_fulfillment":18414,"transfer_cost":0.0,"port_name":"Yantian","position":{"lat":26.8533,"lng":119.8575},"status":"surplus"},{"frame_index":327,"name":"ports_21","capacity":10000,"empty":1327,"full":1659,"on_shipper":29,"on_consignee":0,"shortage":0,"acc_shortage":1887,"booking":27,"acc_booking":17650,"fulfillment":27,"acc_fulfillment":15763,"transfer_cost":0.0,"port_name":"Yokohama","position":{"lat":35.443707,"lng":139.638031},"status":"surplus"}]