[{"frame_index":711,"name":"ports_0","capacity":10000,"empty":4442,"full":2155,"on_shipper":291,"on_consignee":0,"shortage":0,"acc_shortage":522,"booking":184,"acc_booking":89715,"fulfillment":184,"acc_fulfillment":89193,"transfer_cost":0.0,"port_name":"Bremerhaven","position":{"lat":53.549999,"lng":8.583333},"status":"surplus"},{"frame_index":711,"name":"ports_1","capacity":10000,"empty":411,"full":18,"on_shipper":12,"on_consignee":0,"shortage":0,"acc_shortage":0,"booking":10,"acc_booking":5963,"fulfillment":10,"acc_fulfillment":5963,"transfer_cost":0.0,"port_name":"Durban","position":{"lat":-29.8579,"lng":31.0292},"status":"surplus"},{"frame_index":711,"name":"ports_2","capacity":10000,"empty":183,"full":337,"on_shipper":15,"on_consignee":0,"shortage":0,"acc_shortage":298,"booking":11,"acc_booking":5945,"fulfillment":11,"acc_fulfillment":5647,"transfer_cost":0.0,"port_name":"Itagual","position":{"lat":-22.85222,"lng":-43.77528},"status":"surplus"},{"frame_index":711,"name":"ports_3","capacity":10000,"empty":3168,"full":605,"on_shipper":100,"on_consignee":0,"shortage":0,"acc_shortage":0,"booking":69,"acc_booking":33940,"fulfillment":69,"acc_fulfillment":33940,"transfer_cost":0.0,"port_name":"LeHavre","position":{"lat":49.490002,"lng":0.1},"status":"surplus"},{"frame_index":711,"name":"ports_4","capacity":10000,"empty":942,"full":656,"on_shipper":80,"on_consignee":0,"shortage":0,"acc_shortage":150,"booking":57,"acc_booking":28407,"fulfillment":57,"acc_fulfillment":28257,"transfer_cost":0.0,"port_name":"Los Angeles","position":{"lat":34.052235,"lng":-118.243683},"status":"surplus"},{"frame_index":711,"name":"ports_5","capacity":10000,"empty":2424,"full":682,"on_shipper":66,"on_consignee":0,"shortage":0,"acc_shortage":123,"booking":54,"acc_booking":28473,"fulfillment":54,"acc_fulfillment":28350,"transfer_cost":0.0,"port_name":"Manzanillo","position":{"lat":19.11695,"lng":-104.34214},"status":"surplus"},{"frame_index":711,"name":"ports_6","capacity":10000,"empty":442,"full":187,"on_shipper":20,"on_consignee":0,"shortage":0,"acc_shortage":1336,"booking":17,"acc_booking":8747,"fulfillment":17,"acc_fulfillment":7411,"transfer_cost":0.0,"port_name":"Melbourne","position":{"lat":-37.840935,"lng":144.946457},"status":"surplus"},{"frame_index":711,"name":"ports_7","capacity":10000,"empty":1158,"full":25,"on_shipper":24,"on_consignee":0,"shortage":0,"acc_shortage":0,"booking":17,"acc_booking":8753,"fulfillment":17,"acc_fulfillment":8753,"transfer_cost":0.0,"port_name":"Montreal","position":{"lat":45.516136,"lng":-73.65683},"status":"surplus"},{"frame_index":711,"name":"ports_8","capacity":10000,"empty":4196,"full":766,"on_shipper":34,"on_consignee":0,"shortage":0,"acc_shortage":0,"booking":34,"acc_booking":17097,"fulfillment":34,"acc_fulfillment":17097,"transfer_cost":0.0,"port_name":"New York","position":{"lat":40.73061,"lng":-73.935242},"status":"surplus"},{"frame_index":711,"name":"ports_9","capacity":10000,"empty":1351,"full":398,"on_shipper":44,"on_consignee":0,"shortage":0,"acc_shortage":45,"booking":32,"acc_booking":17157,"fulfillment":32,"acc_fulfillment":17112,"transfer_cost":0.0,"port_name":"Oakland","position":{"lat":37.804363,"lng":-122.271111},"status":"surplus"},{"frame_index":711,"name":"ports_10","capacity":10000,"empty":1648,"full":170,"on_shipper":27,"on_consignee":0,"shortage":0,"acc_shortage":314,"booking":20,"acc_booking":8763,"fulfillment":20,"acc_fulfillment":8449,"transfer_cost":0.0,"port_name":"Prince Rupert","position":{"lat":54.312519,"lng":-130.305405},"status":"surplus"},{"frame_index":711,"name":"ports_11","capacity":10000,"empty":2929,"full":1866,"on_shipper":101,"on_consignee":0,"shortage":0,"acc_shortage":204,"booking":69,"acc_booking":33907,"fulfillment":69,"acc_fulfillment":33703,"transfer_cost":0.0,"port_name":"Pusan","position":{"lat":35.166668,"lng":129.066666},"status":"surplus"},{"frame_index":711,"name":"ports_12","capacity":10000,"empty":2450,"full":2031,"on_shipper":115,"on_consignee":0,"shortage":0,"acc_shortage":0,"booking":87,"acc_booking":45248,"fulfillment":87,"acc_fulfillment":45248,"transfer_cost":0.0,"port_name":"Qingdao","position":{"lat":36.066898,"lng":120.382698},"status":"surplus"},{"frame_index":711,"name":"ports_13","capacity":10000,"empty":577,"full":20,"on_shipper":20,"on_consignee":0,"shortage":0,"acc_shortage":325,"booking":11,"acc_booking":5947,"fulfillment":11,"acc_fulfillment":5622,"transfer_cost":0.0,"port_name":"San Antonio","position":{"lat":29.424349,"lng":-98.491142},"status":"surplus"},{"frame_index":711,"name":"ports_14","capacity":10000,"empty":821,"full":73,"on_shipper":14,"on_consignee":0,"shortage":0,"acc_shortage":762,"booking":10,"acc_booking":5984,"fulfillment":10,"acc_fulfillment":5222,"transfer_cost":0.0,"port_name":"Santos","position":{"lat":-23.96083,"lng":-46.33361},"status":"surplus"},{"frame_index":711,"name":"ports_15","capacity":10000,"empty":2945,"full":1247,"on_shipper":91,"on_consignee":0,"shortage":0,"acc_shortage":0,"booking":79,"acc_booking":39539,"fulfillment":79,"acc_fulfillment":39539,"transfer_cost":0.0,"port_name":"Seattle","position":{"lat":47.608013,"lng":-122.335167},"status":"surplus"},{"frame_index":711,"name":"ports_16","capacity":10000,"empty":1852,"full":1913,"on_shipper":170,"on_consignee":0,"shortage":0,"acc_shortage":712,"booking":129,"acc_booking":56336,"fulfillment":129,"acc_fulfillment":55624,"transfer_cost":0.0,"port_name":"Shanghai","position":{"lat":31.224361,"lng":121.46917},"status":"surplus"},{"frame_index":711,"name":"ports_17","capacity":10000,"empty":3342,"full":158,"on_shipper":71,"on_consignee":0,"shortage":0,"acc_shortage":283,"booking":44,"acc_booking":22804,"fulfillment":44,"acc_fulfillment":22521,"transfer_cost":0.0,"port_name":"Singapore","position":{"lat":1.29027,"lng":103.851959},"status":"surplus"},{"frame_index":711,"name":"ports_18","capacity":10000,"empty":99,"full":151,"on_shipper":23,"on_consignee":209,"shortage":0,"acc_shortage":1082,"booking":18,"acc_booking":8726,"fulfillment":18,"acc_fulfillment":7644,"transfer_cost":0.0,"port_name":"Sydney","position":{"lat":-33.865143,"lng":151.2099},"status":"balance"},{"frame_index":711,"name":"ports_19","capacity":10000,"empty":1191,"full":268,"on_shipper":39,"on_consignee":0,"shortage":0,"acc_shortage":0,"booking":23,"acc_booking":11614,"fulfillment":23,"acc_fulfillment":11614,"transfer_cost":0.0,"port_name":"Vancouver","position":{"lat":49.246292,"lng":-123.116226},"status":"surplus"},{"frame_index":711,"name":"ports_20","capacity":10000,"empty":437,"full":1266,"on_shipper":110,"on_consignee":5,"shortage":0,"acc_shortage":395,"booking":76,"acc_booking":39293,"fulfillment":76,"acc_fulfillment":38898,"transfer_cost":1.0,"port_name":"Yantian","position":{"lat":26.8533,"lng":119.8575},"status":"surplus"},{"frame_index":711,"name":"ports_21","capacity":10000,"empty":1168,"full":236,"on_shipper":112,"on_consignee":0,"shortage":0,"acc_shortage":4175,"booking":79,"acc_booking":37357,"fulfillment":79,"acc_fulfillment":33182,"transfer_cost":0.0,"port_name":"Yokohama","position":{"lat":35.443707,"lng":139.638031},"status":"surplus"}]