[{"frame_index":736,"name":"ports_0","capacity":10000,"empty":4685,"full":1740,"on_shipper":113,"on_consignee":99,"shortage":0,"acc_shortage":522,"booking":73,"acc_booking":94564,"fulfillment":73,"acc_fulfillment":94042,"transfer_cost":0.0,"port_name":"Bremerhaven","position":{"lat":53.549999,"lng":8.583333},"status":"surplus"},{"frame_index":736,"name":"ports_1","capacity":10000,"empty":85,"full":349,"on_shipper":7,"on_consignee":0,"shortage":0,"acc_shortage":0,"booking":5,"acc_booking":6289,"fulfillment":5,"acc_fulfillment":6289,"transfer_cost":0.0,"port_name":"Durban","position":{"lat":-29.8579,"lng":31.0292},"status":"surplus"},{"frame_index":736,"name":"ports_2","capacity":10000,"empty":623,"full":65,"on_shipper":9,"on_consignee":0,"shortage":0,"acc_shortage":298,"booking":5,"acc_booking":6266,"fulfillment":5,"acc_fulfillment":5968,"transfer_cost":0.0,"port_name":"Itagual","position":{"lat":-22.85222,"lng":-43.77528},"status":"surplus"},{"frame_index":736,"name":"ports_3","capacity":10000,"empty":1690,"full":1983,"on_shipper":54,"on_consignee":0,"shortage":0,"acc_shortage":0,"booking":28,"acc_booking":35835,"fulfillment":28,"acc_fulfillment":35835,"transfer_cost":0.0,"port_name":"LeHavre","position":{"lat":49.490002,"lng":0.1},"status":"surplus"},{"frame_index":736,"name":"ports_4","capacity":10000,"empty":93,"full":240,"on_shipper":23,"on_consignee":2134,"shortage":0,"acc_shortage":290,"booking":23,"acc_booking":29991,"fulfillment":23,"acc_fulfillment":29701,"transfer_cost":0.0,"port_name":"Los Angeles","position":{"lat":34.052235,"lng":-118.243683},"status":"balance"},{"frame_index":736,"name":"ports_5","capacity":10000,"empty":1056,"full":890,"on_shipper":32,"on_consignee":0,"shortage":0,"acc_shortage":123,"booking":21,"acc_booking":30084,"fulfillment":21,"acc_fulfillment":29961,"transfer_cost":0.0,"port_name":"Manzanillo","position":{"lat":19.11695,"lng":-104.34214},"status":"surplus"},{"frame_index":736,"name":"ports_6","capacity":10000,"empty":0,"full":649,"on_shipper":0,"on_consignee":0,"shortage":7,"acc_shortage":1379,"booking":7,"acc_booking":9232,"fulfillment":0,"acc_fulfillment":7853,"transfer_cost":0.0,"port_name":"Melbourne","position":{"lat":-37.840935,"lng":144.946457},"status":"balance"},{"frame_index":736,"name":"ports_7","capacity":10000,"empty":510,"full":238,"on_shipper":16,"on_consignee":0,"shortage":0,"acc_shortage":0,"booking":7,"acc_booking":9240,"fulfillment":7,"acc_fulfillment":9240,"transfer_cost":0.0,"port_name":"Montreal","position":{"lat":45.516136,"lng":-73.65683},"status":"surplus"},{"frame_index":736,"name":"ports_8","capacity":10000,"empty":837,"full":221,"on_shipper":22,"on_consignee":0,"shortage":0,"acc_shortage":0,"booking":14,"acc_booking":18045,"fulfillment":14,"acc_fulfillment":18045,"transfer_cost":0.0,"port_name":"New York","position":{"lat":40.73061,"lng":-73.935242},"status":"surplus"},{"frame_index":736,"name":"ports_9","capacity":10000,"empty":614,"full":763,"on_shipper":20,"on_consignee":0,"shortage":0,"acc_shortage":45,"booking":16,"acc_booking":18095,"fulfillment":16,"acc_fulfillment":18050,"transfer_cost":0.0,"port_name":"Oakland","position":{"lat":37.804363,"lng":-122.271111},"status":"surplus"},{"frame_index":736,"name":"ports_10","capacity":10000,"empty":1167,"full":669,"on_shipper":9,"on_consignee":0,"shortage":0,"acc_shortage":314,"booking":8,"acc_booking":9244,"fulfillment":8,"acc_fulfillment":8930,"transfer_cost":0.0,"port_name":"Prince Rupert","position":{"lat":54.312519,"lng":-130.305405},"status":"surplus"},{"frame_index":736,"name":"ports_11","capacity":10000,"empty":1565,"full":3047,"on_shipper":42,"on_consignee":0,"shortage":0,"acc_shortage":204,"booking":26,"acc_booking":35776,"fulfillment":26,"acc_fulfillment":35572,"transfer_cost":0.0,"port_name":"Pusan","position":{"lat":35.166668,"lng":129.066666},"status":"surplus"},{"frame_index":736,"name":"ports_12","capacity":10000,"empty":2462,"full":1407,"on_shipper":61,"on_consignee":0,"shortage":0,"acc_shortage":0,"booking":40,"acc_booking":47800,"fulfillment":40,"acc_fulfillment":47800,"transfer_cost":0.0,"port_name":"Qingdao","position":{"lat":36.066898,"lng":120.382698},"status":"surplus"},{"frame_index":736,"name":"ports_13","capacity":10000,"empty":243,"full":366,"on_shipper":8,"on_consignee":0,"shortage":0,"acc_shortage":325,"booking":5,"acc_booking":6281,"fulfillment":5,"acc_fulfillment":5956,"transfer_cost":0.0,"port_name":"San Antonio","position":{"lat":29.424349,"lng":-98.491142},"status":"surplus"},{"frame_index":736,"name":"ports_14","capacity":10000,"empty":490,"full":410,"on_shipper":8,"on_consignee":0,"shortage":0,"acc_shortage":762,"booking":4,"acc_booking":6315,"fulfillment":4,"acc_fulfillment":5553,"transfer_cost":0.0,"port_name":"Santos","position":{"lat":-23.96083,"lng":-46.33361},"status":"surplus"},{"frame_index":736,"name":"ports_15","capacity":10000,"empty":1590,"full":2383,"on_shipper":66,"on_consignee":0,"shortage":0,"acc_shortage":0,"booking":33,"acc_booking":41782,"fulfillment":33,"acc_fulfillment":41782,"transfer_cost":0.0,"port_name":"Seattle","position":{"lat":47.608013,"lng":-122.335167},"status":"surplus"},{"frame_index":736,"name":"ports_16","capacity":10000,"empty":416,"full":3264,"on_shipper":87,"on_consignee":0,"shortage":0,"acc_shortage":712,"booking":48,"acc_booking":59551,"fulfillment":48,"acc_fulfillment":58839,"transfer_cost":0.0,"port_name":"Shanghai","position":{"lat":31.224361,"lng":121.46917},"status":"surplus"},{"frame_index":736,"name":"ports_17","capacity":10000,"empty":2440,"full":770,"on_shipper":38,"on_consignee":151,"shortage":0,"acc_shortage":283,"booking":18,"acc_booking":24079,"fulfillment":18,"acc_fulfillment":23796,"transfer_cost":0.0,"port_name":"Singapore","position":{"lat":1.29027,"lng":103.851959},"status":"surplus"},{"frame_index":736,"name":"ports_18","capacity":10000,"empty":0,"full":257,"on_shipper":0,"on_consignee":0,"shortage":7,"acc_shortage":1184,"booking":7,"acc_booking":9229,"fulfillment":0,"acc_fulfillment":8045,"transfer_cost":0.0,"port_name":"Sydney","position":{"lat":-33.865143,"lng":151.2099},"status":"balance"},{"frame_index":736,"name":"ports_19","capacity":10000,"empty":744,"full":635,"on_shipper":14,"on_consignee":0,"shortage":0,"acc_shortage":0,"booking":10,"acc_booking":12243,"fulfillment":10,"acc_fulfillment":12243,"transfer_cost":0.0,"port_name":"Vancouver","position":{"lat":49.246292,"lng":-123.116226},"status":"surplus"},{"frame_index":736,"name":"ports_20","capacity":10000,"empty":1043,"full":1912,"on_shipper":48,"on_consignee":0,"shortage":0,"acc_shortage":942,"booking":30,"acc_booking":41530,"fulfillment":30,"acc_fulfillment":40588,"transfer_cost":0.0,"port_name":"Yantian","position":{"lat":26.8533,"lng":119.8575},"status":"surplus"},{"frame_index":736,"name":"ports_21","capacity":10000,"empty":0,"full":746,"on_shipper":0,"on_consignee":0,"shortage":26,"acc_shortage":4963,"booking":26,"acc_booking":39607,"fulfillment":0,"acc_fulfillment":34644,"transfer_cost":0.0,"port_name":"Yokohama","position":{"lat":35.443707,"lng":139.638031},"status":"demand"}]