[{"frame_index":1094,"name":"ports_0","capacity":10000,"empty":0,"full":4034,"on_shipper":0,"on_consignee":0,"shortage":152,"acc_shortage":2069,"booking":152,"acc_booking":142054,"fulfillment":0,"acc_fulfillment":139985,"transfer_cost":0.0,"port_name":"Bremerhaven","position":{"lat":53.549999,"lng":8.583333},"status":"demand"},{"frame_index":1094,"name":"ports_1","capacity":10000,"empty":94,"full":513,"on_shipper":17,"on_consignee":0,"shortage":0,"acc_shortage":113,"booking":11,"acc_booking":9437,"fulfillment":11,"acc_fulfillment":9324,"transfer_cost":0.0,"port_name":"Durban","position":{"lat":-29.8579,"lng":31.0292},"status":"balance"},{"frame_index":1094,"name":"ports_2","capacity":10000,"empty":756,"full":347,"on_shipper":17,"on_consignee":0,"shortage":0,"acc_shortage":298,"booking":11,"acc_booking":9401,"fulfillment":11,"acc_fulfillment":9103,"transfer_cost":0.0,"port_name":"Itagual","position":{"lat":-22.85222,"lng":-43.77528},"status":"surplus"},{"frame_index":1094,"name":"ports_3","capacity":10000,"empty":3430,"full":2381,"on_shipper":90,"on_consignee":0,"shortage":0,"acc_shortage":0,"booking":59,"acc_booking":53713,"fulfillment":59,"acc_fulfillment":53713,"transfer_cost":0.0,"port_name":"LeHavre","position":{"lat":49.490002,"lng":0.1},"status":"surplus"},{"frame_index":1094,"name":"ports_4","capacity":10000,"empty":1949,"full":144,"on_shipper":80,"on_consignee":52,"shortage":0,"acc_shortage":290,"booking":50,"acc_booking":44984,"fulfillment":50,"acc_fulfillment":44694,"transfer_cost":0.0,"port_name":"Los Angeles","position":{"lat":34.052235,"lng":-118.243683},"status":"surplus"},{"frame_index":1094,"name":"ports_5","capacity":10000,"empty":714,"full":943,"on_shipper":67,"on_consignee":0,"shortage":0,"acc_shortage":194,"booking":56,"acc_booking":45060,"fulfillment":56,"acc_fulfillment":44866,"transfer_cost":0.0,"port_name":"Manzanillo","position":{"lat":19.11695,"lng":-104.34214},"status":"surplus"},{"frame_index":1094,"name":"ports_6","capacity":10000,"empty":0,"full":608,"on_shipper":0,"on_consignee":0,"shortage":15,"acc_shortage":2320,"booking":15,"acc_booking":13848,"fulfillment":0,"acc_fulfillment":11528,"transfer_cost":0.0,"port_name":"Melbourne","position":{"lat":-37.840935,"lng":144.946457},"status":"demand"},{"frame_index":1094,"name":"ports_7","capacity":10000,"empty":1389,"full":82,"on_shipper":28,"on_consignee":0,"shortage":0,"acc_shortage":0,"booking":15,"acc_booking":13848,"fulfillment":15,"acc_fulfillment":13848,"transfer_cost":0.0,"port_name":"Montreal","position":{"lat":45.516136,"lng":-73.65683},"status":"surplus"},{"frame_index":1094,"name":"ports_8","capacity":10000,"empty":4172,"full":190,"on_shipper":43,"on_consignee":0,"shortage":0,"acc_shortage":136,"booking":31,"acc_booking":27088,"fulfillment":31,"acc_fulfillment":26952,"transfer_cost":0.0,"port_name":"New York","position":{"lat":40.73061,"lng":-73.935242},"status":"surplus"},{"frame_index":1094,"name":"ports_9","capacity":10000,"empty":932,"full":1256,"on_shipper":50,"on_consignee":0,"shortage":0,"acc_shortage":45,"booking":32,"acc_booking":27142,"fulfillment":32,"acc_fulfillment":27097,"transfer_cost":0.0,"port_name":"Oakland","position":{"lat":37.804363,"lng":-122.271111},"status":"surplus"},{"frame_index":1094,"name":"ports_10","capacity":10000,"empty":1290,"full":387,"on_shipper":22,"on_consignee":0,"shortage":0,"acc_shortage":314,"booking":15,"acc_booking":13838,"fulfillment":15,"acc_fulfillment":13524,"transfer_cost":0.0,"port_name":"Prince Rupert","position":{"lat":54.312519,"lng":-130.305405},"status":"surplus"},{"frame_index":1094,"name":"ports_11","capacity":10000,"empty":1612,"full":948,"on_shipper":81,"on_consignee":182,"shortage":0,"acc_shortage":204,"booking":58,"acc_booking":53682,"fulfillment":58,"acc_fulfillment":53478,"transfer_cost":0.0,"port_name":"Pusan","position":{"lat":35.166668,"lng":129.066666},"status":"surplus"},{"frame_index":1094,"name":"ports_12","capacity":10000,"empty":2391,"full":1979,"on_shipper":87,"on_consignee":0,"shortage":0,"acc_shortage":0,"booking":72,"acc_booking":71665,"fulfillment":72,"acc_fulfillment":71665,"transfer_cost":0.0,"port_name":"Qingdao","position":{"lat":36.066898,"lng":120.382698},"status":"surplus"},{"frame_index":1094,"name":"ports_13","capacity":10000,"empty":211,"full":329,"on_shipper":15,"on_consignee":0,"shortage":0,"acc_shortage":459,"booking":11,"acc_booking":9399,"fulfillment":11,"acc_fulfillment":8940,"transfer_cost":0.0,"port_name":"San Antonio","position":{"lat":29.424349,"lng":-98.491142},"status":"surplus"},{"frame_index":1094,"name":"ports_14","capacity":10000,"empty":4,"full":153,"on_shipper":0,"on_consignee":165,"shortage":10,"acc_shortage":1294,"booking":10,"acc_booking":9456,"fulfillment":0,"acc_fulfillment":8162,"transfer_cost":4.0,"port_name":"Santos","position":{"lat":-23.96083,"lng":-46.33361},"status":"balance"},{"frame_index":1094,"name":"ports_15","capacity":10000,"empty":0,"full":3323,"on_shipper":0,"on_consignee":0,"shortage":70,"acc_shortage":1769,"booking":70,"acc_booking":62635,"fulfillment":0,"acc_fulfillment":60866,"transfer_cost":0.0,"port_name":"Seattle","position":{"lat":47.608013,"lng":-122.335167},"status":"demand"},{"frame_index":1094,"name":"ports_16","capacity":10000,"empty":1764,"full":2601,"on_shipper":144,"on_consignee":0,"shortage":0,"acc_shortage":817,"booking":83,"acc_booking":89297,"fulfillment":83,"acc_fulfillment":88480,"transfer_cost":0.0,"port_name":"Shanghai","position":{"lat":31.224361,"lng":121.46917},"status":"surplus"},{"frame_index":1094,"name":"ports_17","capacity":10000,"empty":983,"full":1097,"on_shipper":67,"on_consignee":0,"shortage":0,"acc_shortage":619,"booking":39,"acc_booking":36067,"fulfillment":39,"acc_fulfillment":35448,"transfer_cost":0.0,"port_name":"Singapore","position":{"lat":1.29027,"lng":103.851959},"status":"surplus"},{"frame_index":1094,"name":"ports_18","capacity":10000,"empty":508,"full":24,"on_shipper":26,"on_consignee":14,"shortage":0,"acc_shortage":1374,"booking":17,"acc_booking":13836,"fulfillment":17,"acc_fulfillment":12462,"transfer_cost":0.0,"port_name":"Sydney","position":{"lat":-33.865143,"lng":151.2099},"status":"surplus"},{"frame_index":1094,"name":"ports_19","capacity":10000,"empty":572,"full":901,"on_shipper":23,"on_consignee":0,"shortage":0,"acc_shortage":0,"booking":19,"acc_booking":18338,"fulfillment":19,"acc_fulfillment":18338,"transfer_cost":0.0,"port_name":"Vancouver","position":{"lat":49.246292,"lng":-123.116226},"status":"surplus"},{"frame_index":1094,"name":"ports_20","capacity":10000,"empty":267,"full":1700,"on_shipper":95,"on_consignee":0,"shortage":0,"acc_shortage":2447,"booking":77,"acc_booking":62447,"fulfillment":77,"acc_fulfillment":60000,"transfer_cost":0.0,"port_name":"Yantian","position":{"lat":26.8533,"lng":119.8575},"status":"demand"},{"frame_index":1094,"name":"ports_21","capacity":10000,"empty":1013,"full":963,"on_shipper":76,"on_consignee":0,"shortage":0,"acc_shortage":10285,"booking":69,"acc_booking":59499,"fulfillment":69,"acc_fulfillment":49214,"transfer_cost":0.0,"port_name":"Yokohama","position":{"lat":35.443707,"lng":139.638031},"status":"surplus"}]