[{"frame_index":899,"name":"ports_0","capacity":10000,"empty":803,"full":1503,"on_shipper":81,"on_consignee":0,"shortage":0,"acc_shortage":522,"booking":69,"acc_booking":115332,"fulfillment":69,"acc_fulfillment":114810,"transfer_cost":0.0,"port_name":"Bremerhaven","position":{"lat":53.549999,"lng":8.583333},"status":"surplus"},{"frame_index":899,"name":"ports_1","capacity":10000,"empty":404,"full":38,"on_shipper":7,"on_consignee":0,"shortage":0,"acc_shortage":113,"booking":5,"acc_booking":7667,"fulfillment":5,"acc_fulfillment":7554,"transfer_cost":0.0,"port_name":"Durban","position":{"lat":-29.8579,"lng":31.0292},"status":"surplus"},{"frame_index":899,"name":"ports_2","capacity":10000,"empty":244,"full":459,"on_shipper":5,"on_consignee":0,"shortage":0,"acc_shortage":298,"booking":5,"acc_booking":7629,"fulfillment":5,"acc_fulfillment":7331,"transfer_cost":0.0,"port_name":"Itagual","position":{"lat":-22.85222,"lng":-43.77528},"status":"surplus"},{"frame_index":899,"name":"ports_3","capacity":10000,"empty":3039,"full":1507,"on_shipper":32,"on_consignee":0,"shortage":0,"acc_shortage":0,"booking":28,"acc_booking":43641,"fulfillment":28,"acc_fulfillment":43641,"transfer_cost":0.0,"port_name":"LeHavre","position":{"lat":49.490002,"lng":0.1},"status":"surplus"},{"frame_index":899,"name":"ports_4","capacity":10000,"empty":335,"full":491,"on_shipper":27,"on_consignee":0,"shortage":0,"acc_shortage":290,"booking":23,"acc_booking":36552,"fulfillment":23,"acc_fulfillment":36262,"transfer_cost":0.0,"port_name":"Los Angeles","position":{"lat":34.052235,"lng":-118.243683},"status":"surplus"},{"frame_index":899,"name":"ports_5","capacity":10000,"empty":1241,"full":320,"on_shipper":31,"on_consignee":0,"shortage":0,"acc_shortage":163,"booking":25,"acc_booking":36663,"fulfillment":25,"acc_fulfillment":36500,"transfer_cost":0.0,"port_name":"Manzanillo","position":{"lat":19.11695,"lng":-104.34214},"status":"surplus"},{"frame_index":899,"name":"ports_6","capacity":10000,"empty":538,"full":168,"on_shipper":9,"on_consignee":0,"shortage":0,"acc_shortage":1855,"booking":7,"acc_booking":11249,"fulfillment":7,"acc_fulfillment":9394,"transfer_cost":0.0,"port_name":"Melbourne","position":{"lat":-37.840935,"lng":144.946457},"status":"surplus"},{"frame_index":899,"name":"ports_7","capacity":10000,"empty":1013,"full":52,"on_shipper":10,"on_consignee":0,"shortage":0,"acc_shortage":0,"booking":7,"acc_booking":11260,"fulfillment":7,"acc_fulfillment":11260,"transfer_cost":0.0,"port_name":"Montreal","position":{"lat":45.516136,"lng":-73.65683},"status":"surplus"},{"frame_index":899,"name":"ports_8","capacity":10000,"empty":4418,"full":177,"on_shipper":15,"on_consignee":0,"shortage":0,"acc_shortage":136,"booking":15,"acc_booking":21998,"fulfillment":15,"acc_fulfillment":21862,"transfer_cost":0.0,"port_name":"New York","position":{"lat":40.73061,"lng":-73.935242},"status":"surplus"},{"frame_index":899,"name":"ports_9","capacity":10000,"empty":336,"full":0,"on_shipper":19,"on_consignee":554,"shortage":0,"acc_shortage":45,"booking":16,"acc_booking":22020,"fulfillment":16,"acc_fulfillment":21975,"transfer_cost":1344.0,"port_name":"Oakland","position":{"lat":37.804363,"lng":-122.271111},"status":"surplus"},{"frame_index":899,"name":"ports_10","capacity":10000,"empty":1110,"full":76,"on_shipper":7,"on_consignee":0,"shortage":0,"acc_shortage":314,"booking":6,"acc_booking":11291,"fulfillment":6,"acc_fulfillment":10977,"transfer_cost":0.0,"port_name":"Prince Rupert","position":{"lat":54.312519,"lng":-130.305405},"status":"surplus"},{"frame_index":899,"name":"ports_11","capacity":10000,"empty":216,"full":2494,"on_shipper":33,"on_consignee":0,"shortage":0,"acc_shortage":204,"booking":28,"acc_booking":43595,"fulfillment":28,"acc_fulfillment":43391,"transfer_cost":0.0,"port_name":"Pusan","position":{"lat":35.166668,"lng":129.066666},"status":"surplus"},{"frame_index":899,"name":"ports_12","capacity":10000,"empty":2185,"full":202,"on_shipper":45,"on_consignee":0,"shortage":0,"acc_shortage":0,"booking":41,"acc_booking":58293,"fulfillment":41,"acc_fulfillment":58293,"transfer_cost":0.0,"port_name":"Qingdao","position":{"lat":36.066898,"lng":120.382698},"status":"surplus"},{"frame_index":899,"name":"ports_13","capacity":10000,"empty":256,"full":106,"on_shipper":6,"on_consignee":0,"shortage":0,"acc_shortage":449,"booking":5,"acc_booking":7636,"fulfillment":5,"acc_fulfillment":7187,"transfer_cost":0.0,"port_name":"San Antonio","position":{"lat":29.424349,"lng":-98.491142},"status":"surplus"},{"frame_index":899,"name":"ports_14","capacity":10000,"empty":322,"full":9,"on_shipper":5,"on_consignee":0,"shortage":0,"acc_shortage":819,"booking":4,"acc_booking":7689,"fulfillment":4,"acc_fulfillment":6870,"transfer_cost":0.0,"port_name":"Santos","position":{"lat":-23.96083,"lng":-46.33361},"status":"surplus"},{"frame_index":899,"name":"ports_15","capacity":10000,"empty":243,"full":1464,"on_shipper":35,"on_consignee":785,"shortage":0,"acc_shortage":0,"booking":33,"acc_booking":50917,"fulfillment":33,"acc_fulfillment":50917,"transfer_cost":0.0,"port_name":"Seattle","position":{"lat":47.608013,"lng":-122.335167},"status":"surplus"},{"frame_index":899,"name":"ports_16","capacity":10000,"empty":1164,"full":2985,"on_shipper":49,"on_consignee":0,"shortage":0,"acc_shortage":817,"booking":45,"acc_booking":72506,"fulfillment":45,"acc_fulfillment":71689,"transfer_cost":0.0,"port_name":"Shanghai","position":{"lat":31.224361,"lng":121.46917},"status":"surplus"},{"frame_index":899,"name":"ports_17","capacity":10000,"empty":1547,"full":251,"on_shipper":23,"on_consignee":0,"shortage":0,"acc_shortage":283,"booking":19,"acc_booking":29311,"fulfillment":19,"acc_fulfillment":29028,"transfer_cost":0.0,"port_name":"Singapore","position":{"lat":1.29027,"lng":103.851959},"status":"surplus"},{"frame_index":899,"name":"ports_18","capacity":10000,"empty":1105,"full":91,"on_shipper":10,"on_consignee":0,"shortage":0,"acc_shortage":1374,"booking":7,"acc_booking":11265,"fulfillment":7,"acc_fulfillment":9891,"transfer_cost":0.0,"port_name":"Sydney","position":{"lat":-33.865143,"lng":151.2099},"status":"surplus"},{"frame_index":899,"name":"ports_19","capacity":10000,"empty":1065,"full":349,"on_shipper":12,"on_consignee":0,"shortage":0,"acc_shortage":0,"booking":10,"acc_booking":14911,"fulfillment":10,"acc_fulfillment":14911,"transfer_cost":0.0,"port_name":"Vancouver","position":{"lat":49.246292,"lng":-123.116226},"status":"surplus"},{"frame_index":899,"name":"ports_20","capacity":10000,"empty":365,"full":1931,"on_shipper":37,"on_consignee":0,"shortage":0,"acc_shortage":1292,"booking":32,"acc_booking":50639,"fulfillment":32,"acc_fulfillment":49347,"transfer_cost":0.0,"port_name":"Yantian","position":{"lat":26.8533,"lng":119.8575},"status":"surplus"},{"frame_index":899,"name":"ports_21","capacity":10000,"empty":643,"full":233,"on_shipper":26,"on_consignee":0,"shortage":0,"acc_shortage":7235,"booking":26,"acc_booking":48248,"fulfillment":26,"acc_fulfillment":41013,"transfer_cost":0.0,"port_name":"Yokohama","position":{"lat":35.443707,"lng":139.638031},"status":"surplus"}]