[{"frame_index":11,"name":"ports_0","capacity":10000,"empty":15474,"full":425,"on_shipper":101,"on_consignee":0,"shortage":0,"acc_shortage":0,"booking":61,"acc_booking":526,"fulfillment":61,"acc_fulfillment":526,"transfer_cost":0.0,"port_name":"Bremerhaven","position":{"lat":53.549999,"lng":8.583333},"status":"surplus"},{"frame_index":11,"name":"ports_1","capacity":10000,"empty":962,"full":33,"on_shipper":5,"on_consignee":0,"shortage":0,"acc_shortage":0,"booking":5,"acc_booking":38,"fulfillment":5,"acc_fulfillment":38,"transfer_cost":0.0,"port_name":"Durban","position":{"lat":-29.8579,"lng":31.0292},"status":"surplus"},{"frame_index":11,"name":"ports_2","capacity":10000,"empty":963,"full":27,"on_shipper":10,"on_consignee":0,"shortage":0,"acc_shortage":0,"booking":5,"acc_booking":37,"fulfillment":5,"acc_fulfillment":37,"transfer_cost":0.0,"port_name":"Itagual","position":{"lat":-22.85222,"lng":-43.77528},"status":"surplus"},{"frame_index":11,"name":"ports_3","capacity":10000,"empty":5791,"full":64,"on_shipper":35,"on_consignee":0,"shortage":0,"acc_shortage":0,"booking":26,"acc_booking":209,"fulfillment":26,"acc_fulfillment":209,"transfer_cost":0.0,"port_name":"LeHavre","position":{"lat":49.490002,"lng":0.1},"status":"surplus"},{"frame_index":11,"name":"ports_4","capacity":10000,"empty":4824,"full":82,"on_shipper":32,"on_consignee":0,"shortage":0,"acc_shortage":0,"booking":21,"acc_booking":176,"fulfillment":21,"acc_fulfillment":176,"transfer_cost":0.0,"port_name":"Los Angeles","position":{"lat":34.052235,"lng":-118.243683},"status":"surplus"},{"frame_index":11,"name":"ports_5","capacity":10000,"empty":4829,"full":48,"on_shipper":32,"on_consignee":0,"shortage":0,"acc_shortage":0,"booking":19,"acc_booking":171,"fulfillment":19,"acc_fulfillment":171,"transfer_cost":0.0,"port_name":"Manzanillo","position":{"lat":19.11695,"lng":-104.34214},"status":"surplus"},{"frame_index":11,"name":"ports_6","capacity":10000,"empty":1443,"full":47,"on_shipper":10,"on_consignee":0,"shortage":0,"acc_shortage":0,"booking":7,"acc_booking":57,"fulfillment":7,"acc_fulfillment":57,"transfer_cost":0.0,"port_name":"Melbourne","position":{"lat":-37.840935,"lng":144.946457},"status":"surplus"},{"frame_index":11,"name":"ports_7","capacity":10000,"empty":1444,"full":44,"on_shipper":12,"on_consignee":0,"shortage":0,"acc_shortage":0,"booking":7,"acc_booking":56,"fulfillment":7,"acc_fulfillment":56,"transfer_cost":0.0,"port_name":"Montreal","position":{"lat":45.516136,"lng":-73.65683},"status":"surplus"},{"frame_index":11,"name":"ports_8","capacity":10000,"empty":2893,"full":88,"on_shipper":19,"on_consignee":0,"shortage":0,"acc_shortage":0,"booking":12,"acc_booking":107,"fulfillment":12,"acc_fulfillment":107,"transfer_cost":0.0,"port_name":"New York","position":{"lat":40.73061,"lng":-73.935242},"status":"surplus"},{"frame_index":11,"name":"ports_9","capacity":10000,"empty":2893,"full":84,"on_shipper":23,"on_consignee":0,"shortage":0,"acc_shortage":0,"booking":15,"acc_booking":107,"fulfillment":15,"acc_fulfillment":107,"transfer_cost":0.0,"port_name":"Oakland","position":{"lat":37.804363,"lng":-122.271111},"status":"surplus"},{"frame_index":11,"name":"ports_10","capacity":10000,"empty":1444,"full":47,"on_shipper":9,"on_consignee":0,"shortage":0,"acc_shortage":0,"booking":6,"acc_booking":56,"fulfillment":6,"acc_fulfillment":56,"transfer_cost":0.0,"port_name":"Prince Rupert","position":{"lat":54.312519,"lng":-130.305405},"status":"surplus"},{"frame_index":11,"name":"ports_11","capacity":10000,"empty":5787,"full":175,"on_shipper":38,"on_consignee":0,"shortage":0,"acc_shortage":0,"booking":26,"acc_booking":213,"fulfillment":26,"acc_fulfillment":213,"transfer_cost":0.0,"port_name":"Pusan","position":{"lat":35.166668,"lng":129.066666},"status":"surplus"},{"frame_index":11,"name":"ports_12","capacity":10000,"empty":7717,"full":215,"on_shipper":55,"on_consignee":0,"shortage":0,"acc_shortage":0,"booking":35,"acc_booking":283,"fulfillment":35,"acc_fulfillment":283,"transfer_cost":0.0,"port_name":"Qingdao","position":{"lat":36.066898,"lng":120.382698},"status":"surplus"},{"frame_index":11,"name":"ports_13","capacity":10000,"empty":962,"full":33,"on_shipper":5,"on_consignee":0,"shortage":0,"acc_shortage":0,"booking":5,"acc_booking":38,"fulfillment":5,"acc_fulfillment":38,"transfer_cost":0.0,"port_name":"San Antonio","position":{"lat":29.424349,"lng":-98.491142},"status":"surplus"},{"frame_index":11,"name":"ports_14","capacity":10000,"empty":960,"full":36,"on_shipper":4,"on_consignee":0,"shortage":0,"acc_shortage":0,"booking":4,"acc_booking":40,"fulfillment":4,"acc_fulfillment":40,"transfer_cost":0.0,"port_name":"Santos","position":{"lat":-23.96083,"lng":-46.33361},"status":"surplus"},{"frame_index":11,"name":"ports_15","capacity":10000,"empty":6758,"full":81,"on_shipper":42,"on_consignee":0,"shortage":0,"acc_shortage":0,"booking":29,"acc_booking":242,"fulfillment":29,"acc_fulfillment":242,"transfer_cost":0.0,"port_name":"Seattle","position":{"lat":47.608013,"lng":-122.335167},"status":"surplus"},{"frame_index":11,"name":"ports_16","capacity":10000,"empty":9659,"full":255,"on_shipper":59,"on_consignee":0,"shortage":0,"acc_shortage":0,"booking":43,"acc_booking":341,"fulfillment":43,"acc_fulfillment":341,"transfer_cost":0.0,"port_name":"Shanghai","position":{"lat":31.224361,"lng":121.46917},"status":"surplus"},{"frame_index":11,"name":"ports_17","capacity":10000,"empty":3856,"full":14,"on_shipper":32,"on_consignee":0,"shortage":0,"acc_shortage":0,"booking":18,"acc_booking":144,"fulfillment":18,"acc_fulfillment":144,"transfer_cost":0.0,"port_name":"Singapore","position":{"lat":1.29027,"lng":103.851959},"status":"surplus"},{"frame_index":11,"name":"ports_18","capacity":10000,"empty":1445,"full":48,"on_shipper":7,"on_consignee":0,"shortage":0,"acc_shortage":0,"booking":7,"acc_booking":55,"fulfillment":7,"acc_fulfillment":55,"transfer_cost":0.0,"port_name":"Sydney","position":{"lat":-33.865143,"lng":151.2099},"status":"surplus"},{"frame_index":11,"name":"ports_19","capacity":10000,"empty":1928,"full":30,"on_shipper":15,"on_consignee":0,"shortage":0,"acc_shortage":0,"booking":9,"acc_booking":72,"fulfillment":9,"acc_fulfillment":72,"transfer_cost":0.0,"port_name":"Vancouver","position":{"lat":49.246292,"lng":-123.116226},"status":"surplus"},{"frame_index":11,"name":"ports_20","capacity":10000,"empty":6750,"full":162,"on_shipper":52,"on_consignee":0,"shortage":0,"acc_shortage":0,"booking":30,"acc_booking":250,"fulfillment":30,"acc_fulfillment":250,"transfer_cost":0.0,"port_name":"Yantian","position":{"lat":26.8533,"lng":119.8575},"status":"surplus"},{"frame_index":11,"name":"ports_21","capacity":10000,"empty":7843,"full":122,"on_shipper":35,"on_consignee":0,"shortage":0,"acc_shortage":0,"booking":22,"acc_booking":157,"fulfillment":22,"acc_fulfillment":157,"transfer_cost":0.0,"port_name":"Yokohama","position":{"lat":35.443707,"lng":139.638031},"status":"surplus"}]